x_pos,y_pos,z_pos,roll,pitch,yaw,u_x,u_y,u_z,comp_u_x,comp_u_y,roll_mder,pitch_mder,yaw_mder,steer,throttle,brake,time_step,act_x_pos,act_y_pos,act_z_pos,act_roll,act_pitch,act_yaw,act_u_x,act_u_y,act_u_z,act_comp_u_x,act_comp_u_y,act_roll_mder,act_pitch_mder,act_yaw_mder,accel_roll,accel_x,accel_y,accel_yaw
6.657436848,-1.487279177,0.7979865074,6.110710819e-05,-0.005195498001,0.0007918675547,1.506771684,0.001155510778,0.008185427636,1.506772161,-3.765308793e-05,8.748561413e-06,-0.01239863317,0.0001411527483,0,1,0,0.0136578083,6.708838463,-1.487240076,0.7979338765,6.139493436e-05,-0.005523800515,0.0007878952016,1.694959164,0.001300323289,0.007237934973,1.694959641,-3.512714466e-05,1.113920371e-05,-0.01287771761,0.0001627610909,2.107411092e-05,13.7787466,0.0001849449909,0.001582123688
6.796583176,-1.487173319,0.7978451252,6.174718874e-05,-0.005837201606,0.0007825744106,1.933852553,0.001481513144,0.0136145819,1.933853149,-3.187070615e-05,7.592736438e-06,-0.006604436319,0.0001396384469,0,1,0,0.03387784958,6.861289978,-1.487124085,0.797896266,6.198226838e-05,-0.005995988204,0.000778775718,2.098651886,0.001603893703,0.01262124348,2.098652601,-3.048578765e-05,6.721903446e-06,-0.004993140697,0.0001069914942,6.939036666e-06,4.864519119,4.087976413e-05,-0.0009636665927
7.009631157,-1.487012029,0.7979578376,6.224060053e-05,-0.00620400859,0.0007703393348,2.425348043,0.001843777602,0.01135187969,2.425348759,-2.456380571e-05,2.08028905e-06,-0.003012133529,0.000133024354,0,1,0,0.03577899933,7.091622829,-1.486950397,0.7979486585,6.226336741e-05,-0.006249904287,0.0007668818627,2.5770154,0.001949818572,-0.01128495205,2.577016115,-2.644821689e-05,-9.847059346e-08,-0.001067872625,9.869602218e-05,6.36319669e-07,4.239005089,-5.266807784e-05,-0.0009594548028
7.134109497,-1.486918449,0.7977656126,6.22707812e-05,-0.006284474395,0.000764183409,2.669602633,0.002017186489,0.0131722223,2.669603348,-2.287999814e-05,-6.282040772e-07,-0.002408626955,0.000182571428,0,1,0,0.01605296135,7.185247421,-1.486879945,0.7980700731,6.226459139e-05,-0.006297349341,0.0007620756499,2.735345125,0.002061622916,-0.005505267065,2.73534584,-2.291745841e-05,-1.261111038e-06,-0.0007994784974,0.0001405897929,-3.855867021e-07,4.095349789,-2.333542625e-06,-0.002615195699
7.269762993,-1.486816883,0.7978245616,6.226103869e-05,-0.006324051879,0.0007576915086,2.894375324,0.002172964858,0.01361102331,2.89437604,-2.00792274e-05,-5.030487387e-07,-0.001237189048,0.0001526544511,0,0.9075770974,0,0.0347571373,7.367916107,-1.486743689,0.7979369164,6.22746969e-05,-0.006332992612,0.0007531393326,3.043594599,0.002274267608,0.01211701985,3.043595314,-1.798365884e-05,-1.58040848e-07,-0.000534038234,0.0001642715361,3.929612262e-07,4.293198109,6.029174619e-05,0.000334235956
7.367916107,-1.486743689,0.7979369164,6.227469567e-05,-0.006332992576,0.0007531393203,3.043594599,0.002274267608,0.01211701985,3.043595314,-1.798365884e-05,-1.58040848e-07,-0.000534038234,0.0001642715361,0,0.8184309006,0,0.01520991325,7.41997242,-1.486705303,0.798180759,6.229768655e-05,-0.006336568696,0.0007508632391,3.122395515,0.002327466151,0.006501937751,3.122396231,-1.702633199e-05,5.682151141e-07,-0.0002334074234,0.0001478206104,1.511572236e-06,5.180891991,6.294097693e-05,-0.001081592287
7.41997242,-1.486705303,0.798180759,6.229768769e-05,-0.006336568855,0.0007508632261,3.122395515,0.002327466151,0.006501937751,3.122396231,-1.702633199e-05,5.682151141e-07,-0.0002334074234,0.0001478206104,0,0.763497591,0,0.01857995987,7.474001884,-1.486665368,0.7983147502,6.229574056e-05,-0.006324409716,0.0007487562397,3.188544035,0.002369658323,-0.01552607119,3.18854475,-1.7784394e-05,-8.092912935e-07,0.0006595147424,0.0001099675792,-1.047971523e-07,3.560207844,-4.079997962e-05,-0.002037304221
7.522843838,-1.486629248,0.7980750799,6.229973951e-05,-0.006316422485,0.0007461433997,3.270103931,0.002425126731,0.007177129854,3.270104885,-1.484026598e-05,-8.202596291e-07,0.0005294845323,0.0001738733845,0,0.6068252325,0,0.01602268219,7.582755566,-1.486585259,0.79823035,6.227506443e-05,-0.006293534842,0.0007440367963,3.332734346,0.002465068595,-0.01316500362,3.3327353,-1.460896419e-05,-2.318910447e-06,0.001417251653,0.0001255748357,-1.540009407e-06,3.908859491,1.443589645e-05,-0.003014385933
7.582755566,-1.486585259,0.79823035,6.227506674e-05,-0.006293534767,0.0007440368063,3.332734346,0.002465068595,-0.01316500362,3.3327353,-1.460896419e-05,-2.318910447e-06,0.001417251653,0.0001255748357,0,0.5870042443,0,0.03376221657,7.68788147,-1.48650825,0.7978173494,6.222523826e-05,-0.006226538901,0.0007394870309,3.474064827,0.00255849259,0.0116672935,3.474065781,-1.053376309e-05,-3.31711567e-06,0.002246398479,0.0001440349733,-1.475865247e-06,4.186054707,0.0001207030073,0.0005467691226
7.68788147,-1.48650825,0.7978173494,6.222524098e-05,-0.00622653868,0.0007394870045,3.474064827,0.00255849259,0.0116672935,3.474065781,-1.053376309e-05,-3.31711567e-06,0.002246398479,0.0001440349733,0,0.5870042443,0,0.0164899826,7.752590656,-1.486460805,0.7980692983,6.219404928e-05,-0.006179809071,0.0007378026993,3.530253887,0.002593728947,-0.00922815036,3.530254841,-1.090249771e-05,-2.503143605e-06,0.002816295018,0.0001007534229,-1.891554689e-06,3.407466412,-2.236112778e-05,-0.002624717774
7.752590656,-1.486460805,0.7980692983,6.219404895e-05,-0.006179809105,0.0007378027076,3.530253887,0.002593728947,-0.00922815036,3.530254841,-1.090249771e-05,-2.503143605e-06,0.002816295018,0.0001007534229,0,0.5843378901,0,0.01766896248,7.805202007,-1.486422539,0.7979249954,6.214121988e-05,-0.006117104595,0.0007356130402,3.591264009,0.002632714109,-0.01277913619,3.591264963,-9.067143765e-06,-3.789612038e-06,0.003573419293,0.0001292997331,-2.98993632e-06,3.452954531,0.0001038744595,0.001615618938
7.805202007,-1.486422539,0.7979249954,6.214121822e-05,-0.006117104553,0.0007356130518,3.591264009,0.002632714109,-0.01277913619,3.591264963,-9.067143765e-06,-3.789612038e-06,0.003573419293,0.0001292997331,0,0.5491934419,0,0.01580023766,7.864749432,-1.486379385,0.7977038622,6.21147404e-05,-0.006059407539,0.0007334232052,3.65481472,0.002674186137,0.01496135071,3.654815674,-6.340433174e-06,-2.509670367e-06,0.00365968165,0.0001363289775,-1.67578628e-06,4.022136211,0.0001725740294,0.0004448822001
7.864749432,-1.486379385,0.7977038622,6.211474101e-05,-0.006059407722,0.0007334232214,3.65481472,0.002674186137,0.01496135071,3.654815674,-6.340433174e-06,-2.509670367e-06,0.00365968165,0.0001363289775,0,0.516779542,0,0.0175807476,7.928568363,-1.486332774,0.7980005741,6.210191802e-05,-0.005984663492,0.0007315710336,3.708182096,0.002706491854,-0.01157682948,3.708183289,-6.3072589e-06,-1.332333454e-06,0.004231114406,0.000101483929,-7.293771773e-07,3.035571337,1.886966061e-06,-0.001982000424
7.928568363,-1.486332774,0.7980005741,6.210192078e-05,-0.005984663498,0.0007315710536,3.708182096,0.002706491854,-0.01157682948,3.708183289,-6.3072589e-06,-1.332333454e-06,0.004231114406,0.000101483929,0,0.4609788656,0,0.03294205666,8.053224564,-1.486242294,0.7980451584,6.211917591e-05,-0.00581335971,0.0007273614153,3.817423344,0.002773709828,-0.01520607062,3.817424536,-2.937065119e-06,-5.393138167e-07,0.005640598945,0.000107178239,5.238024983e-07,3.31616354,0.0001023067234,0.0001728583593
8.053224564,-1.486242294,0.7980451584,6.211917935e-05,-0.005813359749,0.0007273614174,3.817423344,0.002773709828,-0.01520607062,3.817424536,-2.937065119e-06,-5.393138167e-07,0.005640598945,0.000107178239,0,0.451084435,0,0.01613092422,8.115132332,-1.486197591,0.7977848053,6.212737413e-05,-0.005723953238,0.0007258468148,3.86773181,0.002805100288,0.01289433334,3.867733002,-2.280896524e-06,-4.66587835e-09,0.005529546179,8.881491522e-05,5.08017024e-07,3.118759155,4.067768168e-05,-0.001138392487
8.115132332,-1.486197591,0.7977848053,6.212737208e-05,-0.005723953247,0.0007258467958,3.86773181,0.002805100288,0.01289433334,3.867733002,-2.280896524e-06,-4.66587835e-09,0.005529546179,8.881491522e-05,0,0.451084435,0,0.01618099213,8.179605484,-1.486151099,0.7980219126,6.211823571e-05,-0.005613207526,0.0007238271016,3.91266346,0.002831682796,-0.01526806876,3.912664652,-4.095221868e-07,-1.252548827e-06,0.006844441406,0.0001256714604,-5.646359682e-07,2.776816845,0.0001156526341,0.002277767984
8.179605484,-1.486151099,0.7980219126,6.211823347e-05,-0.005613207351,0.0007238271064,3.91266346,0.002831682796,-0.01526806876,3.912664652,-4.095221868e-07,-1.252548827e-06,0.006844441406,0.0001256714604,0,0.4663758278,0,0.01813697815,8.242794991,-1.486105561,0.7977589965,6.209321881e-05,-0.005498647387,0.0007223133143,3.955829382,0.002857989399,-0.009659967385,3.955830574,6.407734077e-07,-1.871142103e-06,0.006360103842,8.643082401e-05,-1.379207788e-06,2.379995346,5.79090738e-05,-0.00216357084
8.242794991,-1.486105561,0.7977589965,6.209321873e-05,-0.005498647224,0.0007223132998,3.955829382,0.002857989399,-0.009659967385,3.955830574,6.407734077e-07,-1.871142103e-06,0.006360103842,8.643082401e-05,0,0.5446959734,0,0.01549887657,8.306724548,-1.486059666,0.7975862622,6.207060038e-05,-0.005379915397,0.0007211368237,4.001831532,0.002886176109,0.01447450835,4.001832485,3.076432051e-07,-1.817088446e-06,0.007598591037,6.9132926e-05,-1.459354507e-06,2.968080282,-2.149382817e-05,-0.001116074272
8.306724548,-1.486059666,0.7975862622,6.207059778e-05,-0.005379915237,0.0007211368065,4.001831532,0.002886176109,0.01447450835,4.001832485,3.076432051e-07,-1.817088446e-06,0.007598591037,6.9132926e-05,0,0.5906022191,0,0.03308129311,8.441560745,-1.485962987,0.7976858616,6.199911997e-05,-0.005133032158,0.0007183627554,4.078238487,0.002931382041,-0.01015837863,4.078239441,1.726982077e-06,-2.83471627e-06,0.007563571446,5.760545901e-05,-2.160671556e-06,2.309672594,4.290457582e-05,-0.0003484587651
8.441560745,-1.485962987,0.7976858616,6.199911877e-05,-0.005133032333,0.0007183627458,4.078238487,0.002931382041,-0.01015837863,4.078239441,1.726982077e-06,-2.83471627e-06,0.007563571446,5.760545901e-05,0,0.6338421106,0,0.01669979095,8.508363724,-1.485915184,0.7975012064,6.198522093e-05,-0.005020140563,0.0007167645533,4.117472649,0.002954551484,0.01675983705,4.117473602,3.292638667e-06,-1.370988457e-06,0.006803134922,0.0001081790906,-8.322161307e-07,2.349380493,9.375306399e-05,0.003028399078
8.508363724,-1.485915184,0.7975012064,6.198522169e-05,-0.00502014067,0.0007167645381,4.117472649,0.002954551484,0.01675983705,4.117473602,3.292638667e-06,-1.370988457e-06,0.006803134922,0.0001081790906,0,0.6329426169,0,0.0169711113,8.576849937,-1.485866189,0.7978076935,6.199091279e-05,-0.004896163674,0.000715503882,4.155294418,0.002976073651,-0.01459985599,4.155295372,2.943918389e-06,-3.084210221e-09,0.007314877119,7.078827912e-05,3.353406157e-07,2.228597164,-2.054787547e-05,-0.002203203505
8.576849937,-1.485866189,0.7978076935,6.199091149e-05,-0.004896163475,0.0007155038766,4.155294418,0.002976073651,-0.01459985599,4.155295372,2.943918389e-06,-3.084210221e-09,0.007314877119,7.078827912e-05,0,0.6302441359,0,0.01634502411,8.645719528,-1.485816956,0.7975476384,6.199313557e-05,-0.004787206154,0.0007140741665,4.194378853,0.002998411655,0.01454209071,4.194379807,3.313544767e-06,-2.768935872e-07,0.0066322661,8.748556138e-05,1.360710229e-07,2.39121294,2.261400004e-05,0.001021551434
8.645719528,-1.485816956,0.7975476384,6.199313793e-05,-0.004787206184,0.00071407418,4.194378853,0.002998411655,0.01454209071,4.194379807,3.313544767e-06,-2.768935872e-07,0.0066322661,8.748556138e-05,0,0.6374722123,0,0.01674294472,8.716570854,-1.485766411,0.7978177667,6.200841329e-05,-0.004674553611,0.0007134032111,4.231173992,0.003018884687,-0.01512339991,4.231174946,3.510616864e-07,7.335458463e-07,0.00671216473,3.59299338e-05,9.123456834e-07,2.197650433,-0.000176939182,-0.003079244867
8.716570854,-1.485766411,0.7978177667,6.200841017e-05,-0.004674553405,0.0007134032203,4.231173992,0.003018884687,-0.01512339991,4.231174946,3.510616864e-07,7.335458463e-07,0.00671216473,3.59299338e-05,0,0.6320431232,0,0.03323888779,8.857434273,-1.485666275,0.7978050709,6.201687868e-05,-0.004474281926,0.0007101217887,4.308796406,0.003063133685,0.006744559854,4.308797359,3.363103588e-06,-1.417217845e-07,0.00653327303,6.182196375e-05,2.547773192e-07,2.33528924,9.061800665e-05,0.0007789679803
8.857434273,-1.485666275,0.7978050709,6.201687938e-05,-0.004474281799,0.0007101217634,4.308796406,0.003063133685,0.006744559854,4.308797359,3.363103588e-06,-1.417217845e-07,0.00653327303,6.182196375e-05,0,0.6392390728,0,0.01677799225,8.933465004,-1.485612273,0.7979314923,6.200241484e-05,-0.004382848182,0.0007086915098,4.342882156,0.003082202049,-0.01591420919,4.34288311,4.437963526e-06,-1.301647671e-06,0.005466334987,0.0001001157434,-8.621142911e-07,2.031574965,6.406367902e-05,0.002282381523
8.933465004,-1.485612273,0.7979314923,6.200241478e-05,-0.004382848274,0.0007086914848,4.342882156,0.003082202049,-0.01591420919,4.34288311,4.437963526e-06,-1.301647671e-06,0.005466334987,0.0001001157434,0,0.6320431232,0,0.01634216309,9.000839233,-1.485564709,0.7976714373,6.198658484e-05,-0.004297971502,0.0007076826484,4.379980564,0.003103507916,0.009548046626,4.379981518,3.871267381e-06,-1.189096565e-06,0.00519155385,5.136136679e-05,-9.686564226e-07,2.270103931,-3.46769375e-05,-0.002983349143
9.000839233,-1.485564709,0.7976714373,6.19865823e-05,-0.004297971725,0.0007076826296,4.379980564,0.003103507916,0.009548046626,4.379981518,3.871267381e-06,-1.189096565e-06,0.00519155385,5.136136679e-05,0,0.6297944188,0,0.01925802231,9.073889732,-1.485513091,0.7978455424,6.196838132e-05,-0.00421094872,0.0007060837106,4.415298462,0.003123105504,-0.01816158928,4.415299416,5.534638149e-06,-1.338086008e-06,0.004618860316,8.886690193e-05,-9.451111396e-07,1.833931684,8.637287829e-05,0.001947527868
9.073889732,-1.485513091,0.7978455424,6.196837785e-05,-0.004210948944,0.0007060837233,4.415298462,0.003123105504,-0.01816158928,4.415299416,5.534638149e-06,-1.338086008e-06,0.004618860316,8.886690193e-05,0,0.6158201694,0,0.01528501511,9.146018982,-1.485462189,0.7975361347,6.197023374e-05,-0.004124879691,0.0007049061404,4.456383705,0.003145623719,0.009177497588,4.456384659,4.291063306e-06,-2.302198965e-07,0.005553211085,8.495010843e-05,1.214191343e-07,2.687942505,-8.135908138e-05,-0.0002562505542
9.146018982,-1.485462189,0.7975361347,6.197023322e-05,-0.004124879837,0.0007049061242,4.456383705,0.003145623719,0.009177497588,4.456384659,4.291063306e-06,-2.302198965e-07,0.005553211085,8.495010843e-05,0,0.614053309,0,0.03256797791,9.299261093,-1.485354424,0.7975157499,6.201996946e-05,-0.003981231579,0.0007019601183,4.522924423,0.003180859843,-0.009610277601,4.522925377,5.946786132e-06,1.627738357e-06,0.004167028237,9.880174184e-05,1.527151767e-06,2.043133259,5.083898213e-05,0.0004253145016
9.299261093,-1.485354424,0.7975157499,6.201997166e-05,-0.003981231712,0.000701960118,4.522924423,0.003180859843,-0.009610277601,4.522925377,5.946786132e-06,1.627738357e-06,0.004167028237,9.880174184e-05,0,0.614053309,0,0.01676511765,9.370714188,-1.485304236,0.7973537445,6.203429366e-05,-0.003916024572,0.0007008662627,4.558824539,0.003200094914,0.01428349596,4.558825493,4.96802204e-06,6.024479262e-07,0.003888316918,6.421675062e-05,8.54273253e-07,2.141357899,-5.838098514e-05,-0.002062913729
9.370714188,-1.485304236,0.7973537445,6.203429075e-05,-0.003916024696,0.0007008662797,4.558824539,0.003200094914,0.01428349596,4.558825493,4.96802204e-06,6.024479262e-07,0.003888316918,6.421675062e-05,0,0.6176512241,0,0.01899385452,9.447727203,-1.485250354,0.7976246476,6.205063642e-05,-0.003852844065,0.0006997723413,4.593900681,0.003218906466,0.008222500794,4.593901634,4.221406471e-06,6.507567605e-07,0.0033518665,5.712631901e-05,8.605767334e-07,1.846709967,-3.930827006e-05,-0.0003733013582
9.447727203,-1.485250354,0.7976246476,6.205063983e-05,-0.003852844005,0.0006997723249,4.593900681,0.003218906466,0.008222500794,4.593901634,4.221406471e-06,6.507567605e-07,0.0033518665,5.712631901e-05,0,0.6185507178,0,0.01472997665,9.524579048,-1.48519671,0.7977765203,6.206395283e-05,-0.003782987232,0.0006983414586,4.632964611,0.003239744576,0.00239989534,4.632965565,4.35278298e-06,5.632572311e-07,0.004746997729,8.940125554e-05,9.038031408e-07,2.652002096,8.918989806e-06,0.002191105857
9.524579048,-1.48519671,0.7977765203,6.206395483e-05,-0.003782987129,0.0006983414642,4.632964611,0.003239744576,0.00239989534,4.632965565,4.35278298e-06,5.632572311e-07,0.004746997729,8.940125554e-05,0,0.6179724932,0,0.01630401611,9.611676216,-1.485135913,0.7978227735,6.206495115e-05,-0.003727435621,0.0006970786848,4.662984371,0.003255799646,-0.01455806103,4.662985325,5.332023647e-06,-2.690305507e-07,0.003384771058,8.737145981e-05,6.110869322e-08,1.841249466,6.006131662e-05,-0.0001244966697
9.611676216,-1.485135913,0.7978227735,6.206495163e-05,-0.0037274356,0.0006970787072,4.662984371,0.003255799646,-0.01455806103,4.662985325,5.332023647e-06,-2.690305507e-07,0.003384771058,8.737145981e-05,0,0.6167517304,0,0.03326106071,9.757296562,-1.485034704,0.7973262668,6.208787955e-05,-0.003616094314,0.0006943846374,4.730498791,0.003291029017,0.01300427876,4.730499744,6.242884865e-06,1.198880909e-06,0.003145312192,0.0001089042489,6.893319551e-07,2.029833555,2.738521289e-05,0.0006473873509
9.757296562,-1.485034704,0.7973262668,6.208787818e-05,-0.003616094356,0.0006943846238,4.730498791,0.003291029017,0.01300427876,4.730499744,6.242884865e-06,1.198880909e-06,0.003145312192,0.0001089042489,0,0.6158201694,0,0.01719784737,9.836521149,-1.48497963,0.7975715399,6.211424335e-05,-0.003561496774,0.000693459024,4.763183117,0.003307393985,-0.01626409777,4.763184071,4.321245797e-06,1.348926844e-06,0.003157696454,4.84578195e-05,1.533050522e-06,1.90048933,-0.0001117371867,-0.003514767159
9.836521149,-1.48497963,0.7975715399,6.211424625e-05,-0.003561496735,0.0006934590056,4.763183117,0.003307393985,-0.01626409777,4.763184071,4.321245797e-06,1.348926844e-06,0.003157696454,4.84578195e-05,0.1120398715,0.6185507178,0,0.01847600937,9.914832115,-1.484925508,0.7972960472,1.380276793e-05,-0.003510832353,0.0004152071531,4.797087193,-0.01801675931,0.0125283571,4.797079563,-0.02000854351,-0.002680313308,0.002754935762,0.01513041183,-0.002614822239,1.834567785,-1.083181143,0.8162993193
9.914832115,-1.484925508,0.7972960472,1.380276808e-05,-0.003510832321,0.0004152071488,4.797087193,-0.01801675931,0.0125283571,4.797079563,-0.02000854351,-0.002680313308,0.002754935762,0.01513041183,0.1898138821,0.6239155531,0,0.01383399963,9.997597694,-1.485201955,0.7975407839,-0.0001459417507,-0.003451347586,-0.0005783409599,4.830562115,-0.05907352641,0.005812129471,4.830595493,-0.05627980456,-0.01174482517,0.004292018712,0.07150794566,-0.01154724043,2.422721624,-2.621892452,4.075288296
9.997597694,-1.485201955,0.7975407839,-0.0001459417545,-0.003451347584,-0.0005783409579,4.830562115,-0.05907352641,0.005812129471,4.830595493,-0.05627980456,-0.01174482517,0.004292018712,0.07150794566,0.2624479234,0.6203175783,0,0.01821112633,10.08623695,-1.486338735,0.7976590395,-0.0003664508178,-0.003397583835,-0.002037096588,4.853663921,-0.09858459979,-0.009843907319,4.853854656,-0.08869701624,-0.01240409445,0.002987245796,0.08024670184,-0.01210848056,1.277195215,-1.780077219,0.4798580706
10.08623695,-1.486338735,0.7976590395,-0.0003664508113,-0.003397583729,-0.002037096536,4.853663921,-0.09858459979,-0.009843907319,4.853854656,-0.08869701624,-0.01240409445,0.002987245796,0.08024670184,0.3381659687,0.6176512241,0,0.03203678131,10.24220467,-1.491301537,0.7976286411,-0.001190433614,-0.003251671643,-0.0080901253,4.903814316,-0.2151142508,-0.01680069603,4.905394077,-0.1754351705,-0.02806109749,0.004857721273,0.2060561329,-0.02571989968,1.608757734,-2.707455397,3.92703104
10.24220467,-1.491301537,0.7976286411,-0.001190433628,-0.003251671558,-0.008090125397,4.903814316,-0.2151142508,-0.01680069603,4.905394077,-0.1754351705,-0.02806109749,0.004857721273,0.2060561329,0.4527549148,0.6203175783,0,0.01693630219,10.31931877,-1.495463967,0.7973532081,-0.001744370779,-0.003167867409,-0.01251958819,4.923863411,-0.2813290656,-0.01317102741,4.926999569,-0.2196638882,-0.03356117383,0.005408493802,0.261738956,-0.0327070877,1.275691152,-2.611474276,3.287779331
10.31931877,-1.495463967,0.7973532081,-0.001744370791,-0.003167867428,-0.01251958776,4.923863411,-0.2813290656,-0.01317102741,4.926999569,-0.2196638882,-0.03356117383,0.005408493802,0.261738956,0.4865180254,0.6203175783,0,0.01790690422,10.39968109,-1.501058221,0.7971259952,-0.002362756871,-0.003086089565,-0.01783527861,4.943167686,-0.3535274863,0.01435083989,4.9486866,-0.2653131783,-0.03577274829,0.005316268653,0.2995307446,-0.03453338891,1.21109879,-2.549256325,2.110459089
10.39968109,-1.501058221,0.7971259952,-0.002362756757,-0.003086089622,-0.01783527806,4.943167686,-0.3535274863,0.01435083989,4.9486866,-0.2653131783,-0.03577274829,0.005316268653,0.2995307446,0.5458524227,0.6194180846,0,0.0154440403,10.48318481,-1.507906914,0.7973955274,-0.003096723196,-0.002991438002,-0.02445578954,4.960000515,-0.4346198142,0.00723766908,4.969145298,-0.3132012188,-0.04824766889,0.007370765321,0.4237537682,-0.04752425104,1.324698567,-3.100745678,8.043427467
10.48318481,-1.507906914,0.7973955274,-0.003096723231,-0.002991437912,-0.02445578948,4.960000515,-0.4346198142,0.00723766908,4.969145298,-0.3132012188,-0.04824766889,0.007370765321,0.4237537682,0.5602121949,0.6203175783,0,0.01659274101,10.57102966,-1.516685724,0.7975339293,-0.003831223135,-0.002893686413,-0.03136109773,4.971382141,-0.5095568895,-0.01587365009,4.984915257,-0.3534238636,-0.04532846063,0.007462194189,0.4148302972,-0.04426633939,0.9504131079,-2.424110889,-0.5377936363
10.57102966,-1.516685724,0.7975339293,-0.003831223119,-0.002893686527,-0.03136109933,4.971382141,-0.5095568895,-0.01587365009,4.984915257,-0.3534238636,-0.04532846063,0.007462194189,0.4148302972,0.5530483723,0.6203175783,0,0.0329310894,10.73132801,-1.537785411,0.7970188856,-0.005642172198,-0.002657174711,-0.04947119869,4.985026836,-0.7002968192,0.02894849144,5.013558388,-0.4529253542,-0.06517493725,0.01193824224,0.6400583386,-0.05499207973,0.869789958,-3.02150631,6.839374065
10.73132801,-1.537785411,0.7970188856,-0.005642172415,-0.002657174598,-0.04947119951,4.985026836,-0.7002968192,0.02894849144,5.013558388,-0.4529253542,-0.06517493725,0.01193824224,0.6400583386,0.5561002493,0.6198678613,0,0.01654624939,10.81957722,-1.551754117,0.7974238992,-0.006645119671,-0.002496838069,-0.05901997513,4.984556675,-0.792466104,0.01992912591,5.022622108,-0.4970686436,-0.06212752312,0.01354045421,0.5776914358,-0.06061477959,0.5477809906,-2.667872906,-3.769247055
10.81957722,-1.551754117,0.7974238992,-0.006645119749,-0.002496838104,-0.05901997536,4.984556675,-0.792466104,0.01992912591,5.022622108,-0.4970686436,-0.06212752312,0.01354045421,0.5776914358,0.5908913612,0.6185507178,0,0.01673388481,10.89533424,-1.565849304,0.7977077365,-0.007773235726,-0.002341389755,-0.07040381911,4.980847359,-0.8948124647,0.008344911039,5.031454086,-0.542214632,-0.06893036515,0.01456080005,0.6794375777,-0.06741506606,0.5277900696,-2.697878599,6.080246449
10.89533424,-1.565849304,0.7977077365,-0.007773235906,-0.002341389656,-0.07040382177,4.980847359,-0.8948124647,0.008344911039,5.031454086,-0.542214632,-0.06893036515,0.01456080005,0.6794375777,0.5908913612,0.6203175783,0,0.0165848732,10.97735786,-1.582988501,0.797827661,-0.008797486161,-0.002250432871,-0.08260853016,4.976291656,-0.9984701276,0.001273382222,5.0417099,-0.5844484568,-0.06353894621,0.01198152173,0.7372597456,-0.06175810099,0.6183835864,-2.546526909,3.486440182
10.97735786,-1.582988501,0.797827661,-0.008797486313,-0.002250432968,-0.08260852844,4.976291656,-0.9984701276,0.001273382222,5.0417099,-0.5844484568,-0.06353894621,0.01198152173,0.7372597456,0.6052189469,0.6185507178,0,0.01997303963,11.06045723,-1.601657987,0.7978518605,-0.009953297037,-0.002099872071,-0.09574024419,4.968859673,-1.106331825,-8.440527745e-05,5.051863194,-0.6262718439,-0.06028937548,0.0143289445,0.668900013,-0.05786854401,0.5083499551,-2.093991995,-3.422600269
11.06045723,-1.601657987,0.7978518605,-0.009953296743,-0.002099872101,-0.09574024379,4.968859673,-1.106331825,-8.440527745e-05,5.051863194,-0.6262718439,-0.06028937548,0.0143289445,0.668900013,0.6052189469,0.6212491989,0,0.03201317787,11.23932743,-1.649006128,0.7978063822,-0.01205932477,-0.001944899555,-0.1247058009,4.96725893,-1.301311135,-0.001860597869,5.090545177,-0.6733638644,-0.05429878831,0.01289206184,0.7408478856,-0.06578628719,1.208314419,-1.471019864,2.247445583
11.23932743,-1.649006128,0.7978063822,-0.01205932442,-0.001944899559,-0.1247057989,4.96725893,-1.301311135,-0.001860597869,5.090545177,-0.6733638644,-0.05429878831,0.01289206184,0.7408478856,0.5995650291,0.6221486926,0,0.01521492004,11.31316376,-1.670836091,0.7977745533,-0.01295095092,-0.00191080554,-0.1396170867,4.970836163,-1.389947653,-0.00178781373,5.115897179,-0.684661448,-0.05982469022,0.01477224566,0.9693976641,-0.058602117,1.666259289,-0.7425332069,15.02142525
11.31316376,-1.670836091,0.7977745533,-0.01295095123,-0.001910805586,-0.1396170855,4.970836163,-1.389947653,-0.00178781373,5.115897179,-0.684661448,-0.05982469022,0.01477224566,0.9693976641,0.5993401408,0.6176512241,0,0.01728701591,11.39832592,-1.697058082,0.7977461219,-0.01374031318,-0.001876711342,-0.1531251856,4.973953247,-1.470135927,-0.002130323788,5.13999033,-0.6942696571,-0.04768678546,0.01285891607,0.7905518413,-0.04566212744,1.393713713,-0.5558049679,-10.34567356
11.39832592,-1.697058082,0.7977461219,-0.01374031324,-0.00187671138,-0.1531251818,4.973953247,-1.470135927,-0.002130323788,5.13999033,-0.6942696571,-0.04768678546,0.01285891607,0.7905518413,0.6021671295,0.6194180846,0,0.01555585861,11.47434807,-1.722058177,0.7977144718,-0.01447481515,-0.001857399782,-0.1682560976,4.976020813,-1.557311654,-0.001763145439,5.166543484,-0.7020187378,-0.0483055003,0.01509581599,0.9583206773,-0.04721705988,1.706955194,-0.4981454909,10.78492928
11.47434807,-1.722058177,0.7977144718,-0.01447481476,-0.001857399824,-0.168256104,4.976020813,-1.557311654,-0.001763145439,5.166543484,-0.7020187378,-0.0483055003,0.01509581599,0.9583206773,0.5990831256,0.6239155531,0,0.01947212219,11.55879974,-1.750853896,0.7976877689,-0.01514166875,-0.001832841673,-0.1823553489,4.977588654,-1.637940049,-0.002037537284,5.192091465,-0.7081142068,-0.03576657549,0.01229044423,0.7278869748,-0.03424660116,1.312028646,-0.3130356669,-11.83403111
11.55879974,-1.750853896,0.7976877689,-0.01514166873,-0.001832841663,-0.1823553443,4.977588654,-1.637940049,-0.002037537284,5.192091465,-0.7081142068,-0.03576657549,0.01229044423,0.7278869748,0.6001111269,0.6131538153,0,0.03266382217,11.73254871,-1.815026164,0.7976303697,-0.01631825478,-0.001806139294,-0.2132293811,4.979114056,-1.812398791,-0.001792057767,5.249885082,-0.7176862955,-0.02974109724,0.01331999432,0.7656552792,-0.03602107614,1.769346476,-0.29304865,1.156273246
11.73254871,-1.815026164,0.7976303697,-0.01631825417,-0.001806139247,-0.213229388,4.979114056,-1.812398791,-0.001792057767,5.249885082,-0.7176862955,-0.02974109724,0.01331999432,0.7656552792,0.5898633599,0.5510245562,0,0.0150282383,11.80649185,-1.84431982,0.797606349,-0.01680081537,-0.001799344489,-0.2291363446,4.979887962,-1.898051262,-0.001461357926,5.280845165,-0.7173272967,-0.03370248526,0.0180669222,1.048592329,-0.03211029619,2.060127258,0.02388828062,18.82702637
11.80649185,-1.84431982,0.797606349,-0.01680081524,-0.001799344434,-0.2291363478,4.979887962,-1.898051262,-0.001461357926,5.280845165,-0.7173272967,-0.03370248526,0.0180669222,1.048592329,0.5826995373,0.4555819035,0,0.01755189896,11.89359951,-1.879877567,0.79758358,-0.01719389398,-0.001785754325,-0.2428222991,4.977588177,-1.97349,-0.001609920408,5.306074142,-0.7187675238,-0.02410976961,0.01437227335,0.7901645899,-0.02239522524,1.437393069,-0.08205533773,-14.72363377
11.89359951,-1.879877567,0.79758358,-0.01719389483,-0.001785754343,-0.2428223044,4.977588177,-1.97349,-0.001609920408,5.306074142,-0.7187675238,-0.02410976961,0.01437227335,0.7901645899,0.5663158894,0.3529112041,0,0.01644325256,11.96844292,-1.911907911,0.7975615263,-0.01754064089,-0.001787185682,-0.2583218311,4.979654789,-2.051535606,-0.001293566194,5.338511944,-0.7113710642,-0.02266444266,0.01636828482,0.9380090833,-0.02108743787,1.97271204,0.4498172998,8.991194725
11.96844292,-1.911907911,0.7975615263,-0.01754064113,-0.001787185669,-0.2583218217,4.979654789,-2.051535606,-0.001293566194,5.338511944,-0.7113710642,-0.02266444266,0.01636828482,0.9380090833,0.5561002493,0.3051738441,0,0.01613068581,12.05392933,-1.94939208,0.7975424528,-0.01781760898,-0.001790524414,-0.2728704916,4.981835365,-2.123846769,-0.001457183273,5.369883537,-0.7026782632,-0.01861676574,0.01572011784,0.8936970234,-0.01717024669,1.944839358,0.5388984084,-2.747066021
12.05392933,-1.94939208,0.7975424528,-0.01781760901,-0.00179052446,-0.272870481,4.981835365,-2.123846769,-0.001457183273,5.369883537,-0.7026782632,-0.01861676574,0.01572011784,0.8936970234,0.538720727,0.2944120467,0,0.0335650444,12.21574306,-2.024343014,0.7975003123,-0.01818459783,-0.00175368808,-0.3019035586,4.971069336,-2.265851021,-0.001003083657,5.419962883,-0.685282886,-0.01094534155,0.01744535938,0.9093439579,-0.0109336609,1.492008924,0.5182587504,0.4661675394
12.21574306,-2.024343014,0.7975003123,-0.01818459854,-0.001753688091,-0.3019035459,4.971069336,-2.265851021,-0.001003083657,5.419962883,-0.685282886,-0.01094534155,0.01744535938,0.9093439579,0.4875460267,0.225054726,0,0.01760196686,12.30047607,-2.065048218,0.7974829078,-0.01819631365,-0.001754283455,-0.3152062055,4.981241703,-2.310467482,-0.001128012897,5.452102184,-0.6523891687,-0.001992449397,0.0137237478,0.7559834123,-0.0006655573961,1.825892568,1.86875236,-8.712694168
12.30047607,-2.065048218,0.7974829078,-0.01819631457,-0.001754283439,-0.3152061999,4.981241703,-2.310467482,-0.001128012897,5.452102184,-0.6523891687,-0.001992449397,0.0137237478,0.7559834123,0.3934205174,0.216059804,0,0.01601409912,12.38092041,-2.10443902,0.7974646688,-0.01813133205,-0.001739502736,-0.3291143355,4.98080349,-2.362669706,-0.0008091690834,5.477105141,-0.6260420084,0.002550235949,0.01669069193,0.8694679141,0.004057832062,1.56130898,1.645247698,7.086536884
12.38092041,-2.10443902,0.7974646688,-0.01813133247,-0.001739502768,-0.3291143477,4.98080349,-2.362669706,-0.0008091690834,5.477105141,-0.6260420084,0.002550235949,0.01669069193,0.8694679141,0.2686158717,0.1908418685,0,0.01654815674,12.46779728,-2.147527456,0.7974475622,-0.01785809583,-0.001736164095,-0.3405179835,4.998319149,-2.375837564,-0.0009012592491,5.504796028,-0.5701055527,0.01526464988,0.01246593706,0.6867194176,0.01651160605,1.673351765,3.380222797,-11.0434351
12.46779728,-2.147527456,0.7974475622,-0.01785809547,-0.001736164093,-0.3405179977,4.998319149,-2.375837564,-0.0009012592491,5.504796028,-0.5701055527,0.01526464988,0.01246593706,0.6867194176,0.2686158717,0.1908418685,0,0.01706981659,12.54715443,-2.186828375,0.7974293828,-0.01733558476,-0.001751541898,-0.3507756648,5.026741028,-2.368599415,-0.0006869701319,5.534558296,-0.4970463514,0.02959469706,0.009528120048,0.601608634,0.03061021119,1.743561149,4.280022621,-4.986039639
12.54715443,-2.186828375,0.7974293828,-0.01733558439,-0.001751541859,-0.3507756591,5.026741028,-2.368599415,-0.0006869701319,5.534558296,-0.4970463514,0.02959469706,0.009528120048,0.601608634,0.1785380989,0.1863444149,0,0.03363084793,12.71573257,-2.268163443,0.797400713,-0.01581544425,-0.001712560249,-0.3666393933,5.078693867,-2.316577911,-0.0004899597843,5.571597576,-0.3420006335,0.04901686311,0.00733691128,0.3620204926,0.04520076886,1.1013484,4.610223293,-7.124058723
12.71573257,-2.268163443,0.797400713,-0.01581544429,-0.001712560304,-0.3666394055,5.078693867,-2.316577911,-0.0004899597843,5.571597576,-0.3420006335,0.04901686311,0.00733691128,0.3620204926,0.09976822138,0.1890428811,0,0.01572704315,12.79456234,-2.304476976,0.797380209,-0.01474112967,-0.001670479041,-0.3727241653,5.104501724,-2.280067444,-0.0002472941123,5.584315777,-0.2646909356,0.06700332463,0.008296954446,0.3830498755,0.06831002235,0.8086835146,4.915717125,1.337147951
12.79456234,-2.304476976,0.797380209,-0.01474112924,-0.001670479076,-0.3727241755,5.104501724,-2.280067444,-0.0002472941123,5.584315777,-0.2646909356,0.06700332463,0.008296954446,0.3830498755,0.05884129182,0.1854449213,0,0.01690292358,12.88614464,-2.345719576,0.7973605394,-0.01355602243,-0.001596450834,-0.37633389,5.126445293,-2.242895126,-0.0002922642743,5.591981411,-0.2018961161,0.06978572905,0.007275457494,0.2135164887,0.07011253387,0.4535093606,3.715027094,-10.02982616
12.88614464,-2.345719576,0.7973605394,-0.0135560222,-0.001596450806,-0.3763338923,5.126445293,-2.242895126,-0.0002922642743,5.591981411,-0.2018961161,0.06978572905,0.007275457494,0.2135164887,0.05884129182,0.1854449213,0,0.01653194427,12.9675951,-2.381046057,0.7973359227,-0.01242417664,-0.001528143723,-0.3794764828,5.135892391,-2.226193428,-0.0001268565684,5.595176697,-0.1653086543,0.06850367785,0.006524730008,0.19095321,0.06846415251,0.1932794899,2.21313715,-1.364829063
12.9675951,-2.381046057,0.7973359227,-0.01242417656,-0.001528143766,-0.3794764876,5.135892391,-2.226193428,-0.0001268565684,5.595176697,-0.1653086543,0.06850367785,0.006524730008,0.19095321,0.01280653011,0.207064867,0,0.01699209213,13.05440426,-2.418406248,0.797316134,-0.01119113468,-0.001414656066,-0.3814608371,5.146432877,-2.202169895,-0.0002107273613,5.596333027,-0.1279847324,0.07215530425,0.007958285511,0.1163038537,0.07256563008,0.06805106997,2.196546555,-4.393182278
13.05440426,-2.418406248,0.797316134,-0.01119113434,-0.001414656057,-0.3814608455,5.146432877,-2.202169895,-0.0002107273613,5.596333027,-0.1279847324,0.07215530425,0.007958285511,0.1163038537,0,0.2223562449,0,0.03247308731,13.22722912,-2.490707874,0.7972669005,-0.008941827463,-0.001234173724,-0.3836517299,5.16042614,-2.155579805,-0.00035324911,5.59213686,-0.06728266925,0.07119893283,0.00679147942,0.05151570216,0.06926680356,-0.12921983,1.869303703,-1.995133758
13.22722912,-2.490707874,0.7972669005,-0.008941827342,-0.001234173775,-0.3836517334,5.16042614,-2.155579805,-0.00035324911,5.59213686,-0.06728266925,0.07119893283,0.00679147942,0.05151570216,0,0.3151004016,0,0.01702713966,13.31507397,-2.526792049,0.7972420454,-0.007913847478,-0.001110911455,-0.3839972316,5.161404133,-2.144526243,-0.0004720241413,5.588925838,-0.05473549664,0.0605680421,0.007426099852,0.02029020526,0.06037301943,-0.1885825545,0.736892581,-1.833866239
13.31507397,-2.526792049,0.7972420454,-0.007913847454,-0.001110911486,-0.3839972317,5.161404133,-2.144526243,-0.0004720241413,5.588925838,-0.05473549664,0.0605680421,0.007426099852,0.02029020526,0,0.4114425182,0,0.01837277412,13.3953228,-2.559442043,0.7972127199,-0.006970024648,-0.001025676798,-0.3842447581,5.160624981,-2.137675285,-0.000487152749,5.585648537,-0.04729269445,0.05161507428,0.004756763577,0.01351124048,0.05137072876,-0.1783781648,0.4050995409,-0.3689679503
13.3953228,-2.559442043,0.7972127199,-0.006970024668,-0.001025676844,-0.3842447698,5.160624981,-2.137675285,-0.000487152749,5.585648537,-0.04729269445,0.05161507428,0.004756763577,0.01351124048,0,0.4663758278,0,0.01473522186,13.48305035,-2.595164776,0.7971898317,-0.006039515925,-0.0009297132644,-0.3843887715,5.160547256,-2.13172102,-0.0005751656136,5.583350658,-0.04099776596,0.06249825656,0.006504658144,0.009626449086,0.06314861029,-0.1559446007,0.4272028208,-0.2636398375
13.48305035,-2.595164776,0.7971898317,-0.006039516069,-0.0009297132492,-0.3843887746,5.160547256,-2.13172102,-0.0005751656136,5.583350658,-0.04099776596,0.06249825656,0.006504658144,0.009626449086,0,0.5366005301,0,0.01787495613,13.57755566,-2.633575678,0.7971632481,-0.005311941411,-0.000841259967,-0.3844447692,5.160851479,-2.127944231,-0.0006444829633,5.58221817,-0.03706979752,0.04095236585,0.004995701369,0.003127332078,0.04070357606,-0.06335613877,0.2197470218,-0.3635878563
13.57755566,-2.633575678,0.7971632481,-0.005311941262,-0.0008412599564,-0.3844447732,5.160851479,-2.127944231,-0.0006444829633,5.58221817,-0.03706979752,0.04095236585,0.004995701369,0.003127332078,0,0.5366005301,0,0.03295397758,13.74635601,-2.702092171,0.7971180677,-0.003941476924,-0.0007151364999,-0.3845041007,5.166304588,-2.122903585,-0.0007465298404,5.585384846,-0.03002050333,0.03844164684,0.003799509257,0.001033760607,0.04158722237,0.09609387815,0.2139133066,-0.06353016198
13.74635601,-2.702092171,0.7971180677,-0.003941476811,-0.000715136528,-0.3845041096,5.166304588,-2.122903585,-0.0007465298404,5.585384846,-0.03002050333,0.03844164684,0.003799509257,0.001033760607,0,0.5942323208,0,0.0156879425,13.83011436,-2.736047268,0.7970957756,-0.003400856353,-0.0006842611943,-0.3845149973,5.171824455,-2.122254848,-0.0007141088718,5.590258598,-0.02728793584,0.03408443928,0.001948899007,0.000669803936,0.03446089104,0.3106687069,0.1741826534,-0.0231997706
13.83011436,-2.736047268,0.7970957756,-0.003400856396,-0.0006842612056,-0.3845149875,5.171824455,-2.122254848,-0.0007141088718,5.590258598,-0.02728793584,0.03408443928,0.001948899007,0.000669803936,0,0.6482340097,0,0.01647591591,13.91662407,-2.771172047,0.7970793843,-0.002902312624,-0.0006568430759,-0.3845208985,5.178565502,-2.121775389,-0.0007882203208,5.596327782,-0.02428177744,0.03028339706,0.0016665,0.0003427454212,0.03025894053,0.3683669865,0.1824577451,-0.01985070296
13.91662407,-2.771172047,0.7970793843,-0.00290231267,-0.000656843069,-0.3845208883,5.178565502,-2.121775389,-0.0007882203208,5.596327782,-0.02428177744,0.03028339706,0.0016665,0.0003427454212,0,0.6527314782,0,0.01656389236,13.99886894,-2.804510117,0.7970625162,-0.002446379552,-0.0006493329318,-0.3845243004,5.187901497,-2.123687506,-0.0007840963081,5.605699062,-0.02253317647,0.02751113661,0.000453681685,0.0002074923832,0.02752572298,0.5657656193,0.1055670306,-0.008165534586
13.99886894,-2.804510117,0.7970625162,-0.002446379513,-0.000649332942,-0.3845242858,5.187901497,-2.123687506,-0.0007840963081,5.605699062,-0.02253317647,0.02751113661,0.000453681685,0.0002074923832,0,0.6527314782,0,0.01836323738,14.08438492,-2.839186668,0.7970484495,-0.002044774209,-0.0006567240122,-0.3845266411,5.199259758,-2.126080036,-0.0007884244551,5.617125511,-0.02047709562,0.02198746614,-0.0004043916415,0.0001313593384,0.02187007107,0.6222459078,0.1119672284,-0.004145949148
14.08438492,-2.839186668,0.7970484495,-0.002044774126,-0.0006567240343,-0.3845266402,5.199259758,-2.126080036,-0.0007884244551,5.617125511,-0.02047709562,0.02198746614,-0.0004043916415,0.0001313593384,-0.04573439434,0.6437365413,0,0.03261399269,14.26592636,-2.912832975,0.7970244288,-0.001334243567,-0.0006939172126,-0.3842207541,5.238187313,-2.110258579,-0.0008094764198,5.647277832,0.007064018864,0.02272638865,-0.001480002189,-0.01987768523,0.02178606391,0.9245209694,0.8444569707,-0.6135110259
14.26592636,-2.912832975,0.7970244288,-0.00133424357,-0.0006939172163,-0.3842207491,5.238187313,-2.110258579,-0.0008094764198,5.647277832,0.007064018864,0.02272638865,-0.001480002189,-0.01987768523,-0.08393071592,0.6455355287,0,0.01610302925,14.35534382,-2.94869256,0.7970140576,-0.0008788429706,-0.0007210969035,-0.3831155642,5.26661253,-2.072507381,-0.0008294822183,5.659534931,0.04646303132,0.02818829753,-0.00173944002,-0.06829513609,0.0282804314,0.7611672878,2.446683407,-3.006729364
14.35534382,-2.94869256,0.7970140576,-0.000878842955,-0.0007210968761,-0.3831155598,5.26661253,-2.072507381,-0.0008294822183,5.659534931,0.04646303132,0.02818829753,-0.00173944002,-0.06829513609,-0.2265324593,0.6455355287,0,0.01660895348,14.43717003,-2.980398893,0.7970052958,-0.0003025349502,-0.0007417201718,-0.3810711317,5.298976898,-2.025486946,-0.000818034343,5.6721735,0.09057656676,0.03460913524,-0.001272292109,-0.1224382594,0.03469863534,0.7609491348,2.656009436,-3.259875774
14.43717003,-2.980398893,0.7970052958,-0.0003025349579,-0.0007417201996,-0.3810711205,5.298976898,-2.025486946,-0.000818034343,5.6721735,0.09057656676,0.03460913524,-0.001272292109,-0.1224382594,-0.3076153398,0.6432868242,0,0.01683306694,14.5231905,-3.012559175,0.7969956994,0.0002847508293,-0.0007541180461,-0.3783127833,5.332727432,-1.977094889,-0.00078641047,5.685891628,0.1323665977,0.03530482575,-0.0006956132129,-0.1652358025,0.03488881513,0.8149511814,2.482615471,-2.542468548
14.5231905,-3.012559175,0.7969956994,0.0002847508295,-0.0007541180239,-0.3783127964,5.332727432,-1.977094889,-0.00078641047,5.685891628,0.1323665977,0.03530482575,-0.0006956132129,-0.1652358025,-0.4362428188,0.6410380602,0,0.01622986794,14.61237431,-3.04505372,0.7969850898,0.0009573347374,-0.0007654428875,-0.3746213993,5.368222713,-1.919667482,-0.0008226280333,5.698361397,0.1778098941,0.04145983234,-0.0004782342294,-0.2266055644,0.04144112021,0.7683222294,2.799979448,-3.781285286
14.61237431,-3.04505372,0.7969850898,0.0009573347634,-0.0007654429064,-0.3746213913,5.368222713,-1.919667482,-0.0008226280333,5.698361397,0.1778098941,0.04145983234,-0.0004782342294,-0.2266055644,-0.5023876429,0.6428370476,0,0.03472995758,14.79068947,-3.10538435,0.7969622612,0.002683736841,-0.0007641314765,-0.3635671176,5.443231106,-1.776447296,-0.0009205200477,5.719153404,0.2753412426,0.05136241391,0.001059038565,-0.3582361042,0.04970930517,0.5986764431,2.80827713,-3.790115118
14.79068947,-3.10538435,0.7969622612,0.00268373685,-0.0007641314878,-0.3635671139,5.443231106,-1.776447296,-0.0009205200477,5.719153404,0.2753412426,0.05136241391,0.001059038565,-0.3582361042,-0.5023876429,0.6428370476,0,0.0159239769,14.88658905,-3.135548353,0.7969491482,0.003602217839,-0.0007574557982,-0.3565431798,5.481316566,-1.696986079,-0.001036974951,5.728901863,0.3229208291,0.05841526762,0.00202201074,-0.4441361427,0.05767912045,0.6121874452,2.987921,-5.39438343
14.88658905,-3.135548353,0.7969491482,0.003602217883,-0.0007574558258,-0.3565431833,5.481316566,-1.696986079,-0.001036974951,5.728901863,0.3229208291,0.05841526762,0.00202201074,-0.4441361427,-0.5163619518,0.6428370476,0,0.01759815216,14.98067951,-3.16339469,0.7969341278,0.004625657215,-0.0007312297336,-0.348768741,5.516256809,-1.611070991,-0.00110221596,5.734714985,0.3710556328,0.05838887766,0.003528270405,-0.4410775006,0.05815606937,0.3303256929,2.73521924,0.1738047302
14.98067951,-3.16339469,0.7969341278,0.004625657108,-0.0007312297239,-0.3487687409,5.516256809,-1.611070991,-0.00110221596,5.734714985,0.3710556328,0.05838887766,0.003528270405,-0.4410775006,-0.5238469839,0.6491335034,0,0.01595687866,15.0684824,-3.187188864,0.7969172597,0.005687067084,-0.0007123950388,-0.3392808397,5.554513931,-1.517834902,-0.001190318959,5.743023872,0.4172828197,0.06715718657,0.004576638341,-0.5965133905,0.06651739031,0.5207087994,2.89700675,-9.740996361
15.0684824,-3.187188864,0.7969172597,0.005687067285,-0.0007123950636,-0.3392808437,5.554513931,-1.517834902,-0.001190318959,5.743023872,0.4172828197,0.06715718657,0.004576638341,-0.5965133905,-0.5359580517,0.6401385665,0,0.01584720612,15.16684628,-3.212422609,0.7968993783,0.006813309505,-0.0006666184458,-0.3294480175,5.587973118,-1.419428945,-0.001249820227,5.74667263,0.4647318721,0.07041843981,0.007010013796,-0.6111946106,0.07106881589,0.2302461267,2.994158745,-0.9264232516
15.16684628,-3.212422609,0.7968993783,0.006813309621,-0.0006666184636,-0.3294480145,5.587973118,-1.419428945,-0.001249820227,5.74667263,0.4647318721,0.07041843981,0.007010013796,-0.6111946106,-0.5377891064,0.6455355287,0,0.03361988068,15.34739876,-3.25191927,0.7968579531,0.009128300253,-0.0005868669712,-0.3059705229,5.654132366,-1.207448959,-0.001571014058,5.755232811,0.5517616272,0.07046973705,0.008896639571,-0.765419662,0.06885778904,0.2546166182,2.588639736,-4.58731699
15.34739876,-3.25191927,0.7968579531,0.009128300473,-0.0005868669832,-0.3059705198,5.654132366,-1.207448959,-0.001571014058,5.755232811,0.5517616272,0.07046973705,0.008896639571,-0.765419662,-0.5396844745,0.6437365413,0,0.01964497566,15.44567966,-3.270852566,0.7968353033,0.01034319728,-0.0005439519327,-0.2931061584,5.68664217,-1.10360074,-0.00165559398,5.762973309,0.5864929557,0.0634572953,0.009138669819,-0.6680316329,0.0618426241,0.3940191865,1.7679497,4.957401276
15.44567966,-3.270852566,0.7968353033,0.01034319773,-0.00054395193,-0.2931061685,5.68664217,-1.10360074,-0.00165559398,5.762973309,0.5864929557,0.0634572953,0.009138669819,-0.6680316329,-0.5377891064,0.6464671493,0,0.01527190208,15.53934669,-3.286366463,0.7968118787,0.01157912439,-0.0005427595759,-0.2774605648,5.725815296,-0.9983046651,-0.001741174841,5.780276299,0.6082587242,0.08199729025,0.01201530267,-1.030836582,0.08092813939,1.132995129,1.425216556,-23.75636864
15.53934669,-3.286366463,0.7968118787,0.01157912426,-0.0005427596043,-0.2774605751,5.725815296,-0.9983046651,-0.001741174841,5.780276299,0.6082587242,0.08199729025,0.01201530267,-1.030836582,-0.5350264311,0.6464671493,0,0.01506018639,15.65012646,-3.303167343,0.7967889905,0.01255958607,-0.0005586146573,-0.2647251566,5.757540226,-0.9168595672,-0.001778561389,5.796864033,0.6215056777,0.06361068785,0.009281360544,-0.8202599287,0.06510289758,1.101429582,0.8796008825,13.98234081
15.65012646,-3.303167343,0.7967889905,0.0125595862,-0.0005586146726,-0.2647251487,5.757540226,-0.9168595672,-0.001778561389,5.796864033,0.6215056777,0.06361068785,0.009281360544,-0.8202599287,-0.5377891064,0.6437365413,0,0.01752686501,15.73805141,-3.314700603,0.7967739105,0.01348567906,-0.0005882975897,-0.2514840176,5.789773464,-0.837821126,-0.001836119569,5.81613636,0.6292694211,0.05396905914,0.008603665046,-0.7651533484,0.05283847824,1.099587798,0.4429624677,3.144120693
15.73805141,-3.314700603,0.7967739105,0.0134856794,-0.0005882976111,-0.2514840066,5.789773464,-0.837821126,-0.001836119569,5.81613636,0.6292694211,0.05396905914,0.008603665046,-0.7651533484,-0.5340948105,0.6437365413,0,0.03256320953,15.92961979,-3.336009026,0.7967410088,0.01519252118,-0.0006675727931,-0.2223467377,5.859239578,-0.6646130085,-0.001840300043,5.861560345,0.6438228488,0.05097803473,0.01022010669,-0.8623686433,0.05241626501,1.394948006,0.4469285309,-2.98543334
15.92961979,-3.336009026,0.7967410088,0.0151925208,-0.0006675727782,-0.222346738,5.859239578,-0.6646130085,-0.001840300043,5.861560345,0.6438228488,0.05097803473,0.01022010669,-0.8623686433,-0.5368896127,0.6509646177,0,0.01618385315,16.02582359,-3.344355583,0.7967271209,0.01595300424,-0.0007112033677,-0.2078585791,5.892118931,-0.5802797675,-0.001842204132,5.885041237,0.6481381059,0.04764705896,0.01159010176,-0.8955263495,0.04699025676,1.450883865,0.2666396499,-2.048814058
16.02582359,-3.344355583,0.7967271209,0.01595300436,-0.0007112033782,-0.2078585774,5.892118931,-0.5802797675,-0.001842204132,5.885041237,0.6481381059,0.04764705896,0.01159010176,-0.8955263495,-0.5350264311,0.644636035,0,0.01978111267,16.12346649,-3.351420164,0.7967120409,0.01662549028,-0.0007519716134,-0.1935766987,5.924081326,-0.4968105555,-0.001833361457,5.909005642,0.6520842314,0.03505099937,0.01008968987,-0.7326314449,0.03399636596,1.211479068,0.1994895637,8.234870911
16.12346649,-3.351420164,0.7967120409,0.01662549004,-0.0007519716164,-0.1935766935,5.924081326,-0.4968105555,-0.001833361457,5.909005642,0.6520842314,0.03505099937,0.01008968987,-0.7326314449,-0.5340948105,0.644636035,0,0.01415395737,16.21964264,-3.357023478,0.7966960669,0.01730210993,-0.0007919079382,-0.1763171771,5.961481571,-0.3963910937,-0.001758880913,5.938585758,0.65542835,0.0479106009,0.01795376465,-1.197770715,0.04780429229,2.089883089,0.2362673879,-32.86284256
16.21964264,-3.357023478,0.7966960669,0.01730211079,-0.0007919079508,-0.1763171703,5.961481571,-0.3963910937,-0.001758880913,5.938585758,0.65542835,0.0479106009,0.01795376465,-1.197770715,-0.5345445275,0.647366643,0,0.0180978775,16.33600235,-3.362388134,0.7966762185,0.0177861693,-0.0008285052116,-0.1635081872,5.988262653,-0.3202645779,-0.001766436617,5.960525513,0.6587799788,0.02778353356,0.01074002124,-0.7193481922,0.02674669959,1.212283254,0.1851945817,26.43528366
16.33600235,-3.362388134,0.7966762185,0.01778616942,-0.0008285052027,-0.1635081917,5.988262653,-0.3202645779,-0.001766436617,5.960525513,0.6587799788,0.02778353356,0.01074002124,-0.7193481922,-0.534737289,0.6455355287,0,0.03214406967,16.52975082,-3.366770506,0.7966432571,0.01874939911,-0.0009002688503,-0.1336307928,6.047138691,-0.1419078559,-0.001702929148,6.012133598,0.6650384068,0.02777498402,0.01352511905,-0.8416591287,0.02996601537,1.605524302,0.1946993023,-3.805085659
16.52975082,-3.366770506,0.7966432571,0.01874939911,-0.0009002688457,-0.1336307973,6.047138691,-0.1419078559,-0.001702929148,6.012133598,0.6650384068,0.02777498402,0.01352511905,-0.8416591287,-0.5303683281,0.6437365413,0,0.01599287987,16.62449074,-3.366723299,0.7966281772,0.01918029145,-0.0009391299671,-0.1187219089,6.07542181,-0.05513810366,-0.001691384125,6.039186478,0.6648424864,0.02766805328,0.01536634006,-0.927066505,0.02694276161,1.691557765,-0.01225048117,-5.340337276
16.62449074,-3.366723299,0.7966281772,0.01918029226,-0.0009391299682,-0.1187219098,6.07542181,-0.05513810366,-0.001691384125,6.039186478,0.6648424864,0.02766805328,0.01536634006,-0.927066505,-0.5294045806,0.6450858116,0,0.01687407494,16.72569084,-3.365255356,0.7966114879,0.01955058674,-0.0009719124842,-0.1043000066,6.101649761,0.02991962805,-0.001662463765,6.065376282,0.6650059223,0.02272150666,0.01473092381,-0.8525242209,0.02194457874,1.552073479,0.00968562346,4.417562485
16.72569084,-3.365255356,0.7966114879,0.01955058612,-0.0009719124646,-0.1043000072,6.101649761,0.02991962805,-0.001662463765,6.065376282,0.6650059223,0.02272150666,0.01473092381,-0.8525242209,-0.4986611903,0.6464671493,0,0.01819109917,16.82387161,-3.362495899,0.7965946794,0.01985656838,-0.001003861056,-0.08921858518,6.129820824,0.1135024875,-0.001610304927,6.095327377,0.6592197418,0.0179099571,0.01491943654,-0.8410055041,0.01682043821,1.646469831,-0.3180775642,0.6332061887
16.82387161,-3.362495899,0.7965946794,0.01985656843,-0.001003861078,-0.08921858668,6.129820824,0.1135024875,-0.001610304927,6.095327377,0.6592197418,0.0179099571,0.01491943654,-0.8410055041,-0.4632275999,0.6464671493,0,0.01521205902,16.92746162,-3.358607292,0.7965764999,0.02006619062,-0.001070975874,-0.07373047773,6.165106297,0.1778810024,-0.001563446946,6.135253429,0.6315422058,0.01465471275,0.0157851018,-1.003234863,0.01378000155,2.624631643,-1.819447041,-10.66452312
16.92746162,-3.358607292,0.7965764999,0.02006619051,-0.001070975908,-0.0737304762,6.165106297,0.1778810024,-0.001563446946,6.135253429,0.6315422058,0.01465471275,0.0157851018,-1.003234863,-0.3961511254,0.6455355287,0,0.03440093994,17.13350296,-3.348088026,0.7965515256,0.02008195153,-0.001251697299,-0.04677547592,6.233657837,0.2763698399,-0.001394783496,6.213917255,0.5675435662,-0.001770229894,0.01267774031,-0.8932131529,0.0004581565154,2.286676645,-1.860374689,3.198218107
17.13350296,-3.348088026,0.7965515256,0.02008195221,-0.001251697307,-0.04677547514,6.233657837,0.2763698399,-0.001394783496,6.213917255,0.5675435662,-0.001770229894,0.01267774031,-0.8932131529,-0.2824616432,0.644636035,0,0.0177128315,17.24703789,-3.341313362,0.796536684,0.01980394631,-0.001376985366,-0.0356496558,6.269412518,0.2846830189,-0.00136002712,6.255282402,0.5079572201,-0.01490968745,0.00539541617,-0.6315146089,-0.01569516957,2.33532095,-3.36402154,14.77451801
17.24703789,-3.341313362,0.796536684,0.01980394684,-0.001376985339,-0.03564965725,6.269412518,0.2846830189,-0.00136002712,6.255282402,0.5079572201,-0.01490968745,0.00539541617,-0.6315146089,-0.1966885775,0.6491335034,0,0.01518106461,17.34730721,-3.335379601,0.796528399,0.0193575108,-0.001468061796,-0.02460968841,6.308251381,0.2820829749,-0.001153929974,6.299399853,0.4372259974,-0.02793130465,0.007961852476,-0.716724813,-0.02940742671,2.906084061,-4.659173965,-5.61292696
17.34730721,-3.335379601,0.796528399,0.01935750991,-0.001468061819,-0.02460968867,6.308251381,0.2820829749,-0.001153929974,6.299399853,0.4372259974,-0.02793130465,0.007961852476,-0.716724813,-0.1575606316,0.6428370476,0,0.01584792137,17.45821381,-3.329123735,0.7965137959,0.01871027736,-0.001580952621,-0.01662553462,6.341397762,0.2713966072,-0.001082358533,6.336009502,0.376783371,-0.03978458419,0.002288360614,-0.5005690455,-0.04084021598,2.310060024,-3.813915014,13.63937664
17.45821381,-3.329123735,0.7965137959,0.01871027797,-0.001580952667,-0.01662553474,6.341397762,0.2713966072,-0.001082358533,6.336009502,0.376783371,-0.03978458419,0.002288360614,-0.5005690455,-0.05688168108,0.6428370476,0,0.01918911934,17.55586815,-3.324253082,0.7965039611,0.01783793352,-0.00167143312,-0.01001721895,6.373417377,0.2395426184,-0.0009070665692,6.370697975,0.303373456,-0.04566934705,0.001452988945,-0.3504190743,-0.04546036944,1.807715774,-3.825601101,7.824745178
17.55586815,-3.324253082,0.7965039611,0.0178379342,-0.0016714331,-0.010017219,6.373417377,0.2395426184,-0.0009070665692,6.370697975,0.303373456,-0.04566934705,0.001452988945,-0.3504190743,-0.002847858705,0.6410380602,0,0.03056502342,17.77815437,-3.316198349,0.7964698076,0.01551556774,-0.00178491993,-0.0009458268846,6.434845448,0.1422126591,-0.0006619482883,6.434707642,0.1482988447,-0.076582551,-0.0005616948474,-0.1945475489,-0.07598117739,2.094213009,-5.073596954,5.099669933
17.77815437,-3.316198349,0.7964698076,0.01551556773,-0.001784919878,-0.000945826876,6.434845448,0.1422126591,-0.0006619482883,6.434707642,0.1482988447,-0.076582551,-0.0005616948474,-0.1945475489,-0.002847858705,0.6410380602,0,0.01701617241,17.8772068,-3.314383507,0.7964528203,0.01428901123,-0.001834154809,0.001034187737,6.463742733,0.1154166088,-0.0005617606803,6.463858604,0.1087318212,-0.07179741561,-0.00122934801,-0.1162712872,-0.07208181173,1.713132739,-2.325259924,4.600109577
17.8772068,-3.314383507,0.7964528203,0.01428901125,-0.001834154828,0.001034187735,6.463742733,0.1154166088,-0.0005617606803,6.463858604,0.1087318212,-0.07179741561,-0.00122934801,-0.1162712872,0,0.6428370476,0,0.01655983925,17.97729874,-3.313139677,0.7964369655,0.01308018907,-0.001871347066,0.002602187776,6.495736122,0.0980848074,-0.0005916663213,6.495969296,0.08118136972,-0.07280980796,-0.0010072164,-0.09468507767,-0.07299721986,1.939070225,-1.663690805,1.303527713
17.97729874,-3.313139677,0.7964369655,0.013080189,-0.001871347078,0.002602187684,6.495736122,0.0980848074,-0.0005916663213,6.495969296,0.08118136972,-0.07280980796,-0.0010072164,-0.09468507767,-0.0009846234461,0.6392390728,0,0.01806783676,18.08781433,-3.311989307,0.7964195013,0.01182374019,-0.001929521499,0.00342918798,6.527046204,0.08710322529,-0.0006019930006,6.527306557,0.06472028792,-0.07003588974,-0.00270065479,-0.0462089628,-0.06954063475,1.734422445,-0.9110710025,2.683006048
18.08781433,-3.311989307,0.7964195013,0.01182373986,-0.001929521444,0.003429187927,6.527046204,0.08710322529,-0.0006019930006,6.527306557,0.06472028792,-0.07003588974,-0.00270065479,-0.0462089628,0,0.6437365413,0,0.01612210274,18.19594955,-3.311272144,0.7964055538,0.01067097645,-0.00196599983,0.004052445036,6.560686588,0.08157843351,-0.0007358082221,6.560963154,0.0549910143,-0.07143690437,-0.001850298606,-0.03868441656,-0.07150205225,2.087605953,-0.6034742594,0.466722399
18.19594955,-3.311272144,0.7964055538,0.01067097671,-0.001965999836,0.004052444827,6.560686588,0.08157843351,-0.0007358082221,6.560963154,0.0549910143,-0.07143690437,-0.001850298606,-0.03868441656,0,0.6437365413,0,0.03509402275,18.41964531,-3.309887409,0.7963732481,0.00867646124,-0.002043008373,0.004579123896,6.622546673,0.07456908375,-0.0009234497556,6.62281847,0.04424294457,-0.05270249769,-0.001534833689,-0.01264902018,-0.05683347955,1.762559891,-0.3062649667,0.7418755293
18.41964531,-3.309887409,0.7963732481,0.008676460944,-0.002043008339,0.004579124041,6.622546673,0.07456908375,-0.0009234497556,6.62281847,0.04424294457,-0.05270249769,-0.001534833689,-0.01264902018,0,0.6392390728,0,0.01430296898,18.53272057,-3.309195995,0.7963548303,0.007764269645,-0.00207602971,0.004727265578,6.655391693,0.07148386538,-0.001016125665,6.655655384,0.04002138227,-0.0624287501,-0.002181927906,-0.01015348826,-0.06377635896,2.295810938,-0.2951528728,0.1744765043
18.53272057,-3.309195995,0.7963548303,0.007764269598,-0.002076029778,0.004727265798,6.655391693,0.07148386538,-0.001016125665,6.655655384,0.04002138227,-0.0624287501,-0.002181927906,-0.01015348826,0,0.6392390728,0,0.01909303665,18.65127563,-3.308499098,0.7963355184,0.007028432028,-0.002108215728,0.004796778721,6.682142735,0.06927697361,-0.00105882436,6.682398319,0.03722354025,-0.03945463896,-0.001699888613,-0.003739214968,-0.03853957728,1.40066433,-0.1465373039,0.3359483182
18.65127563,-3.308499098,0.7963355184,0.007028432097,-0.00210821582,0.004796778783,6.682142735,0.06927697361,-0.00105882436,6.682398319,0.03722354025,-0.03945463896,-0.001699888613,-0.003739214968,0,0.6392390728,0,0.01463603973,18.74890327,-3.307970524,0.7963198423,0.006221953449,-0.002134442045,0.004857305766,6.715967178,0.06707011908,-0.001143434667,6.716213703,0.03444794938,-0.05385508016,-0.001726372284,-0.004063387867,-0.05510224402,2.310419083,-0.1896408349,-0.02214895003
18.74890327,-3.307970524,0.7963198423,0.006221953314,-0.002134442097,0.004857305903,6.715967178,0.06707011908,-0.001143434667,6.716213703,0.03444794938,-0.05385508016,-0.001726372284,-0.004063387867,0,0.6392390728,0,0.01715111732,18.87399483,-3.30723834,0.7962978482,0.005590113707,-0.00215983381,0.004887323766,6.742990494,0.06489511579,-0.001178355189,6.743227482,0.03193929419,-0.03676041588,-0.001467557158,-0.001763109933,-0.03683955967,1.57504487,-0.1462677419,0.134118259
18.87399483,-3.30723834,0.7962978482,0.005590113811,-0.002159833908,0.004887323827,6.742990494,0.06489511579,-0.001178355189,6.743227482,0.03193929419,-0.03676041588,-0.001467557158,-0.001763109933,0,0.6386608481,0,0.03193593025,19.09127235,-3.306003571,0.7962584496,0.004426978976,-0.002194642527,0.004926006293,6.803611279,0.06047517806,-0.001298452145,6.803826332,0.02695994638,-0.0359274596,-0.001112262602,-0.001059387112,-0.03642088547,1.89751327,-0.1559167951,0.02203545719
19.09127235,-3.306003571,0.7962584496,0.004426978994,-0.002194642555,0.00492600631,6.803611279,0.06047517806,-0.001298452145,6.803826332,0.02695994638,-0.0359274596,-0.001112262602,-0.001059387112,0,0.6464671493,0,0.01679396629,19.2053299,-3.305344582,0.7962368131,0.003935344876,-0.002213835741,0.004935777818,6.83068943,0.05850406364,-0.001325824531,6.830894947,0.02478872426,-0.02937151864,-0.001144393696,-0.0005885264254,-0.02927444875,1.611805916,-0.1292858422,0.02803749219
19.2053299,-3.305344582,0.7962368131,0.003935344983,-0.002213835716,0.004935777746,6.83068943,0.05850406364,-0.001325824531,6.830894947,0.02478872426,-0.02937151864,-0.001144393696,-0.0005885264254,0,0.6383395791,0,0.01759886742,19.30959511,-3.30477953,0.7962170839,0.003483852315,-0.00222575658,0.004942998227,6.860202312,0.05680511519,-0.001355086337,6.860399246,0.02289458923,-0.02580887079,-0.0006800238043,-0.0004112500174,-0.02565464377,1.676488519,-0.1076282337,0.010073171
19.30959511,-3.30477953,0.7962170839,0.003483852372,-0.002225756645,0.00494299829,6.860202312,0.05680511519,-0.001355086337,6.860399246,0.02289458923,-0.02580887079,-0.0006800238043,-0.0004112500174,0,0.6383395791,0,0.01618599892,19.42430496,-3.304121733,0.7961944938,0.003053839369,-0.002238154645,0.004948851389,6.890869617,0.0547913909,-0.001375659835,6.891056538,0.0206889715,-0.02655414119,-0.0007644814905,-0.0003704166738,-0.02656697296,1.8940624,-0.1362670064,0.002522757044
19.42430496,-3.304121733,0.7961944938,0.003053839318,-0.002238154644,0.004948851187,6.890869617,0.0547913909,-0.001375659835,6.891056538,0.0206889715,-0.02655414119,-0.0007644814905,-0.0003704166738,0,0.6392390728,0,0.01612401009,19.54472351,-3.303442001,0.7961705327,0.002664932525,-0.002251744275,0.0049538191,6.919120789,0.05309145898,-0.001397335669,6.919298649,0.01881487481,-0.02389226295,-0.0008340722416,-0.0003098211891,-0.02411973104,1.751556277,-0.1162301823,0.003758090315
