x_pos,y_pos,z_pos,roll,pitch,yaw,u_x,u_y,u_z,comp_u_x,comp_u_y,roll_mder,pitch_mder,yaw_mder,steer,throttle,brake,time_step,act_x_pos,act_y_pos,act_z_pos,act_roll,act_pitch,act_yaw,act_u_x,act_u_y,act_u_z,act_comp_u_x,act_comp_u_y,act_roll_mder,act_pitch_mder,act_yaw_mder,accel_roll,accel_x,accel_y,accel_yaw
-12.96703815,-6.244132996,0.7977009416,5.96645732e-05,-0.004333495628,-3.07798028,-2.274868011,-0.1449014097,-0.003489434952,2.279478312,-3.836268661e-06,2.846895086e-06,0.01200685278,7.16383795e-07,0,0,0,0.04623699188,-13.0733614,-6.250905514,0.797554791,5.972577649e-05,-0.003750443035,-3.077981327,-2.295496464,-0.1462156773,0.001927019563,2.300148487,-1.386133818e-06,7.917062135e-07,0.01277386118,-2.215656787e-05,1.323686774e-06,0.4470484555,5.299079203e-05,-0.0004946894478
-13.0733614,-6.250905514,0.797554791,5.972577492e-05,-0.003750442993,-3.077981234,-2.295496464,-0.1462156773,0.001927019563,2.300148487,-1.386133818e-06,7.917062135e-07,0.01277386118,-2.215656787e-05,0,0,0,0.06364297867,-13.21173191,-6.259718895,0.7975037694,5.966275297e-05,-0.002878546597,-3.077981512,-2.282628775,-0.1453972161,0.0163649749,2.28725481,3.323636122e-07,-2.148032991e-06,0.01481360383,-2.908793613e-05,-9.902419151e-07,-0.202593863,2.700215191e-05,-0.0001089101788
-13.21173191,-6.259718895,0.7975037694,5.966275421e-05,-0.002878546482,-3.077981472,-2.282628775,-0.1453972161,0.0163649749,2.28725481,3.323636122e-07,-2.148032991e-06,0.01481360383,-2.908793613e-05,0,0,0,0.0447280407,-13.322649,-6.266783714,0.7974722385,5.950877495e-05,-0.002216339039,-3.077981606,-2.252282143,-0.1434661448,-0.0005847070715,2.256846666,2.787295671e-06,-4.338337931e-06,0.01401131321,8.337973441e-07,-3.442566822e-06,-0.6798452139,5.488574971e-05,0.0006689703441
-13.322649,-6.266783714,0.7974722385,5.950877676e-05,-0.002216339111,-3.07798171,-2.252282143,-0.1434661448,-0.0005847070715,2.256846666,2.787295671e-06,-4.338337931e-06,0.01401131321,8.337973441e-07,0,0,0,0.04563999176,-13.42290783,-6.273170471,0.7973096371,5.933944638e-05,-0.001616954631,-3.077980593,-2.211156368,-0.14084813,0.00201908499,2.215637684,1.725119887e-06,-3.79347216e-06,0.01203931961,-6.924741683e-06,-3.71013175e-06,-0.9029138684,-2.327291804e-05,-0.0001699943095
-13.42290783,-6.273170471,0.7973096371,5.933944703e-05,-0.001616954687,-3.077980518,-2.211156368,-0.14084813,0.00201908499,2.215637684,1.725119887e-06,-3.79347216e-06,0.01203931961,-6.924741683e-06,0,0,0,0.06016993523,-13.55373859,-6.281504154,0.7971878052,5.908101778e-05,-0.0008817910227,-3.077978815,-2.142544985,-0.1364809424,-0.001229650923,2.146887541,1.351910669e-06,-4.843064744e-06,0.01180037763,-3.14564204e-05,-4.294989594e-06,-1.142599583,-6.202586519e-06,-0.0004077065969
-13.55373859,-6.281504154,0.7971878052,5.908101957e-05,-0.0008817909984,-3.077978849,-2.142544985,-0.1364809424,-0.001229650923,2.146887541,1.351910669e-06,-4.843064744e-06,0.01180037763,-3.14564204e-05,0,0,0,0.04491591454,-13.64911079,-6.287580013,0.7971222401,5.890271742e-05,-0.0004090070271,-3.077977795,-2.085805655,-0.1328689009,-0.0008413850446,2.090033293,1.590169632e-06,-4.445710147e-06,0.01033651084,-5.565516039e-05,-3.969687441e-06,-1.265792966,5.304555543e-06,-0.0005387564888
-13.64911079,-6.287580013,0.7971222401,5.890271859e-05,-0.0004090070142,-3.077977896,-2.085805655,-0.1328689009,-0.0008413850446,2.090033293,1.590169632e-06,-4.445710147e-06,0.01033651084,-5.565516039e-05,0,0,0,0.04513907433,-13.74267673,-6.293540478,0.7970286608,5.873107458e-05,5.841255135e-06,-3.077976685,-2.025648594,-0.1290392429,0.001479311963,2.029754639,1.567601657e-06,-3.475233598e-06,0.008687692694,-3.95251991e-05,-3.802559604e-06,-1.335398555,-4.999653811e-07,0.0003573392169
-13.74267673,-6.293540478,0.7970286608,5.873107511e-05,5.841255188e-06,-3.077976704,-2.025648594,-0.1290392429,0.001479311963,2.029754639,1.567601657e-06,-3.475233598e-06,0.008687692694,-3.95251991e-05,0,0.1818469465,0,0.04675602913,-13.83492184,-6.299416542,0.7973179221,5.857259113e-05,0.0004665851184,-3.0779749,-1.934568644,-0.123240307,-0.00301405089,1.938490152,8.872376043e-07,-3.240260185e-06,0.008265007287,-5.72626268e-05,-3.389594667e-06,-1.951929808,-1.455136498e-05,-0.0003793612996
-13.83492184,-6.299416542,0.7973179221,5.857259021e-05,0.0004665851302,-3.077974796,-1.934568644,-0.123240307,-0.00301405089,1.938490152,8.872376043e-07,-3.240260185e-06,0.008265007287,-5.72626268e-05,0,1,0,0.06114792824,-13.95065308,-6.306789398,0.7968809605,5.83580739e-05,0.0008574723677,-3.077973535,-1.860505939,-0.1185249314,0.001594720408,1.864277482,1.37250413e-06,-2.515561391e-06,0.003078671871,-4.588519005e-05,-3.508153213e-06,-1.213657975,7.935944268e-06,0.0001860641351
-13.95065308,-6.306789398,0.7968809605,5.835807315e-05,0.0008574723615,-3.077973604,-1.860505939,-0.1185249314,0.001594720408,1.864277482,1.37250413e-06,-2.515561391e-06,0.003078671871,-4.588519005e-05,0,1,0,0.04664111137,-14.03441143,-6.312125206,0.7968662381,5.827113069e-05,0.0007908344115,-3.077973032,-1.869246125,-0.1190808862,-0.001233045245,1.873035312,-3.63060991e-07,-1.191666456e-06,-0.003639737144,-2.213819789e-05,-1.864073397e-06,0.1877706051,-3.721105895e-05,0.0005091429339
-14.03441143,-6.312125206,0.7968662381,5.827112909e-05,0.0007908344269,-3.077973127,-1.869246125,-0.1190808862,-0.001233045245,1.873035312,-3.63060991e-07,-1.191666456e-06,-0.003639737144,-2.213819789e-05,0,1,0,0.0461268425,-14.12480545,-6.317883015,0.7967758775,5.825186829e-05,0.0004016160667,-3.077974565,-1.939291477,-0.123539567,0.003447530791,1.943222523,-1.174420049e-06,9.720866956e-07,-0.009970288724,2.315799611e-05,-4.175616084e-07,1.521613121,-1.758973849e-05,0.0009819921106
-14.12480545,-6.317883015,0.7967758775,5.825186963e-05,0.0004016160674,-3.077974558,-1.939291477,-0.123539567,0.003447530791,1.943222523,-1.174420049e-06,9.720866956e-07,-0.009970288724,2.315799611e-05,0,1,0,0.04560518265,-14.21530247,-6.323647976,0.7969116569,5.830954612e-05,-0.0001552104818,-3.07797669,-2.045874119,-0.1303218305,0.004401422571,2.050020695,-4.237428584e-06,1.217879344e-06,-0.0120631801,2.985563515e-05,1.264691605e-06,2.341799021,-6.716360804e-05,0.0001468613627
-14.21530247,-6.323647976,0.7969116569,5.830954615e-05,-0.0001552104804,-3.077976704,-2.045874119,-0.1303218305,0.004401422571,2.050020695,-4.237428584e-06,1.217879344e-06,-0.0120631801,2.985563515e-05,0,1,0,0.06008911133,-14.34303665,-6.331783295,0.7970739603,5.85067231e-05,-0.00100600709,-3.077980504,-2.225400209,-0.1417453736,-0.0009482451132,2.229909897,-8.3161558e-06,3.422943564e-06,-0.01479829475,6.501416647e-05,3.281409136e-06,2.99370718,-6.787797611e-05,0.0005851065507
-14.34303665,-6.331783295,0.7970739603,5.85067246e-05,-0.001006007078,-3.077980518,-2.225400209,-0.1417453736,-0.0009482451132,2.229909897,-8.3161558e-06,3.422943564e-06,-0.01479829475,6.501416647e-05,0,1,0,0.04513788223,-14.44638729,-6.338365555,0.7971591949,5.867588621e-05,-0.001608132992,-3.077983799,-2.372421265,-0.151100561,0.0009883079911,2.37722826,-1.013884048e-05,4.053047178e-06,-0.01312384941,7.939999341e-05,3.747663868e-06,3.263741255,-4.038037514e-05,0.0003187085094
-14.44638729,-6.338365555,0.7971591949,5.867588698e-05,-0.001608132967,-3.077983856,-2.372421265,-0.151100561,0.0009883079911,2.37722826,-1.013884048e-05,4.053047178e-06,-0.01312384941,7.939999341e-05,0,1,0,0.04456806183,-14.55491447,-6.345277786,0.7972638607,5.8883996e-05,-0.002166151973,-3.077987338,-2.528892756,-0.1610560119,-0.001767231035,2.534016132,-1.201080977e-05,5.583667189e-06,-0.01279589999,9.082395263e-05,4.669465397e-06,3.517942429,-4.200248441e-05,0.0002563261369
-14.55491447,-6.345277786,0.7972638607,5.888399755e-05,-0.002166152,-3.077987432,-2.528892756,-0.1610560119,-0.001767231035,2.534016132,-1.201080977e-05,5.583667189e-06,-0.01279589999,9.082395263e-05,0,1,0,0.06079006195,-14.71162319,-6.355257511,0.7973448634,5.914231247e-05,-0.002815246605,-3.077992728,-2.746454477,-0.1748962551,-0.002492852276,2.752017736,-1.405960575e-05,3.510415127e-06,-0.01040234976,5.480032996e-05,4.249295216e-06,3.586138964,-3.370281047e-05,-0.0005925906589
-14.71162319,-6.355257511,0.7973448634,5.914231224e-05,-0.002815246582,-3.077992678,-2.746454477,-0.1748962551,-0.002492852276,2.752017736,-1.405960575e-05,3.510415127e-06,-0.01040234976,5.480032996e-05,0,1,0,0.04495692253,-14.84025002,-6.363448143,0.7973570824,5.929427106e-05,-0.00323152519,-3.077997443,-2.914845228,-0.1856069118,0.001096982392,2.920748711,-1.355459335e-05,2.90974549e-06,-0.008759521879,8.763630467e-05,3.380098406e-06,3.753170013,1.123325092e-05,0.0007303875173
-14.84025002,-6.363448143,0.7973570824,5.929427061e-05,-0.003231525188,-3.077997446,-2.914845228,-0.1856069118,0.001096982392,2.920748711,-1.355459335e-05,2.90974549e-06,-0.008759521879,8.763630467e-05,0,1,0,0.04513573647,-14.97337818,-6.3719244,0.7974265814,5.941948499e-05,-0.003590583578,-3.078002161,-3.085904121,-0.1964853406,-0.001112349215,3.092153072,-1.356074335e-05,2.108362196e-06,-0.007706392556,0.0001194537108,2.774173709e-06,3.797531128,-1.362557356e-07,0.0007049271371
-14.97337818,-6.3719244,0.7974265814,5.941948621e-05,-0.003590583568,-3.078002214,-3.085904121,-0.1964853406,-0.001112349215,3.092153072,-1.356074335e-05,2.108362196e-06,-0.007706392556,0.0001194537108,0,1,0,0.05970406532,-15.16380215,-6.384047508,0.7974736691,5.950818594e-05,-0.003989934374,-3.07800906,-3.317518473,-0.2112120986,-0.002041455125,3.324234962,-1.212546977e-05,8.082703857e-07,-0.006470011082,0.0001475931494,1.485656639e-06,3.88720417,2.40397967e-05,0.0004713152885
-15.16380215,-6.384047508,0.7974736691,5.950818741e-05,-0.003989934456,-3.078009129,-3.317518473,-0.2112120986,-0.002041455125,3.324234962,-1.212546977e-05,8.082703857e-07,-0.006470011082,0.0001475931494,0,1,0,0.04517102242,-15.31708813,-6.393805504,0.7974684238,5.953024141e-05,-0.004235982487,-3.078014617,-3.492031097,-0.2223048359,0.0009141807095,3.49909997,-1.12801572e-05,-6.572337838e-07,-0.005180896726,0.0001921708899,4.88233411e-07,3.87117672,1.871360291e-05,0.0009868658381
-15.31708813,-6.393805504,0.7974684238,5.953024083e-05,-0.004235982429,-3.078014612,-3.492031097,-0.2223048359,0.0009141807095,3.49909997,-1.12801572e-05,-6.572337838e-07,-0.005180896726,0.0001921708899,0,1,0,0.0445959568,-15.47542667,-6.403883934,0.7975162268,5.953831722e-05,-0.00444459902,-3.078019673,-3.667963982,-0.2334847599,-0.001192007679,3.675387859,-1.345804048e-05,-5.604254625e-07,-0.004542716779,0.0001225042506,1.81101413e-07,3.953001738,-4.883589281e-05,-0.001562173944
-15.47542667,-6.403883934,0.7975162268,5.953831715e-05,-0.004444599152,-3.078019619,-3.667963982,-0.2334847599,-0.001192007679,3.675387859,-1.345804048e-05,-5.604254625e-07,-0.004542716779,0.0001225042506,0,1,0,0.05993413925,-15.69978619,-6.41816473,0.797532022,5.945002403e-05,-0.004675626964,-3.07802835,-3.904166222,-0.2484913766,-0.002300233813,3.912066221,-8.620576409e-06,-3.325509851e-06,-0.00374869816,0.0001471014257,-1.473168936e-06,3.948974133,8.071299817e-05,0.000410403416
-15.69978619,-6.41816473,0.797532022,5.94500234e-05,-0.004675626755,-3.07802844,-3.904166222,-0.2484913766,-0.002300233813,3.912066221,-8.620576409e-06,-3.325509851e-06,-0.00374869816,0.0001471014257,0,1,0,0.04552102089,-15.88189983,-6.42975378,0.7974565029,5.93639952e-05,-0.004820704703,-3.078035002,-4.082267284,-0.2598031759,0.003253077855,4.090526104,-5.597623385e-06,-2.657167897e-06,-0.002945051529,0.0001725935144,-1.889856435e-06,3.92038393,6.640784704e-05,0.0005600069417
-15.88189983,-6.42975378,0.7974565029,5.936399612e-05,-0.004820704926,-3.078035116,-4.082267284,-0.2598031759,0.003253077855,4.090526104,-5.597623385e-06,-2.657167897e-06,-0.002945051529,0.0001725935144,0,1,0,0.04641199112,-16.07440758,-6.442003727,0.7978285551,5.923580309e-05,-0.004953622735,-3.078041577,-4.269385338,-0.2716840804,-0.007986465469,4.278020859,-5.906116712e-06,-3.441388571e-06,-0.002597538056,0.0001378365414,-2.76206697e-06,4.039791107,-6.646845122e-06,-0.0007488791598
-16.07440758,-6.442003727,0.7978285551,5.923580466e-05,-0.004953622818,-3.078041553,-4.269385338,-0.2716840804,-0.007986465469,4.278020859,-5.906116712e-06,-3.441388571e-06,-0.002597538056,0.0001378365414,0,1,0,0.06128001213,-16.33540916,-6.458610535,0.7975303531,5.903598485e-05,-0.005087493958,-3.078050593,-4.508897305,-0.2868870497,-0.00236366014,4.518014908,-3.678337407e-06,-4.170004559e-06,-0.00189833215,0.0001568362641,-3.260766334e-06,3.916351318,3.635409303e-05,0.0003100476461
-16.33540916,-6.458610535,0.7975303531,5.903598503e-05,-0.005087493919,-3.078050613,-4.508897305,-0.2868870497,-0.00236366014,4.518014908,-3.678337407e-06,-4.170004559e-06,-0.00189833215,0.0001568362641,0,1,0,0.04391980171,-16.54549408,-6.47197628,0.7974245548,5.886651471e-05,-0.005167364292,-3.07805809,-4.69087553,-0.2984333336,0.0007048897096,4.700359344,-1.440851747e-06,-5.22458231e-06,-0.001753269462,0.0002527761681,-3.858631317e-06,4.151759148,5.094480366e-05,0.002184433863
-16.54549408,-6.47197628,0.7974245548,5.886651343e-05,-0.005167364143,-3.078058004,-4.69087553,-0.2984333336,0.0007048897096,4.700359344,-1.440851747e-06,-5.22458231e-06,-0.001753269462,0.0002527761681,0,1,0,0.04509425163,-16.75824738,-6.485509396,0.7974053621,5.869643809e-05,-0.00523304887,-3.078065174,-4.869217396,-0.3097454607,0.000800004811,4.879059315,-5.190453862e-07,-4.581536814e-06,-0.001427944866,0.0001484855311,-3.771552429e-06,3.962810516,2.044177018e-05,-0.002312725643
-16.75824738,-6.485509396,0.7974053621,5.869643792e-05,-0.005233048927,-3.078065157,-4.869217396,-0.3097454607,0.000800004811,4.879059315,-5.190453862e-07,-4.581536814e-06,-0.001427944866,0.0001484855311,0,1,0,0.06042075157,-17.05658722,-6.50448513,0.7979576588,5.845898015e-05,-0.005346655353,-3.078075961,-5.113165379,-0.3252165616,0.01764556952,5.123497486,7.367774288e-06,-5.140842404e-06,-0.001632392523,0.0001839485049,-3.930069852e-06,4.045599461,0.00013053164,0.0005869336892
-17.05658722,-6.50448513,0.7979576588,5.845897977e-05,-0.00534665538,-3.078075886,-5.113165379,-0.3252165616,0.01764556952,5.123497486,7.367774288e-06,-5.140842404e-06,-0.001632392523,0.0001839485049,0,1,0,0.04538106918,-17.29119301,-6.519404888,0.7983654141,5.826349856e-05,-0.005420207064,-3.078083801,-5.302379608,-0.3372125924,-0.0005705661606,5.313091755,1.081208302e-05,-5.123556093e-06,-0.002100338228,0.0002403764374,-4.307549716e-06,4.177827358,7.589747838e-05,0.001243424485
-17.29119301,-6.519404888,0.7983654141,5.826350025e-05,-0.005420207046,-3.078083754,-5.302379608,-0.3372125924,-0.0005705661606,5.313091755,1.081208302e-05,-5.123556093e-06,-0.002100338228,0.0002403764374,0,1,0,0.04558110237,-17.53124619,-6.534669876,0.7983103991,5.806429702e-05,-0.005432724443,-3.078091052,-5.475790501,-0.3482004404,-0.002413301496,5.486850262,1.133166188e-05,-5.72888348e-06,0.002715090057,0.0001268075575,-4.370303031e-06,3.812073469,1.139899723e-05,-0.002491578227
-17.53124619,-6.534669876,0.7983103991,5.806429544e-05,-0.005432724487,-3.078091145,-5.475790501,-0.3482004404,-0.002413301496,5.486850262,1.133166188e-05,-5.72888348e-06,0.002715090057,0.0001268075575,0,1,0,0.06060504913,-17.86910057,-6.556150913,0.7981793284,5.784096961e-05,-0.005430340047,-3.078102183,-5.707598686,-0.3628864288,-0.00229841657,5.719122887,2.01490675e-05,-4.792050731e-06,0.008798304945,0.0001680156274,-3.684937838e-06,3.832562208,0.0001454896264,0.0006799445255
-17.86910057,-6.556150913,0.7981793284,5.784097084e-05,-0.005430339836,-3.078102112,-5.707598686,-0.3628864288,-0.00229841657,5.719122887,2.01490675e-05,-4.792050731e-06,0.008798304945,0.0001680156274,0,1,0,0.0441467762,-18.13935661,-6.573331356,0.7980589271,5.76472629e-05,-0.005602120578,-3.078111368,-5.945664406,-0.3779793382,-0.001959665911,5.957666874,3.325696161e-05,-6.506997124e-06,-0.01229718979,0.0002590233926,-4.387816261e-06,5.403429508,0.0002969162306,0.002061481588
-18.13935661,-6.573331356,0.7980589271,5.764726302e-05,-0.005602120422,-3.07811141,-5.945664406,-0.3779793382,-0.001959665911,5.957666874,3.325696161e-05,-6.506997124e-06,-0.01229718979,0.0002590233926,0,1,0,0.04626202583,-18.40308952,-6.590095043,0.7980050445,5.743861043e-05,-0.005517363823,-3.078119464,-6.080257893,-0.3864813149,-0.001838386292,6.092528343,2.908841634e-05,-5.295376468e-06,0.00932597369,0.0001827738888,-4.510234703e-06,2.915165663,-9.010727808e-05,-0.001648209407
-18.40308952,-6.590095043,0.7980050445,5.743861038e-05,-0.005517364014,-3.078119516,-6.080257893,-0.3864813149,-0.001838386292,6.092528343,2.908841634e-05,-5.295376468e-06,0.00932597369,0.0001827738888,0,1,0,0.04584908485,-18.68192863,-6.607817173,0.7979069352,5.718385642e-05,-0.005660534163,-3.078128566,-6.310267925,-0.4010499716,-0.001671024249,6.322999477,3.606580867e-05,-7.31307e-06,-0.008014673367,0.0002198463335,-5.556358701e-06,5.026733398,0.0001521817176,0.0008085754816
-18.68192863,-6.607817173,0.7979069352,5.718385728e-05,-0.005660534371,-3.078128576,-6.310267925,-0.4010499716,-0.001671024249,6.322999477,3.606580867e-05,-7.31307e-06,-0.008014673367,0.0002198463335,0,1,0,0.05969429016,-19.07025337,-6.632493973,0.7978135347,5.683938555e-05,-0.005676388564,-3.078141041,-6.556120872,-0.4165963233,-0.001517514116,6.569343567,4.0171195e-05,-8.11004702e-06,-0.007398328744,0.0002787578269,-5.770597454e-06,4.126761436,6.877351552e-05,0.00098688656
-19.07025337,-6.632493973,0.7978135347,5.683938434e-05,-0.005676388741,-3.078140974,-6.556120872,-0.4165963233,-0.001517514116,6.569343567,4.0171195e-05,-8.11004702e-06,-0.007398328744,0.0002787578269,0,1,0,0.04603290558,-19.37135506,-6.65162468,0.7977628112,5.655239628e-05,-0.005597829207,-3.078150158,-6.705591679,-0.4260321259,-0.001432714751,6.719111919,4.167918451e-05,-6.407552974e-06,0.005950632505,0.00013872204,-6.234411103e-06,3.253506422,3.275894778e-05,-0.003042080207
-19.37135506,-6.65162468,0.7977628112,5.655239511e-05,-0.005597829353,-3.078150272,-6.705591679,-0.4260321259,-0.001432714751,6.719111919,4.167918451e-05,-6.407552974e-06,0.005950632505,0.00013872204,0,1,0,0.0458688736,-19.6815052,-6.671326637,0.7976837754,5.625902121e-05,-0.005677699603,-3.07816027,-6.923090458,-0.4397863746,-0.00135155255,6.937045097,4.830424223e-05,-7.255710443e-06,-0.005718243774,0.0001887067338,-6.395925539e-06,4.751221657,0.0001444347145,0.001089730184
-19.6815052,-6.671326637,0.7976837754,5.625902122e-05,-0.005677699577,-3.078160286,-6.923090458,-0.4397863746,-0.00135155255,6.937045097,4.830424223e-05,-7.255710443e-06,-0.005718243774,0.0001887067338,0,1,0,0.06136202812,-20.10723877,-6.698367119,0.7976052165,5.584987791e-05,-0.00567102427,-3.078173428,-7.163943768,-0.4549950957,-0.001294783899,7.178378105,5.289283945e-05,-6.872952326e-06,-0.003851189278,0.0002005172428,-6.667695288e-06,3.932937384,7.477909821e-05,0.0001924725948
-20.10723877,-6.698367119,0.7976052165,5.584987957e-05,-0.005671024323,-3.078173399,-7.163943768,-0.4549950957,-0.001294783899,7.178378105,5.289283945e-05,-6.872952326e-06,-0.003851189278,0.0002005172428,0,1,0,0.04538297653,-20.43225861,-6.719007492,0.7974798679,5.556674835e-05,-0.004755495971,-3.078179471,-7.135280132,-0.4531262815,-0.001201626146,7.149653912,4.71092244e-05,-6.914808182e-06,0.02483027615,0.0001254906529,-6.23870983e-06,-0.6329287887,-0.0001274401875,-0.001653187908
-20.43225861,-6.719007492,0.7974798679,5.55667466e-05,-0.004755496047,-3.078179359,-7.135280132,-0.4531262815,-0.001201626146,7.149653912,4.71092244e-05,-6.914808182e-06,0.02483027615,0.0001254906529,0,1,0,0.04611492157,-20.76321411,-6.740023613,0.7972834706,5.534289922e-05,-0.003955125347,-3.078179497,-7.155611515,-0.4543858171,-0.001123724622,7.170023918,1.740321022e-05,-3.304386382e-06,0.01239349972,6.858905408e-07,-4.854120107e-06,0.4417226613,-0.0006441735895,-0.002706385683
-20.76321411,-6.740023613,0.7972834706,5.534289812e-05,-0.003955125343,-3.078179598,-7.155611515,-0.4543858171,-0.001123724622,7.170023918,1.740321022e-05,-3.304386382e-06,0.01239349972,6.858905408e-07,0,1,0,0.04612207413,-21.08968544,-6.760754108,0.7971357703,5.527331106e-05,-0.003148197926,-3.078180784,-7.122097492,-0.4522438645,-0.001115463208,7.136441231,1.202245858e-05,-1.129732539e-07,0.02082523517,7.964751421e-05,-1.50875826e-06,-0.7281261086,-0.0001166632646,0.001712013735
-21.08968544,-6.760754108,0.7971357703,5.527331086e-05,-0.003148197895,-3.07818079,-7.122097492,-0.4522438645,-0.001115463208,7.136441231,1.202245858e-05,-1.129732539e-07,0.02082523517,7.964751421e-05,-0.2470280528,1,0,0.06122803688,-21.53037834,-6.791214943,0.7970571518,0.000663970387,-0.003614902178,-3.074460339,-7.383310318,-0.5765166879,-0.001175181242,7.405353069,0.07993105054,0.0177691374,-0.01488289982,-0.1122453064,0.009941476397,4.391972065,1.305268407,-1.834534645
-21.53037834,-6.791214943,0.7970571518,0.0006639703643,-0.003614902264,-3.074460268,-7.383310318,-0.5765166879,-0.001175181242,7.405353069,0.07993105054,0.0177691374,-0.01488289982,-0.1122453064,-0.9441671968,1,0,0.04593515396,-21.88104439,-6.82235527,0.7971039414,0.001844176626,-0.004305958409,-3.065936662,-7.624360085,-0.73602736,-0.001216629054,7.658182144,0.1576427817,0.0285637863,-0.01311805006,-0.2101622671,0.02569287643,5.504043102,1.691770315,-2.131634474
-21.88104439,-6.82235527,0.7971039414,0.001844176673,-0.004305958282,-3.065936565,-7.624360085,-0.73602736,-0.001216629054,7.658182144,0.1576427817,0.0285637863,-0.01311805006,-0.2101622671,-1,1,0,0.04542899132,-22.22747421,-6.861417294,0.7971332669,0.003604461385,-0.004771232271,-3.05164593,-7.822561264,-0.9421575069,-0.001259957091,7.875568867,0.2356840223,0.04014349356,-0.005863036029,-0.3270412982,0.03874804825,4.785198212,1.717873096,-2.572785139
-22.22747421,-6.861417294,0.7971332669,0.003604461439,-0.004771232139,-3.051645994,-7.822561264,-0.9421575069,-0.001259957091,7.875568867,0.2356840223,0.04014349356,-0.005863036029,-0.3270412982,-1,1,0,0.04564881325,-22.58872223,-6.912801743,0.7971353531,0.005957116566,-0.00512492554,-3.030682668,-8.01659584,-1.205813766,-0.001359035028,8.100803375,0.3111053407,0.0535361357,-0.003639819566,-0.474218905,0.05153814331,4.934071541,1.652207613,-3.224127769
-22.58872223,-6.912801743,0.7971353531,0.005957116373,-0.005124925636,-3.030682564,-8.01659584,-1.205813766,-0.001359035028,8.100803375,0.3111053407,0.0535361357,-0.003639819566,-0.474218905,-1,1,0,0.060338974,-23.07624626,-7.00208807,0.7971135378,0.009752963887,-0.005365847412,-2.993124582,-8.220889091,-1.632069826,-0.001541778212,8.371870995,0.3980539441,0.07325849682,0.003836708376,-0.7125544548,0.0629087165,4.492413521,1.441002369,-3.949943781
-23.07624626,-7.00208807,0.7971135378,0.00975296367,-0.00536584761,-2.993124485,-8.220889091,-1.632069826,-0.001541778212,8.371870995,0.3980539441,0.07325849682,0.003836708376,-0.7125544548,-1,1,0,0.04505491257,-23.4482975,-7.087825775,0.7970802784,0.0129075022,-0.005414365504,-2.958802714,-8.331233025,-1.997944951,-0.001728707342,8.55561161,0.4502604604,0.07566048205,0.009941575117,-0.7958421707,0.07001541555,4.078148365,1.158730865,-1.848582387
-23.4482975,-7.087825775,0.7970802784,0.01290750224,-0.005414365325,-2.9588027,-8.331233025,-1.997944951,-0.001728707342,8.55561161,0.4502604604,0.07566048205,0.009941575117,-0.7958421707,-0.4995928109,1,0,0.0469391346,-23.83412361,-7.193004131,0.7970469594,0.01584254061,-0.005600928837,-2.921082622,-8.484056473,-2.305501938,-0.001873621251,8.782899857,0.3939824104,0.05396922678,0.006757698022,-0.7249652743,0.06252860278,4.842190742,-1.19895792,1.50997448
-23.83412361,-7.193004131,0.7970469594,0.01584254019,-0.005600928795,-2.921082735,-8.484056473,-2.305501938,-0.001873621251,8.782899857,0.3939824104,0.05396922678,0.006757698022,-0.7249652743,-0.09141578525,1,0,0.04953813553,-24.24191666,-7.313563824,0.7970218658,0.01750309685,-0.005903362316,-2.886219126,-8.689536095,-2.522299051,-0.00173181959,9.044876099,0.2454613298,0.02584450692,0.003745510709,-0.6380652189,0.03352077305,5.288374901,-2.998116016,1.754205227
-24.24191666,-7.313563824,0.7970218658,0.01750309765,-0.005903362297,-2.886219025,-8.689536095,-2.522299051,-0.00173181959,9.044876099,0.2454613298,0.02584450692,0.003745510709,-0.6380652189,0.5673760176,1,0,0.04922699928,-24.67221069,-7.443973064,0.7969876528,0.0173747019,-0.006126404119,-2.863326718,-8.913238525,-2.6324687,-0.001368252328,9.293484688,0.08284088969,-0.01443779375,0.001727086958,-0.371701479,-0.002608238487,5.050248623,-3.303480625,5.410927773
-24.67221069,-7.443973064,0.7969876528,0.0173747018,-0.006126404274,-2.863326788,-8.913238525,-2.6324687,-0.001368252328,9.293484688,0.08284088969,-0.01443779375,0.001727086958,-0.371701479,0.9960807562,1,0,0.05027580261,-25.1249218,-7.578190327,0.7969330549,0.01559265754,-0.006247042808,-2.854224802,-9.151720047,-2.657344818,-0.0009652867448,9.529605865,-0.04548598081,-0.0419241786,-0.001033964101,-0.08135095239,-0.03544536605,4.696517467,-2.552457809,5.775154591
-25.1249218,-7.578190327,0.7969330549,0.01559265796,-0.006247042678,-2.85422492,-9.151720047,-2.657344818,-0.0009652867448,9.529605865,-0.04548598081,-0.0419241786,-0.001033964101,-0.08135095239,1,1,0,0.04923415184,-25.57435417,-7.705672264,0.7968751192,0.01269461259,-0.006325125605,-2.856557065,-9.406697273,-2.628346443,-0.0007507556584,9.766221046,-0.1227865815,-0.06456778198,-0.002547121141,0.1165009961,-0.05886250362,4.805915833,-1.570060611,4.018591404
-25.57435417,-7.705672264,0.7968751192,0.01269461215,-0.006325125694,-2.856557131,-9.406697273,-2.628346443,-0.0007507556584,9.766221046,-0.1227865815,-0.06456778198,-0.002547121141,0.1165009961,1,1,0,0.04979586601,-26.04940414,-7.832376003,0.7968118191,0.008825181125,-0.006359458433,-2.868719046,-9.670393944,-2.521876097,-0.0007606888539,9.992238998,-0.1776011437,-0.08976858854,-0.003111623926,0.3123066723,-0.07770586759,4.538889885,-1.100785375,3.932167292
-26.04940414,-7.832376003,0.7968118191,0.008825181052,-0.006359458435,-2.868719101,-9.670393944,-2.521876097,-0.0007606888539,9.992238998,-0.1776011437,-0.08976858854,-0.003111623926,0.3123066723,1,1,0,0.04990315437,-26.54184341,-7.951344967,0.7967409492,0.00439901723,-0.006335376224,-2.888920744,-9.936022758,-2.339293718,-0.0009170486592,10.20533848,-0.2189086527,-0.08864466846,-0.0009084467893,0.4136908054,-0.08869507164,4.270260811,-0.8277534842,2.031617641
-26.54184341,-7.951344967,0.7967409492,0.004399017431,-0.006335376296,-2.888920784,-9.936022758,-2.339293718,-0.0009170486592,10.20533848,-0.2189086527,-0.08864466846,-0.0009084467893,0.4136908054,1,1,0,0.0501806736,-27.03787994,-8.056693077,0.7966626287,-0.0005033386181,-0.006244658715,-2.916806344,-10.20401478,-2.073634148,-0.001364501775,10.40950871,-0.2529887557,-0.1043130904,0.002922213171,0.56995821,-0.0976941064,4.068702221,-0.6791479588,3.114095449
-27.03787994,-8.056693077,0.7966626287,-0.0005033386406,-0.006244658493,-2.916806459,-10.20401478,-2.073634148,-0.001364501775,10.40950871,-0.2529887557,-0.1043130904,0.002922213171,0.56995821,1,1,0,0.04908919334,-27.55105209,-8.147437096,0.7965635657,-0.005741243056,-0.006084084562,-2.951655057,-10.4587574,-1.73290956,-0.001841048594,10.59783649,-0.2728424966,-0.1188783422,0.008841542527,0.7459310293,-0.1067017838,3.836440802,-0.4044421911,3.584756851
-27.55105209,-8.147437096,0.7965635657,-0.005741243251,-0.006084084511,-2.951655149,-10.4587574,-1.73290956,-0.001841048594,10.59783649,-0.2728424966,-0.1188783422,0.008841542527,0.7459310293,1,1,0,0.04979300499,-28.07676125,-8.218497276,0.7964512706,-0.01124599691,-0.005865812268,-2.99309482,-10.69069481,-1.322096825,-0.002303856891,10.76864624,-0.2741693258,-0.1217103451,0.01578089409,0.8830409646,-0.1105527505,3.430396318,-0.02664689906,2.753598213
-28.07676125,-8.218497276,0.7964512706,-0.01124599669,-0.005865812302,-2.993094921,-10.69069481,-1.322096825,-0.002303856891,10.76864624,-0.2741693258,-0.1217103451,0.01578089409,0.8830409646,1,1,0,0.06044793129,-28.76235771,-8.275058746,0.7962925434,-0.01809990739,-0.005543230974,-3.052410898,-10.93607616,-0.7268025279,-0.002908068011,10.95734692,-0.2500926554,-0.1056949273,0.02183710411,0.94458884,-0.1133853644,3.121706009,0.3983042836,1.018196583
-28.76235771,-8.275058746,0.7962925434,-0.01809990779,-0.005543231033,-3.052410841,-10.93607616,-0.7268025279,-0.002908068011,10.95734692,-0.2500926554,-0.1056949273,0.02183710411,0.94458884,1,1,0,0.04540705681,-29.25704575,-8.290276527,0.7961791754,-0.02293833595,-0.005267738511,-3.100904568,-11.07839298,-0.2442244142,-0.003385173855,11.07915783,-0.2066130936,-0.1084139869,0.03305664659,1.079219818,-0.1065567434,2.682642698,0.9575507641,2.964979172
-29.25704575,-8.290276527,0.7961791754,-0.02293833531,-0.005267738365,-3.100904465,-11.07839298,-0.2442244142,-0.003385173855,11.07915783,-0.2066130936,-0.1084139869,0.03305664659,1.079219818,0.8600003123,1,0,0.04539990425,-29.75084114,-8.28417778,0.7959992886,-0.02713920676,-0.004485607062,3.134084735,-11.07443714,0.2203271389,-0.00370756886,11.07577896,-0.1371760666,-0.09027543664,0.04821514338,1.043073297,-0.09253040701,-0.07442456484,1.529453158,-0.7961805463
-29.75084114,-8.28417778,0.7959992886,-0.02713920735,-0.004485607147,3.134084702,-11.07443714,0.2203271389,-0.00370756886,11.07577896,-0.1371753663,-0.09027543664,0.04821514338,1.043073297,0.1908418685,1,0,0.05961823463,-30.41445923,-8.246803284,0.795691669,-0.03114620454,-0.003375051944,3.07327372,-11.02050495,0.7359765172,-0.003436981468,11.04503822,0.01806465164,-0.05853245035,0.04850257188,1.001042247,-0.06721093506,-0.5156264305,2.603901625,-0.7050032616
-30.41445923,-8.246803284,0.795691669,-0.0311462041,-0.003375052009,3.073273659,-11.02050495,0.7359765172,-0.003436981468,11.04503822,0.01806465164,-0.05853245035,0.04850257188,1.001042247,-0.07837313414,1,0,0.04427170753,-30.90945244,-8.202223778,0.7954867482,-0.03251400206,-0.003054142269,3.037073162,-11.06113243,1.04033196,-0.002892900957,11.10930634,0.1193457618,-0.02365391515,0.0185624212,0.7644500136,-0.03089553118,1.451674581,2.287716389,-5.344095707
-30.90945244,-8.202223778,0.7954867482,-0.03251400217,-0.003054142231,3.037073135,-11.06113243,1.04033196,-0.002892900957,11.10930634,0.1193457618,-0.02365391515,0.0185624212,0.7644500136,-0.1333385706,1,0,0.04564094543,-31.40211678,-8.147437096,0.7954488993,-0.032565661,-0.003689287772,3.010379377,-11.25543308,1.296392918,-0.002329111099,11.32829666,0.1873797327,0.006857118104,0.002258121036,0.4924860597,-0.001131852623,4.798110962,1.490634561,-5.958771229
-31.40211678,-8.147437096,0.7954488993,-0.03256566077,-0.003689287696,3.010379314,-11.25543308,1.296392918,-0.002329111099,11.32829666,0.1873797327,0.006857118104,0.002258121036,0.4924860597,-0.1501076967,1,0,0.0604352951,-32.09057617,-8.061362267,0.7954115272,-0.0303536403,-0.004442214144,2.992329007,-11.52666378,1.501725554,-0.001405322924,11.62181854,0.2291012704,0.04991012439,-0.005746232346,0.1734667867,0.03660146892,4.856795788,0.6903505325,-5.278691292
-32.09057617,-8.061362267,0.7954115272,-0.03035364114,-0.004442214034,2.992329121,-11.52666378,1.501725554,-0.001405322924,11.62181854,0.2291012704,0.04991012439,-0.005746232346,0.1734667867,-0.08579395711,1,0,0.04483485222,-32.60906601,-7.993122578,0.7953753471,-0.02766118138,-0.004883288886,2.989127373,-11.73136806,1.631269455,-0.001024784637,11.84302998,0.169358328,0.06625975668,-0.008866603486,0.03281290084,0.06005283073,4.933917046,-1.332511187,-3.137155056
-32.60906601,-7.993122578,0.7953753471,-0.02766118199,-0.004883288871,2.989127398,-11.73136806,1.631269455,-0.001024784637,11.84302998,0.169358328,0.06625975668,-0.008866603486,0.03281290084,-0.05318733677,1,0,0.0450322628,-33.14204407,-7.919776917,0.7953358293,-0.02464968954,-0.005233526637,2.989548237,-11.93537235,1.741998434,-0.0009769320022,12.06152248,0.08582131565,0.06708256155,-0.007570042741,-0.01805025339,0.06687410921,4.851910591,-1.85504806,-1.129482508
-33.14204407,-7.919776917,0.7953358293,-0.02464968897,-0.005233526696,2.989548206,-11.93537235,1.741998434,-0.0009769320022,12.06152248,0.08582131565,0.06708256155,-0.007570042741,-0.01805025339,0,1,0,0.05868697166,-33.86539078,-7.815245628,0.795268774,-0.02052818037,-0.005583404349,2.990738414,-12.20946217,1.852452636,-0.001192625845,12.34919167,0.003457011189,0.07038621604,-0.00554632768,-0.0194635056,0.07022868097,4.901755333,-1.403451324,-0.02408119105
-33.86539078,-7.815245628,0.795268774,-0.02052818052,-0.005583404563,2.990738392,-12.20946217,1.852452636,-0.001192625845,12.34919167,0.003457011189,0.07038621604,-0.00554632768,-0.0194635056,0,1,0,0.04504704475,-34.40650177,-7.734994411,0.7952067256,-0.01747299674,-0.005775809006,2.991482874,-12.41377163,1.90294838,-0.001371374936,12.55875397,-0.02511206083,0.06557575613,-0.003955642693,-0.01484854706,0.06782206893,4.652076721,-0.6342052817,0.1024475321
-34.40650177,-7.734994411,0.7952067256,-0.01747299731,-0.005775808822,2.991482973,-12.41377163,1.90294838,-0.001371374936,12.55875397,-0.02511206083,0.06557575613,-0.003955642693,-0.01484854706,0,1,0,0.05949854851,-35.15435791,-7.62296629,0.795108676,-0.01354750111,-0.005959032823,2.99221478,-12.68884659,1.951511383,-0.00167744956,12.83797169,-0.04138594121,0.06127932295,-0.00260455301,-0.01005256828,0.0659763366,4.692849159,-0.2735172808,0.08060665429
-35.15435791,-7.62296629,0.795108676,-0.01354750153,-0.005959033035,2.99221468,-12.68884659,1.951511383,-0.00167744956,12.83797169,-0.04138594121,0.06127932295,-0.00260455301,-0.01005256828,0,1,0,0.04345917702,-35.72221375,-7.537555218,0.7950254679,-0.01094292824,-0.006048797307,2.99256954,-12.89039993,1.979864001,-0.001907073078,13.04148483,-0.04405384511,0.05759951845,-0.001839303877,-0.007199680433,0.05993149057,4.68285799,-0.06138873473,0.0656452328
-35.72221375,-7.537555218,0.7950254679,-0.01094292849,-0.006048797164,2.992569447,-12.89039993,1.979864001,-0.001907073078,13.04148483,-0.04405384511,0.05759951845,-0.001839303877,-0.007199680433,0,1,0,0.04548001289,-36.29272079,-7.45165205,0.7949348092,-0.008661665891,-0.006106852806,2.992793893,-13.08917904,2.00501585,-0.00209394074,13.241786,-0.04238444194,0.0471897088,-0.001065524993,-0.004110261798,0.05015967414,4.404158115,0.03670630231,0.06792914867
-36.29272079,-7.45165205,0.7949348092,-0.008661665954,-0.006106853019,2.992793798,-13.08917904,2.00501585,-0.00209394074,13.241786,-0.04238444194,0.0471897088,-0.001065524993,-0.004110261798,0,1,0,0.05989909172,-37.08555222,-7.332260609,0.7947998047,-0.006126335743,-0.006144404547,2.992945507,-13.3527565,2.036751032,-0.00230169436,13.5071497,-0.03674170747,0.03586008027,-0.0003498932056,-0.001545354258,0.04232668877,4.430179119,0.09420400858,0.042820476
-37.08555222,-7.332260609,0.7947998047,-0.006126335822,-0.006144404411,2.992945433,-13.3527565,2.036751032,-0.00230169436,13.5071497,-0.03674170747,0.03586008027,-0.0003498932056,-0.001545354258,0,1,0,0.04415297508,-37.68109512,-7.24260664,0.7946932316,-0.004617388275,-0.006149291414,2.992979494,-13.54688454,2.059956312,-0.002424537437,13.70257282,-0.03140790015,0.03152017295,1.452797369e-05,-0.0003632607695,0.03417544439,4.426046848,0.1208028942,0.02677267976
-37.68109512,-7.24260664,0.7946932316,-0.00461738836,-0.006149291527,2.992979527,-13.54688454,2.059956312,-0.002424537437,13.70257282,-0.03140790015,0.03152017295,1.452797369e-05,-0.0003632607695,0,1,0,0.04479598999,-38.28954697,-7.151053429,0.7945807576,-0.003416835148,-0.006138682912,2.992968771,-13.73696041,2.08314991,-0.002515060594,13.89398766,-0.02605284378,0.02424581535,0.0003344690485,0.0004900704371,0.02680046111,4.273035049,0.1195432097,0.01904927753
-38.28954697,-7.151053429,0.7945807576,-0.003416835098,-0.006138682831,2.992968798,-13.73696041,2.08314991,-0.002515060594,13.89398766,-0.02605284378,0.02424581535,0.0003344690485,0.0004900704371,0,1,0,0.05995702744,-39.12503433,-7.025408268,0.7944218516,-0.002193379181,-0.006106019169,2.99291381,-13.98970318,2.11505127,-0.002590079326,14.1486702,-0.0193977654,0.01735231653,0.0006417941186,0.001091272454,0.02040554583,4.247751236,0.1109974682,0.01002721488
-39.12503433,-7.025408268,0.7944218516,-0.002193379216,-0.00610601902,2.992913723,-13.98970318,2.11505127,-0.002590079326,14.1486702,-0.0193977654,0.01735231653,0.0006417941186,0.001091272454,0,1,0,0.04375910759,-39.74031448,-6.932915688,0.7943028808,-0.001541437918,-0.006071805328,2.992858778,-14.17189026,2.138840437,-0.002628917107,14.33237171,-0.01515084598,0.01389059331,0.0008541711723,0.00132236036,0.01489841379,4.198018074,0.09705223888,0.00528091006
-39.74031448,-6.932915688,0.7943028808,-0.00154143793,-0.006071805488,2.992858887,-14.17189026,2.138840437,-0.002628917107,14.33237171,-0.01515084598,0.01389059331,0.0008541711723,0.00132236036,0,1,0,0.06027698517,-40.37662506,-6.837291718,0.7941782475,-0.001050883865,-0.006029487029,2.992799636,-14.35197258,2.163069248,-0.002733379602,14.51405716,-0.01156491507,0.009676192887,0.0009726606659,0.001283333986,0.008138331585,3.01417613,0.05949088186,-0.0006474506808
-40.37662506,-6.837291718,0.7941782475,-0.001050883904,-0.006029487122,2.99279952,-14.35197258,2.163069248,-0.002733379602,14.51405716,-0.01156491507,0.009676192887,0.0009726606659,0.001283333986,0,1,0,0.04389476776,-41.23223877,-6.708739281,0.7940052748,-0.0005928193477,-0.005963444481,2.992721003,-14.58978558,2.19599843,-0.002799104899,14.75412464,-0.007718402427,0.006222949363,0.001117928769,0.001243211562,0.01043551601,5.469159603,0.08763032407,-0.0009140594047
-41.23223877,-6.708739281,0.7940052748,-0.0005928193568,-0.00596344471,2.992721081,-14.58978558,2.19599843,-0.002799104899,14.75412464,-0.007718402427,0.006222949363,0.001117928769,0.001243211562,0,1,0,0.04409527779,-41.87805939,-6.611722469,0.7938740253,-0.0003643200965,-0.005910635266,2.992667427,-14.76443958,2.220773935,-0.002832484664,14.93052197,-0.005513823591,0.004463186953,0.001184876543,0.001160054002,0.005181943998,4.000367641,0.04999580234,-0.001885860926
-41.87805939,-6.611722469,0.7938740253,-0.0003643200907,-0.00591063546,2.992667437,-14.76443958,2.220773935,-0.002832484664,14.93052197,-0.005513823591,0.004463186953,0.001184876543,0.001160054002,-5.300583143e-05,1,0,0.05929780006,-42.7663765,-6.478286743,0.7936922908,-0.0001480720294,-0.005837916749,2.992686487,-14.99806404,2.249116898,-0.002965179272,15.16576576,0.0008318082546,0.003837737255,0.001216339529,-0.004727511667,0.003646814264,3.967159033,0.1070129424,-0.09928809851
-42.7663765,-6.478286743,0.7936922908,-0.0001480720239,-0.005837916862,2.99268651,-14.99806404,2.249116898,-0.002965179272,15.16576576,0.0008318082546,0.003837737255,0.001216339529,-0.004727511667,-0.04293954372,1,0,0.04468917847,-43.42364502,-6.380186558,0.7935548425,9.634298719e-05,-0.005782603996,2.993582534,-15.17269993,2.246567249,-0.003012896515,15.33811092,0.01551908068,0.007778985426,0.001415353734,-0.03419886529,0.005469221622,3.85653019,0.3286539018,-0.6594740748
-43.42364502,-6.380186558,0.7935548425,9.634298476e-05,-0.005782604218,2.993582487,-15.17269993,2.246567249,-0.003012896515,15.33811092,0.01551908068,0.007778985426,0.001415353734,-0.03419886529,-0.1966885775,1,0,0.04473686218,-44.10812378,-6.280527592,0.7934104204,0.0006810153289,-0.005713462159,2.997005211,-15.34682751,2.190379858,-0.003046789905,15.50228882,0.04371071979,0.01630671322,0.001683936454,-0.0979532823,0.01306914072,3.669857264,0.6301657557,-1.425098062
-44.10812378,-6.280527592,0.7934104204,0.0006810153136,-0.005713462364,2.997005224,-15.34682751,2.190379858,-0.003046789905,15.50228882,0.04371071979,0.01630671322,0.001683936454,-0.0979532823,-0.5014881492,1,0,0.0591750145,-45.03232956,-6.155153275,0.7932115793,0.002390692768,-0.005573868164,3.008773006,-15.58460426,2.019452572,-0.003121033544,15.71477699,0.06219349056,0.03716847673,0.003236933146,-0.2561658025,0.02889188007,3.590842724,0.312340796,-2.673637152
-45.03232956,-6.155153275,0.7932115793,0.002390692709,-0.005573868286,3.008773088,-15.58460426,2.019452572,-0.003121033544,15.71477699,0.06219349056,0.03716847673,0.003236933146,-0.2561658025,-0.6822541356,1,0,0.04392790794,-45.7208519,-6.072061062,0.7930610776,0.004383439851,-0.005440473109,3.023558935,-15.75427341,1.819990516,-0.003189223353,15.85897923,0.04789464548,0.05243492126,0.004884149879,-0.3791663349,0.04536403343,3.282701969,-0.3255070746,-2.800054312
-45.7208519,-6.072061062,0.7930610776,0.004383439664,-0.005440473091,3.023558855,-15.75427341,1.819990516,-0.003189223353,15.85897923,0.04789464548,0.05243492126,0.004884149879,-0.3791663349,-0.7680271864,1,0,0.05959296227,-46.64883041,-5.979115009,0.7928566337,0.008065407604,-0.00522124668,3.052009187,-15.96791363,1.446186185,-0.00341035868,16.03326607,-0.01183724217,0.06830041111,0.007920878939,-0.5142834187,0.0617852807,2.924621344,-1.002331257,-2.267332792
-46.64883041,-5.979115009,0.7928566337,0.008065407164,-0.005221246742,3.052009106,-15.96791363,1.446186185,-0.00341035868,16.03326607,-0.01183724217,0.06830041111,0.007920878939,-0.5142834187,-0.8080867529,1,0,0.04316616058,-47.36410904,-5.92601347,0.7926980257,0.01161840759,-0.00502407469,3.080316417,-16.11338043,1.077172875,-0.003670182778,16.14910316,-0.08839985728,0.0880843401,0.01252950728,-0.6843149066,0.08230985701,2.683516264,-1.773672104,-3.938999653
-47.36410904,-5.92601347,0.7926980257,0.01161840744,-0.005024074577,3.080316305,-16.11338043,1.077172875,-0.003670182778,16.14910316,-0.08839985728,0.0880843401,0.01252950728,-0.6843149066,-0.8192661405,1,0,0.04445195198,-48.0696907,-5.892192841,0.7925403714,0.01568153075,-0.004803537757,3.113672167,-16.23530006,0.6420752406,-0.004022444598,16.24689674,-0.1885878444,0.1003839448,0.01772514172,-0.8005369902,0.0914048329,2.199983835,-2.25384903,-2.61455512
-48.0696907,-5.892192841,0.7925403714,0.01568153128,-0.004803537857,3.113672256,-16.23530006,0.6420752406,-0.004022444598,16.24689674,-0.1885878444,0.1003839448,0.01772514172,-0.8005369902,-0.8160215616,1,0,0.05884385109,-49.03560257,-5.879687786,0.7923262715,0.02166335261,-0.004541515748,-3.117867493,-16.36807251,-0.01253141742,-0.004559766967,16.36376381,-0.3757701814,0.1058505774,0.02346514724,-0.9061143398,0.1016558409,1.986053944,-3.18100071,-1.794195056
-49.03560257,-5.879687786,0.7923262715,0.02166335285,-0.004541515838,-3.11786747,-16.36807251,-0.01253141742,-0.004559766967,16.36376381,-0.3757711947,0.1058505774,0.02346514724,-0.9061143398,-0.8165034056,1,0,0.04344201088,-49.74217224,-5.896303177,0.7921745181,0.02613042163,-0.00439035793,-3.076753933,-16.44060516,-0.534484148,-0.004927338101,16.44068909,-0.5318813324,0.106927909,0.02835617214,-0.9596083164,0.1028283164,1.770757794,-3.593529224,-1.231388092
-49.74217224,-5.896303177,0.7921745181,0.02613042109,-0.004390357994,-3.076753855,-16.44060516,-0.534484148,-0.004927338101,16.44068909,-0.5318813324,0.106927909,0.02835617214,-0.9596083164,-0.7717536688,0.900349021,0,0.05969715118,-50.72080994,-5.957132339,0.7919678092,0.03200627702,-0.004247784184,-3.018919452,-16.50699615,-1.275414586,-0.005343607627,16.53901482,-0.7540608048,0.09195919335,0.03085017018,-0.9082439542,0.09842774272,1.647075772,-3.721776724,0.8604156375
-50.72080994,-5.957132339,0.7919678092,0.03200627863,-0.004247784149,-3.018919468,-16.50699615,-1.275414586,-0.005343607627,16.53901482,-0.7540608048,0.09195919335,0.03085017018,-0.9082439542,-0.6738695502,0.5500929356,0,0.04421877861,-51.44262695,-6.029983521,0.7918151617,0.0359957863,-0.004173994528,-2.976022571,-16.53174591,-1.840539336,-0.005448154639,16.60901451,-0.9093060493,0.09088051319,0.03630961478,-0.9591552615,0.09022202343,1.583030939,-3.510844231,-1.151350379
-51.44262695,-6.029983521,0.7918151617,0.03599578515,-0.00417399453,-2.976022482,-16.53174591,-1.840539336,-0.005448154639,16.60901451,-0.9093060493,0.09088051319,0.03630961478,-0.9591552615,-0.5163619518,0.3006763756,0,0.04412007332,-52.1761322,-6.127978325,0.7916554809,0.03935130534,-0.004104733327,-2.936124027,-16.53596306,-2.384934187,-0.005402363837,16.67472649,-1.038996339,0.07567950338,0.03671154007,-0.8912291527,0.07605427504,1.489389539,-2.939484835,1.539573789
-52.1761322,-6.127978325,0.7916554809,0.03935130686,-0.004104733467,-2.936124086,-16.53596306,-2.384934187,-0.005402363837,16.67472649,-1.038996339,0.07567950338,0.03671154007,-0.8912291527,-0.2200111449,0.06928183138,0,0.04883527756,-52.93065643,-6.252352715,0.7914817929,0.04196759179,-0.003945350479,-2.899579546,-16.51041031,-2.904363632,-0.004984733649,16.72530746,-1.137121558,0.05016862229,0.03656597063,-0.7210567594,0.053573668,1.035746694,-2.009310246,3.484620094
-52.93065643,-6.252352715,0.7914817929,0.04196759313,-0.003945350647,-2.899579525,-16.51041031,-2.904363632,-0.004984733649,16.72530746,-1.137121558,0.05016862229,0.03656597063,-0.7210567594,-0.002847858705,0,0,0.04907393456,-53.72472382,-6.405089378,0.791238606,0.04324842703,-0.003330705826,-2.871386448,-16.39535522,-3.337490082,-0.004081381019,16.6913414,-1.160021544,0.01836314797,0.03637705743,-0.511143744,0.02610008605,-0.6921406388,-0.4666425288,4.277484894
-53.72472382,-6.405089378,0.791238606,0.04324842617,-0.00333070592,-2.871386528,-16.39535522,-3.337490082,-0.004081381019,16.6913414,-1.160021544,0.01836314797,0.03637705743,-0.511143744,0,0,0,0.06491494179,-54.52571487,-6.578839779,0.7909732461,0.04341629723,-0.002703905272,-2.852077324,-16.2618885,-3.756014109,-0.003303140402,16.65740204,-1.04287374,-0.001129527227,0.02744507976,-0.346031785,0.002586015733,-0.5228281617,1.804635406,2.543512344
-54.52571487,-6.578839779,0.7909732461,0.04341629893,-0.002703905338,-2.852077246,-16.2618885,-3.756014109,-0.003303140402,16.65740204,-1.04287374,-0.001129527227,0.02744507976,-0.346031785,0,0,0,0.04874801636,-55.57889175,-6.837960243,0.7906547189,0.04247086799,-0.002020003536,-2.835902731,-16.09064484,-4.252887249,-0.002449448686,16.62458611,-0.7867777944,-0.02083553374,0.01729086787,-0.191024825,-0.019394245,-0.6731747389,5.253463745,3.179759264
-55.57889175,-6.837960243,0.7906547189,0.04247086868,-0.002020003507,-2.835902691,-16.09064484,-4.252887249,-0.002449448686,16.62458611,-0.7867777944,-0.02083553374,0.01729086787,-0.191024825,0,0,0,0.04848790169,-56.35557938,-7.049209595,0.7904337049,0.04081328361,-0.00146901563,-2.828472908,-15.95238876,-4.550988197,-0.001967102289,16.57857132,-0.5840799212,-0.04146219045,0.01829313673,-0.1353360265,-0.03418553993,-0.948995173,4.180380344,1.148509145
-56.35557938,-7.049209595,0.7904337049,0.04081328213,-0.001469015609,-2.828472853,-15.95238876,-4.550988197,-0.001967102289,16.57857132,-0.5840799212,-0.04146219045,0.01829313673,-0.1353360265,0,0,0,0.04925203323,-57.13871384,-7.276062012,0.7902061343,0.03848702365,-0.0008785728988,-2.823796861,-15.80586052,-4.762816429,-0.001610344043,16.50265884,-0.4145888388,-0.0515829362,0.01705577411,-0.07349567115,-0.04723172635,-1.541306376,3.441301346,1.255589843
-57.13871384,-7.276062012,0.7902061343,0.03848702461,-0.0008785728714,-2.823796749,-15.80586052,-4.762816429,-0.001610344043,16.50265884,-0.4145888388,-0.0515829362,0.01705577411,-0.07349567115,0,0.1818469465,0,0.04870700836,-57.90628815,-7.508999348,0.7899592519,0.03529194012,-0.0002090924538,-2.820823324,-15.65486908,-4.914402962,-0.001206039567,16.40585899,-0.2721930444,-0.07172646374,0.01559498906,-0.04921119288,-0.06559804082,-1.987390637,2.923517466,0.49858284
-57.90628815,-7.508999348,0.7899592519,0.03529193997,-0.0002090924536,-2.820823431,-15.65486908,-4.914402962,-0.001206039567,16.40585899,-0.2721930444,-0.07172646374,0.01559498906,-0.04921119288,0,0.403347075,0,0.04870200157,-58.66861725,-7.748561859,0.7897291183,0.0316506618,0.0003035084887,-2.819058922,-15.51809216,-5.012756824,-0.001170098432,16.30680275,-0.1645046026,-0.07599140704,0.009072106332,-0.03286761045,-0.07476650178,-2.033925533,2.211170673,0.3355833888
-58.66861725,-7.748561859,0.7897291183,0.03165066242,0.000303508481,-2.819058895,-15.51809216,-5.012756824,-0.001170098432,16.30680275,-0.1645046026,-0.07599140704,0.009072106332,-0.03286761045,0,0.9075770974,0,0.04959416389,-59.43084335,-7.993713379,0.7895312905,0.0277236443,0.0007350447734,-2.818031622,-15.40751934,-5.072023392,-0.001212247298,16.22063446,-0.08990986645,-0.08391310275,0.009185585193,-0.01657062396,-0.07918307185,-1.737468362,1.504103065,0.3286069334
-59.43084335,-7.993713379,0.7895312905,0.02772364393,0.0007350447704,-2.818031549,-15.40751934,-5.072023392,-0.001212247298,16.22063446,-0.08990986645,-0.08391310275,0.009185585193,-0.01657062396,0,0.9885957241,0,0.04849386215,-60.18405533,-8.240052223,0.7893477678,0.02363062487,0.000932097213,-2.817437782,-15.33169842,-5.113994598,-0.001372925704,16.16207504,-0.03560491279,-0.08291223645,0.002422435442,-0.01006564684,-0.08440282941,-1.207563519,1.119831443,0.1341402084
-60.18405533,-8.240052223,0.7893477678,0.02363062464,0.0009320972022,-2.817437887,-15.33169842,-5.113994598,-0.001372925704,16.16207504,-0.03560491279,-0.08291223645,0.002422435442,-0.01006564684,0,0.9885957241,0,0.04843497276,-60.93397903,-8.488215446,0.7892044783,0.01977085606,0.0009028910034,-2.817057716,-15.29430866,-5.145118713,-0.001664915355,16.13654709,-0.0003287928121,-0.07733760029,-0.001711283461,-0.007942352444,-0.07968970388,-0.5270562172,0.7283191681,0.04383804277
-60.93397903,-8.488215446,0.7892044783,0.01977085695,0.0009028909844,-2.81705761,-15.29430866,-5.145118713,-0.001664915355,16.13654709,-0.0003287928121,-0.07733760029,-0.001711283461,-0.007942352444,-0.01961697638,1,0,0.04914808273,-61.67674255,-8.73636055,0.7890865803,0.01633236949,0.0007141833856,-2.81621564,-15.28493881,-5.184605598,-0.00200658571,16.14028549,0.0264967382,-0.06701280177,-0.004272923339,-0.02255951613,-0.06996177882,0.07606407255,0.5458103418,-0.2974106669
-61.67674255,-8.73636055,0.7890865803,0.0163323693,0.0007141833776,-2.816215754,-15.28493881,-5.184605598,-0.00200658571,16.14028549,0.0264967382,-0.06701280177,-0.004272923339,-0.02255951613,-0.03416948766,1,0,0.04930591583,-62.43366241,-8.991750717,0.788977921,0.01343604447,0.0004303453779,-2.814567192,-15.30022144,-5.227490902,-0.002332261065,16.16855431,0.03558982536,-0.05809473619,-0.007180974819,-0.03958697617,-0.0587419346,0.5733351111,0.1844218224,-0.3453431427
-62.43366241,-8.991750717,0.788977921,0.01343604457,0.0004303453898,-2.814567089,-15.30022144,-5.227490902,-0.002332261065,16.16855431,0.03558982536,-0.05809473619,-0.007180974819,-0.03958697617,-0.072751306,1,0,0.04889798164,-63.18055344,-9.246267319,0.7888844013,0.01109936866,8.52346035e-05,-2.811561495,-15.3231039,-5.30111599,-0.002562724287,16.21409607,0.04923150316,-0.04201012477,-0.006130931899,-0.08011732996,-0.04778675735,0.9313628674,0.2789824307,-0.8288757801
-63.18055344,-9.246267319,0.7888844013,0.01109936833,8.523460565e-05,-2.811561584,-15.3231039,-5.30111599,-0.002562724287,16.21409607,0.04923150316,-0.04201012477,-0.006130931899,-0.08011732996,-0.2209427655,1,0,0.0491912365,-63.93095016,-9.507521629,0.788787961,0.009809157984,-0.0002176765789,-2.804664167,-15.33209419,-5.447421074,-0.002814409323,16.27090263,0.07250232995,-0.01863619685,-0.003261572681,-0.1775946915,-0.02622845955,1.154810667,0.4730685353,-1.981600165
-63.93095016,-9.507521629,0.788787961,0.009809157811,-0.0002176765847,-2.804664135,-15.33209419,-5.447421074,-0.002814409323,16.27090263,0.07250232995,-0.01863619685,-0.003261572681,-0.1775946915,-0.3262476921,1,0,0.04894900322,-64.6953125,-9.783128738,0.7886837721,0.009714929024,-0.0005502701927,-2.791843857,-15.32027149,-5.66213131,-0.002704459708,16.33296013,0.06966757774,0.007420523092,-0.004795572255,-0.3190850317,-0.00192503992,1.267798901,-0.05791235715,-2.890566349
-64.6953125,-9.783128738,0.7886837721,0.009714929387,-0.000550270197,-2.791843891,-15.32027149,-5.66213131,-0.002704459708,16.33296013,0.06966757774,0.007420523092,-0.004795572255,-0.3190850317,-0.4232001603,1,0,0.04958963394,-65.44508362,-10.06744957,0.788600266,0.01074784532,-0.0008459089186,-2.772608779,-15.28593826,-5.938299656,-0.002731942805,16.39886093,0.02547086589,0.02952240407,-0.002466318663,-0.4319424033,0.02082927153,1.328922987,-0.8912489414,-2.275825977
-65.44508362,-10.06744957,0.788600266,0.01074784528,-0.000845908944,-2.772608757,-15.28593826,-5.938299656,-0.002731942805,16.39886093,0.02547086589,0.02952240407,-0.002466318663,-0.4319424033,-0.4837553203,1,0,0.04805016518,-66.18851471,-10.36643124,0.7885243297,0.01277397253,-0.001132011304,-2.7475066,-15.2263546,-6.271387577,-0.002887198003,16.46721268,-0.0557063669,0.05123616755,0.001895781141,-0.5856612921,0.04216691479,1.422508001,-1.68942678,-3.199133396
-66.18851471,-10.36643124,0.7885243297,0.01277397294,-0.001132011297,-2.747506618,-15.2263546,-6.271387577,-0.002887198003,16.46721268,-0.0557063669,0.05123616755,0.001895781141,-0.5856612921,-0.5946499109,1,0,0.06631088257,-66.92380524,-10.68164062,0.7884398699,0.01674116106,-0.001416324544,-2.705598269,-15.08205318,-6.819498062,-0.00270972983,16.55109024,-0.1877926588,0.07004051656,0.007099722046,-0.6852124333,0.05982710421,1.264914036,-1.991924763,-1.501279116
-66.92380524,-10.68164062,0.7884398699,0.0167411603,-0.001416324521,-2.705598354,-15.08205318,-6.819498062,-0.00270972983,16.55109024,-0.1877926588,0.07004051656,0.007099722046,-0.6852124333,-0.6142460108,1,0,0.04875707626,-67.9079895,-11.1429987,0.788359642,0.02040195218,-0.001623869055,-2.669276376,-14.94287968,-7.27134037,-0.002950306982,16.61498451,-0.3230127692,0.07405555248,0.01086086594,-0.7284868956,0.07508226484,1.310461521,-2.773343325,-0.8875524402
-67.9079895,-11.1429987,0.788359642,0.02040195279,-0.001623869059,-2.669276476,-14.94287968,-7.27134037,-0.002950306982,16.61498451,-0.3230127692,0.07405555248,0.01086086594,-0.7284868956,-0.6151776314,1,0,0.0493490696,-68.63485718,-11.51422691,0.7882991433,0.02423509841,-0.001831054488,-2.630079609,-14.77031994,-7.760838985,-0.003231785726,16.67869949,-0.4625424445,0.07746712863,0.01430192869,-0.7588660717,0.07767412066,1.291108012,-2.827402353,-0.6155977249
-68.63485718,-11.51422691,0.7882991433,0.02423509769,-0.001831054455,-2.630079508,-14.77031994,-7.760838985,-0.003231785726,16.67869949,-0.4625424445,0.07746712863,0.01430192869,-0.7588660717,-0.6105195284,1,0,0.04884576797,-69.35812378,-11.91221905,0.7882306576,0.02800844659,-0.002016425699,-2.589615501,-14.56278324,-8.274594307,-0.003383825533,16.73901939,-0.5905811191,0.07731468976,0.01698561385,-0.7557743788,0.07725027204,1.234905362,-2.621284962,0.0632949993
-69.35812378,-11.91221905,0.7882306576,0.0280084461,-0.002016425598,-2.589615583,-14.56278324,-8.274594307,-0.003383825533,16.73901939,-0.5905811191,0.07731468976,0.01698561385,-0.7557743788,-0.6170408726,1,0,0.04929018021,-70.06422424,-12.33244801,0.788164258,0.03182456779,-0.002199649972,-2.548045377,-14.32392216,-8.805127144,-0.003604237689,16.79873848,-0.7123273015,0.07742542028,0.02041943744,-0.7783495784,0.07742153853,1.211581826,-2.469988585,-0.4580060244
-70.06422424,-12.33244801,0.788164258,0.03182456642,-0.002199650044,-2.548045397,-14.32392216,-8.805127144,-0.003604237689,16.79873848,-0.7123273015,0.07742542028,0.02041943744,-0.7783495784,-0.5014881492,1,0,0.04804897308,-70.74938202,-12.77277565,0.7880721092,0.03525640604,-0.002029419278,-2.508202082,-14.03070068,-9.245378494,-0.003721378744,16.78126335,-0.8524964452,0.06821025908,0.03498035669,-0.7979503274,0.0714237839,-0.3636941016,-2.917214155,-0.4079327285
-70.74938202,-12.77277565,0.7880721092,0.03525640443,-0.002029419178,-2.508202076,-14.03070068,-9.245378494,-0.003721378744,16.78126335,-0.8524964452,0.06821025908,0.03498035669,-0.7979503274,-0.1650457084,1,0,0.04969596863,-71.4259491,-13.23490429,0.7879180908,0.03743749477,-0.001675246309,-2.474735246,-13.75058556,-9.588162422,-0.003283092985,16.73525429,-0.9709240198,0.03623455763,0.03137888387,-0.6055195928,0.04388867691,-0.9258108139,-2.383041859,3.872159958
-71.4259491,-13.23490429,0.7879180908,0.03743749484,-0.001675246283,-2.47473526,-13.75058556,-9.588162422,-0.003283092985,16.73525429,-0.9709240198,0.03623455763,0.03137888387,-0.6055195928,0,1,0,0.04860019684,-72.09130096,-13.71180534,0.7877495289,0.03822019612,-0.001349568382,-2.451454161,-13.49971771,-9.87888813,-0.002546981908,16.69974899,-0.976332128,0.009326230735,0.02218884975,-0.4168649018,0.01610489935,-0.7305586338,-0.1112774983,3.881767988
-72.09130096,-13.71180534,0.7877495289,0.03822019696,-0.001349568367,-2.451454163,-13.49971771,-9.87888813,-0.002546981908,16.69974899,-0.976332128,0.009326230735,0.02218884975,-0.4168649018,0,1,0,0.04912781715,-72.74938202,-14.2039032,0.7876259685,0.03814504437,-0.001608728165,-2.436164629,-13.34282684,-10.23779964,-0.002054551383,16.79612732,-0.8565660119,-0.006377523765,-0.005609047599,-0.2480941415,-0.001529736095,1.961787224,2.437847376,3.435340166
-72.74938202,-14.2039032,0.7876259685,0.03814504296,-0.001608728198,-2.436164618,-13.34282684,-10.23779964,-0.002054551383,16.79612732,-0.8565660119,-0.006377523765,-0.005609047599,-0.2480941415,0,1,0,0.04954504967,-73.40229797,-14.71281624,0.787609458,0.03734659063,-0.002292157547,-2.426666248,-13.25823212,-10.60712051,-0.001704746159,16.96546555,-0.6817144752,-0.02165051363,-0.01108001918,-0.143697679,-0.01611568406,3.417863607,3.52914238,2.107101679
-73.40229797,-14.71281624,0.787609458,0.03734659031,-0.002292157616,-2.42666626,-13.25823212,-10.60712051,-0.001704746159,16.96546555,-0.6817144752,-0.02165051363,-0.01108001918,-0.143697679,0,1,0,0.04903388023,-74.05773926,-15.24259472,0.7875862718,0.03577363781,-0.002863764362,-2.421567789,-13.21336174,-10.92637348,-0.001350676059,17.13855171,-0.4986058772,-0.03835930303,-0.01075091027,-0.0737471953,-0.03207889199,3.529930115,3.734328032,1.426574469
-74.05773926,-15.24259472,0.7875862718,0.03577363864,-0.002863764297,-2.421567678,-13.21336174,-10.92637348,-0.001350676059,17.13855171,-0.4986058772,-0.03835930303,-0.01075091027,-0.0737471953,0,1,0,0.04914999008,-74.70667267,-15.78244209,0.7875487208,0.03335109064,-0.003342507753,-2.419345626,-13.21143627,-11.19694901,-0.000770214654,17.31482697,-0.3323957324,-0.0563612245,-0.009763848037,-0.03093891963,-0.04928888008,3.586475849,3.38169241,0.8709722161
-74.70667267,-15.78244209,0.7875487208,0.03335108981,-0.00334250764,-2.419345617,-13.21143627,-11.19694901,-0.000770214654,17.31482697,-0.3323957324,-0.0563612245,-0.009763848037,-0.03093891963,0,1,0,0.04906320572,-75.35991669,-16.33696938,0.7875186205,0.03029684914,-0.003738759838,-2.418715248,-13.24993515,-11.41975117,-0.0001699363929,17.49087906,-0.2016994357,-0.06893064082,-0.008908386342,-0.005693377461,-0.06225114316,3.588271379,2.663835287,0.5145514011
-75.35991669,-16.33696938,0.7875186205,0.03029684909,-0.003738759784,-2.418715239,-13.24993515,-11.41975117,-0.0001699363929,17.49087906,-0.2016994357,-0.06893064082,-0.008908386342,-0.005693377461,0,1,0,0.0493710041,-76.00666809,-16.89359856,0.7874940038,0.02679978541,-0.00405073082,-2.418898079,-13.3203392,-11.6069355,-0.0001382138726,17.66752625,-0.1046730801,-0.07085591555,-0.005076039582,0.007082437165,-0.07083234191,3.577954054,1.965249777,0.2587716281
-76.00666809,-16.89359856,0.7874940038,0.02679978497,-0.004050730728,-2.418898106,-13.3203392,-11.6069355,-0.0001382138726,17.66752625,-0.1046730801,-0.07085591555,-0.005076039582,0.007082437165,0,1,0,0.04897093773,-76.67356873,-17.47259331,0.7874619365,0.02304628234,-0.004321813098,-2.419385305,-13.41483498,-11.76473522,0.0003676197084,17.8427906,-0.04012838006,-0.08209952712,-0.006073127035,0.01078815944,-0.07664755732,3.578946352,1.318020463,0.07567186654
-76.67356873,-17.47259331,0.7874619365,0.02304628305,-0.004321813118,-2.419385195,-13.41483498,-11.76473522,0.0003676197084,17.8427906,-0.04012838006,-0.08209952712,-0.006073127035,0.01078815944,0,1,0,0.04916191101,-77.3372879,-18.05198479,0.7874516249,0.01933442183,-0.004507898702,-2.419948802,-13.52432442,-11.90354633,0.0004208933096,18.01670837,0.001805803971,-0.07905288041,-0.00451995153,0.01107056346,-0.07550278306,3.537652731,0.8529811502,0.005744365975
