x_pos,y_pos,z_pos,roll,pitch,yaw,u_x,u_y,u_z,comp_u_x,comp_u_y,roll_mder,pitch_mder,yaw_mder,steer,throttle,brake,time_step,act_x_pos,act_y_pos,act_z_pos,act_roll,act_pitch,act_yaw,act_u_x,act_u_y,act_u_z,act_comp_u_x,act_comp_u_y,act_roll_mder,act_pitch_mder,act_yaw_mder,accel_roll,accel_x,accel_y,accel_yaw
-24.34366798,-3.175415039,0.7961344719,5.423297262e-05,-0.003173470264,-3.139627934,-1.562055349,-0.003072027816,0.01162309479,1.562058449,3.022441661e-06,-7.547079804e-06,-0.001843796112,5.17328881e-05,0,0.635191381,0,0.03308796883,-24.39577866,-3.175516844,0.7961192131,5.398110015e-05,-0.003226757408,-3.139629285,-1.652601123,-0.003247546963,0.009507008828,1.652604342,3.008335852e-06,-9.313858754e-06,-0.002057288541,8.596522093e-05,-7.6122069e-06,2.736520052,-4.263123117e-07,0.001034585526
-24.54009247,-3.175799131,0.7960246205,5.346326361e-05,-0.003316044575,-3.139633179,-1.859990478,-0.003646417521,-0.009093839675,1.859994054,1.808341608e-06,-5.407524441e-06,-0.0008350608987,4.136366624e-05,0,0.6401385665,0,0.03179001808,-24.60339355,-3.175922871,0.7962167859,5.329995137e-05,-0.003347754287,-3.139634513,-1.949465632,-0.003818308935,0.009318721481,1.949469447,1.163957108e-06,-5.734374099e-06,-0.001054655877,4.146471474e-05,-5.137217613e-06,2.814575195,-2.027002665e-05,3.178623501e-06
-24.70212364,-3.176115751,0.7964243293,5.30768848e-05,-0.003379106522,-3.139637232,-2.073952198,-0.004056375474,-0.01909274049,2.073956251,9.191398362e-07,-4.887686828e-06,-0.0005118007539,2.159626092e-05,0,0.6419696808,0,0.03260087967,-24.7714138,-3.176250935,0.7959125638,5.295924276e-05,-0.003397345308,-3.139639403,-2.159509659,-0.004219841678,0.01600673981,2.159513712,1.718026169e-06,-3.786969955e-06,-0.0006585376686,5.294919174e-05,-3.608553925e-06,2.624391079,2.450505417e-05,0.0009617204196
-24.91830254,-3.176536798,0.7960358262,5.271152622e-05,-0.003418445587,-3.139643192,-2.324389696,-0.00453303894,-0.007825007662,2.324393988,1.725527341e-06,-3.986944648e-06,-0.0001942345552,7.629949687e-05,0,0.644636035,0,0.03363990784,-24.99575806,-3.176687479,0.7962197661,5.259216824e-05,-0.003429532273,-3.139644713,-2.414250135,-0.004704042338,0.007464317605,2.414254665,1.002878093e-06,-4.074778644e-06,-0.0003236950142,2.366661829e-05,-3.548106861e-06,2.671252251,-2.148190288e-05,-0.00156459643
-25.16145706,-3.177009583,0.796248436,5.243626219e-05,-0.003433942795,-3.139647484,-2.576862097,-0.005010712426,-0.0156960655,2.576866865,-1.728354846e-06,0,-0,0,0,0.6527314782,0,0.03334093094,-25.2455616,-3.177172899,0.7958633304,5.233498699e-05,-0.003430724188,-3.139649602,-2.664461851,-0.005175671075,0.0130913835,2.664466858,-1.448997295e-06,0,-0,0,-3.037563602e-06,2.627400875,8.378816347e-06,-0
-25.2455616,-3.177172899,0.7958633304,5.233498814e-05,-0.003430724144,-3.13964963,-2.664461851,-0.005175671075,0.0130913835,2.664466858,-1.448997295e-06,0,-0,0,0,0.6505148411,0,0.0193529129,-25.29654694,-3.177271605,0.7961602807,5.226975515e-05,-0.003430604688,-3.13965095,-2.699169874,-0.005240379367,-0.004857826512,2.699174881,-3.181158945e-07,-3.668308864e-06,6.28299631e-06,7.485796232e-05,-3.370706281e-06,1.793426275,5.843468534e-05,0.003868046217
-25.33465767,-3.177345514,0.7960914373,5.226975554e-05,-0.003430604702,-3.13965106,-2.746750832,-0.005330092274,0.008303278126,2.746755838,-2.988201686e-06,0,-0,0,0,0.6527314782,0,0.01711511612,-25.38692093,-3.177446604,0.7962799668,5.220802245e-05,-0.003428340021,-3.139653226,-2.782806396,-0.005397354718,-0.01041518431,2.782811642,2.401616541e-07,-4.086630724e-06,0.0001332002721,0.000133254478,-3.60693366e-06,2.106664181,0.0001886264363,0.007785777096
-25.42789078,-3.177525759,0.7961263061,5.220802268e-05,-0.003428339958,-3.139653206,-2.825078964,-0.005477196537,0.009489445016,2.825084209,-1.903557632e-06,0,-0,0,0,0.6550123096,0,0.03227591515,-25.52460098,-3.177713156,0.796416223,5.215187662e-05,-0.003426909401,-3.139654912,-2.911020994,-0.005638491362,0.001850173925,2.911026478,-2.430386758e-06,0,-0,0,-1.739565278e-06,2.662736893,-1.632267049e-05,-0
-25.52460098,-3.177713156,0.796416223,5.215187775e-05,-0.003426909447,-3.139654875,-2.911020994,-0.005638491362,0.001850173925,2.911026478,-2.430386758e-06,0,-0,0,0,0.6527314782,0,0.017111063,-25.57600212,-3.177812815,0.7964575291,5.206943443e-05,-0.003422260131,-3.139657019,-2.946493387,-0.005704548676,-0.01560794283,2.946498871,1.21168398e-06,-5.250079084e-06,0.0002731381101,0.0001190764233,-4.818130037e-06,2.073067665,0.000212848885,0.006959031336
-25.61894226,-3.177895784,0.7962296009,5.206943388e-05,-0.003422260052,-3.139657021,-2.988544464,-0.005783480126,0.005841415841,2.988550186,-1.252414791e-06,0,-0,0,0,0.6545625925,0,0.01482319832,-25.66963387,-3.177993298,0.7963464856,5.201005212e-05,-0.003418445712,-3.139659126,-3.034764051,-0.005869293585,0.001258054399,3.034769773,1.608677394e-06,-4.50004336e-06,0.0002573313832,0.0001447656832,-4.006001745e-06,3.118057728,0.0001930144936,0.009766156785
-25.66963387,-3.177993298,0.7963464856,5.201005115e-05,-0.00341844582,-3.139659166,-3.034764051,-0.005869293585,0.001258054399,3.034769773,1.608677394e-06,-4.50004336e-06,0.0002573313832,0.0001447656832,0,0.6545625925,0,0.01633691788,-25.72661591,-3.178103685,0.7963773012,5.198450314e-05,-0.003414511401,-3.139659969,-3.070672035,-0.005935318768,-0.01568868756,3.070677757,4.024668385e-07,-1.710096967e-06,0.0002397845674,4.360723688e-05,-1.563820433e-06,2.197965622,-7.383342017e-05,-0.006192015484
-25.72661591,-3.178103685,0.7963773012,5.198450162e-05,-0.003414511448,-3.139659882,-3.070672035,-0.005935318768,-0.01568868756,3.070677757,4.024668385e-07,-1.710096967e-06,0.0002397845674,4.360723688e-05,0,0.6599595547,0,0.03263616562,-25.82316017,-3.178289652,0.7958729863,5.19515339e-05,-0.00340950474,-3.139661065,-3.152131796,-0.006086403504,0.01257983223,3.152137756,-2.198491529e-06,0,-0,0,-1.010159281e-06,2.496003866,-7.969558646e-05,-0.001336163026
-25.82316017,-3.178289652,0.7958729863,5.195153426e-05,-0.003409504658,-3.139661074,-3.152131796,-0.006086403504,0.01257983223,3.152137756,-2.198491529e-06,0,-0,0,0,0.7112627625,0,0.01673483849,-25.87653923,-3.178392172,0.7961205244,5.18923124e-05,-0.003403424991,-3.139663256,-3.189664841,-0.006155295763,-0.01289056148,3.189670801,1.039887252e-06,-3.973329513e-06,0.0003657531051,0.0001219474216,-3.538836609e-06,2.242808819,0.0001935111941,0.007287038956
-25.92622948,-3.178487778,0.7959191203,5.186527778e-05,-0.003400444752,-3.139664412,-3.230489492,-0.006230816245,-0.01252288464,3.230495453,1.642844268e-06,-1.760133614e-06,0.0001667222095,7.335620467e-05,0,0.7598996162,0,0.01633810997,-25.97992325,-3.178591251,0.7957105637,5.183593045e-05,-0.003403425022,-3.139665532,-3.275871754,-0.006314503495,0.0148013616,3.275877953,1.727151471e-06,-2.007089961e-06,-0.0001813431882,6.526744983e-05,-1.796250217e-06,2.777708054,5.160156434e-06,-0.0004950850853
-25.97992325,-3.178591251,0.7957105637,5.183593021e-05,-0.003403424984,-3.139665604,-3.275871754,-0.006314503495,0.0148013616,3.275877953,1.727151471e-06,-2.007089961e-06,-0.0001813431882,6.526744983e-05,0,0.7788211107,0,0.01640105247,-26.03828621,-3.178703547,0.7960191965,5.17979036e-05,-0.003407001172,-3.139666881,-3.317342997,-0.006389954593,-0.01409028098,3.317349195,1.215583325e-06,-2.587110885e-06,-0.0002175082627,7.974498294e-05,-2.318546876e-06,2.528572083,-3.1191179e-05,0.0008827197598
-26.03828621,-3.178703547,0.7960191965,5.179790242e-05,-0.003407001263,-3.139666796,-3.317342997,-0.006389954593,-0.01409028098,3.317349195,1.215583325e-06,-2.587110885e-06,-0.0002175082627,7.974498294e-05,0,0.8049063683,0,0.03406882286,-26.14805794,-3.178914309,0.7956442833,5.170404354e-05,-0.003427147817,-3.139669831,-3.405950785,-0.006552910432,0.01710758917,3.405956984,4.081765383e-06,-3.246923825e-06,-0.0007891912828,0.0001208289177,-2.754978595e-06,2.600846767,8.412917668e-05,0.001205909997
-26.14805794,-3.178914309,0.7956442833,5.170404256e-05,-0.003427147865,-3.139669895,-3.405950785,-0.006552910432,0.01710758917,3.405956984,4.081765383e-06,-3.246923825e-06,-0.0007891912828,0.0001208289177,0,0.8247273564,0,0.01705503464,-26.20638657,-3.179026127,0.7959865332,5.166287097e-05,-0.003444075422,-3.139671433,-3.4515028,-0.006636045873,0.01009610388,3.451509237,4.568999429e-06,-2.756509957e-06,-0.0009937192081,9.792259516e-05,-2.414043138e-06,2.670897722,2.85683418e-05,-0.001343082753
-26.20638657,-3.179026127,0.7959865332,5.166287156e-05,-0.003444075352,-3.139671326,-3.4515028,-0.006636045873,0.01009610388,3.451509237,4.568999429e-06,-2.756509957e-06,-0.0009937192081,9.792259516e-05,0,0.8598397374,0,0.01598620415,-26.26407433,-3.179136992,0.7961863279,5.161818038e-05,-0.003465533202,-3.139672361,-3.498845816,-0.006722314749,0.005238429643,3.498852253,3.213073114e-06,-2.948131169e-06,-0.001329168212,5.161916852e-05,-2.795608907e-06,2.961492062,-8.481853001e-05,-0.002896461636
-26.26407433,-3.179136992,0.7961863279,5.161817899e-05,-0.003465533257,-3.139672279,-3.498845816,-0.006722314749,0.005238429643,3.498852253,3.213073114e-06,-2.948131169e-06,-0.001329168212,5.161916852e-05,0,0.8805280328,0,0.01642179489,-26.32348633,-3.179250717,0.7962952852,5.159004795e-05,-0.003489136474,-3.139674132,-3.543884277,-0.006803496741,-0.01988899335,3.543890715,4.663689197e-06,-2.067044761e-06,-0.001440229244,0.0001017611066,-1.713030315e-06,2.742602825,8.833480388e-05,0.003053377382
-26.32348633,-3.179250717,0.7962952852,5.15900465e-05,-0.003489136463,-3.139674187,-3.543884277,-0.006803496741,-0.01988899335,3.543890715,4.663689197e-06,-2.067044761e-06,-0.001440229244,0.0001017611066,0,0.9066454768,0,0.0169301033,-26.38071632,-3.17936039,0.7959774733,5.154488264e-05,-0.003516793269,-3.139675144,-3.591173649,-0.00688896561,-0.01367167477,3.591180325,2.834173301e-06,-2.898249022e-06,-0.001634145388,6.330775068e-05,-2.66766574e-06,2.793226242,-0.0001080628936,-0.002271300647
-26.38071632,-3.17936039,0.7959774733,5.154488099e-05,-0.003516793251,-3.13967514,-3.591173649,-0.00688896561,-0.01367167477,3.591180325,2.834173301e-06,-2.898249022e-06,-0.001634145388,6.330775068e-05,0,0.9066454768,0,0.03283405304,-26.5010376,-3.179590702,0.7960410714,5.148248917e-05,-0.003592371865,-3.13967818,-3.697078705,-0.007079959847,0.006790959742,3.697085381,2.212716254e-06,-2.884714604e-06,-0.002844417933,0.0001139559608,-1.900216944e-06,3.225464106,-1.892721048e-05,0.001542551327
-26.5010376,-3.179590702,0.7960410714,5.148248965e-05,-0.003592371941,-3.13967824,-3.697078705,-0.007079959847,0.006790959742,3.697085381,2.212716254e-06,-2.884714604e-06,-0.002844417933,0.0001139559608,0,0.9165720344,0,0.01737594604,-26.56755829,-3.179717541,0.7961921692,5.146043637e-05,-0.003629088728,-3.139679951,-3.741826296,-0.007159885019,-0.01219112333,3.741832972,2.71723502e-06,-1.629753342e-06,-0.002124621766,9.646291437e-05,-1.26918485e-06,2.575260639,2.903547102e-05,-0.001006739214
-26.56755829,-3.179717541,0.7961921692,5.146043623e-05,-0.003629088635,-3.139679909,-3.741826296,-0.007159885019,-0.01219112333,3.741832972,2.71723502e-06,-1.629753342e-06,-0.002124621766,9.646291437e-05,0,0.9345618486,0,0.01618790627,-26.62231064,-3.179822206,0.7960191369,5.140711885e-05,-0.003675699033,-3.139681554,-3.797000647,-0.007259567268,0.007764707785,3.797007561,3.201838354e-06,-3.615523838e-06,-0.002834730316,0.0001013532165,-3.2936548e-06,3.408383369,2.993613452e-05,0.0003020960139
-26.62231064,-3.179822206,0.7960191369,5.140711801e-05,-0.003675699001,-3.139681578,-3.797000647,-0.007259567268,0.007764707785,3.797007561,3.201838354e-06,-3.615523838e-06,-0.002834730316,0.0001013532165,0,0.9624782801,0,0.0164911747,-26.68772316,-3.179947138,0.7961834669,5.132677657e-05,-0.00372147509,-3.139683915,-3.848726988,-0.007351531647,-0.01920814253,3.848733902,5.48922344e-06,-5.411045549e-06,-0.002791137202,0.0001379585738,-4.871783858e-06,3.136607409,0.0001387035882,0.002219693735
-26.68772316,-3.179947138,0.7961834669,5.132677688e-05,-0.003721475136,-3.139683962,-3.848726988,-0.007351531647,-0.01920814253,3.848733902,5.48922344e-06,-5.411045549e-06,-0.002791137202,0.0001379585738,0,1,0,0.01682090759,-26.75103951,-3.180067778,0.7958740592,5.127954345e-05,-0.003768681893,-3.13968459,-3.90192914,-0.007446957286,-0.01194080897,3.901936054,2.159118367e-06,-2.98482405e-06,-0.002820701338,4.25935541e-05,-2.80801919e-06,3.162858486,-0.0001979741646,-0.005669433624
-26.75103951,-3.180067778,0.7958740592,5.1279545e-05,-0.003768681781,-3.139684677,-3.90192914,-0.007446957286,-0.01194080897,3.901936054,2.159118367e-06,-2.98482405e-06,-0.002820701338,4.25935541e-05,0,1,0,0.03288698196,-26.88111115,-3.180315495,0.7959931493,5.119096688e-05,-0.003872513623,-3.139688217,-4.012481213,-0.007642342243,-0.01439345349,4.012488365,9.632975662e-07,-3.357789183e-06,-0.00312586478,5.719378896e-05,-2.693410124e-06,3.361582756,-3.636152542e-05,0.0004439518088
-26.88111115,-3.180315495,0.7959931493,5.11909675e-05,-0.003872513538,-3.139688253,-4.012481213,-0.007642342243,-0.01439345349,4.012488365,9.632975662e-07,-3.357789183e-06,-0.00312586478,5.719378896e-05,0,1,0,0.01712489128,-26.94678879,-3.180440187,0.7957650423,5.115106688e-05,-0.003926038444,-3.139691253,-4.069292545,-0.007742654998,-0.01018864848,4.069300175,5.69696067e-06,-3.022985311e-06,-0.003134304192,0.0001743551984,-2.329977633e-06,3.317498922,0.0002764200326,0.006841585506
-26.94678879,-3.180440187,0.7957650423,5.115106615e-05,-0.003926038276,-3.139691353,-4.069292545,-0.007742654998,-0.01018864848,4.069300175,5.69696067e-06,-3.022985311e-06,-0.003134304192,0.0001743551984,0,1,0,0.01608419418,-27.01448822,-3.180568695,0.7956033945,5.111350895e-05,-0.003985523786,-3.139692687,-4.129899025,-0.007850203663,0.01716139913,4.129906654,3.922227734e-06,-2.664782414e-06,-0.003661505412,8.786427497e-05,-2.335037607e-06,3.768076897,-0.000110340181,-0.005377386231
-27.01448822,-3.180568695,0.7956033945,5.111350765e-05,-0.003985523712,-3.139692783,-4.129899025,-0.007850203663,0.01716139913,4.129906654,3.922227734e-06,-2.664782414e-06,-0.003661505412,8.786427497e-05,0,1,0,0.01867389679,-27.08479881,-3.180702448,0.7959511876,5.107077791e-05,-0.004041194833,-3.13969429,-4.186108112,-0.007947727107,-0.01263928041,4.186115742,6.438660307e-07,-2.699654488e-06,-0.003076239023,8.547542529e-05,-2.28820727e-06,3.010035276,-0.0001755585108,-0.000127924548
-27.08479881,-3.180702448,0.7959511876,5.107077959e-05,-0.004041194916,-3.139694214,-4.186108112,-0.007947727107,-0.01263928041,4.186115742,6.438660307e-07,-2.699654488e-06,-0.003076239023,8.547542529e-05,0,1,0,0.01421713829,-27.15284348,-3.180831194,0.7957540751,5.090897669e-05,-0.004106521147,-3.139697241,-4.252073765,-0.008065612055,0.01273456682,4.252081394,6.475920145e-06,-1.19081169e-05,-0.004457054194,0.0002112398943,-1.138083462e-05,4.639868736,0.0004102129606,0.008845976554
-27.15284348,-3.180831194,0.7957540751,5.090897685e-05,-0.004106521141,-3.139697313,-4.252073765,-0.008065612055,0.01273456682,4.252081394,6.475920145e-06,-1.19081169e-05,-0.004457054194,0.0002112398943,0,1,0,0.03613471985,-27.22953987,-3.180976152,0.7960339785,5.051271184e-05,-0.004158257886,-3.139698422,-4.304405212,-0.008160067722,-0.008364176378,4.304412842,6.876829502e-06,-2.255645268e-05,-0.002910509007,6.020803266e-05,-1.096632241e-05,1.448231697,1.109485129e-05,-0.004179688171
-27.22953987,-3.180976152,0.7960339785,5.051271364e-05,-0.004158257972,-3.139698505,-4.304405212,-0.008160067722,-0.008364176378,4.304412842,6.876829502e-06,-2.255645268e-05,-0.002910509007,6.020803266e-05,0,1,0,0.01511716843,-27.37010765,-3.181241274,0.7961264849,4.983418873e-05,-0.00428831604,-3.139703397,-4.438870907,-0.008399762213,0.004320197273,4.438879013,1.409759261e-05,-2.15877335e-05,-0.004344575573,0.000156910377,-4.488439299e-05,8.89493084,0.0004776531423,0.006396855693
-27.37010765,-3.181241274,0.7961264849,4.983418694e-05,-0.004288316239,-3.139703512,-4.438870907,-0.008399762213,0.004320197273,4.438879013,1.409759261e-05,-2.15877335e-05,-0.004344575573,0.000156910377,0,1,0,0.01697802544,-27.45111847,-3.181393862,0.7962321043,4.95988823e-05,-0.004339695134,-3.139705336,-4.494544506,-0.008495032787,-0.01567450911,4.494552612,1.276542389e-05,-1.441610129e-05,-0.003049239749,0.0001059686547,-1.385936412e-05,3.279156208,-7.846429071e-05,-0.003000450321
-27.45111847,-3.181393862,0.7962321043,4.959888247e-05,-0.004339694977,-3.13970542,-4.494544506,-0.008495032787,-0.01567450911,4.494552612,1.276542389e-05,-1.441610129e-05,-0.003049239749,0.0001059686547,0,1,0,0.01495313644,-27.51935005,-3.181522369,0.7960017323,4.937667804e-05,-0.004397987839,-3.139708287,-4.558970928,-0.008606474847,0.008038558997,4.558979034,1.566294304e-05,-1.5535079e-05,-0.003837600118,0.0002038570965,-1.486005567e-05,4.308555603,0.0001937733323,0.006546348333
-27.51935005,-3.181522369,0.7960017323,4.937667836e-05,-0.004397987854,-3.139708281,-4.558970928,-0.008606474847,0.008038558997,4.558979034,1.566294304e-05,-1.5535079e-05,-0.003837600118,0.0002038570965,0,1,0,0.01977682114,-27.59593773,-3.181666613,0.7961690426,4.919569497e-05,-0.004446624988,-3.139710143,-4.615236282,-0.008701162413,-0.01468724292,4.615244389,1.312835411e-05,-9.614505871e-06,-0.002476201393,9.091306129e-05,-9.151288396e-06,2.845015049,-0.000128159576,-0.005710929632
-27.59593773,-3.181666613,0.7961690426,4.919569619e-05,-0.004446624778,-3.139710188,-4.615236282,-0.008701162413,-0.01468724292,4.615244389,1.312835411e-05,-9.614505871e-06,-0.002476201393,9.091306129e-05,0,1,0,0.03043103218,-27.75788689,-3.181970835,0.7960973978,4.881766805e-05,-0.004556417282,-3.139714949,-4.748720646,-0.008927599527,-0.0141208563,4.748728752,1.092859839e-05,-1.162494664e-05,-0.002985336119,0.0001337594877,-1.242245526e-05,4.386455536,-7.228659524e-05,0.001407984644
-27.75788689,-3.181970835,0.7960973978,4.881766654e-05,-0.004556417465,-3.139714956,-4.748720646,-0.008927599527,-0.0141208563,4.748728752,1.092859839e-05,-1.162494664e-05,-0.002985336119,0.0001337594877,0,1,0,0.01679301262,-27.83098412,-3.182107449,0.7958865166,4.864661457e-05,-0.004599689739,-3.139717226,-4.806591511,-0.009025603533,-0.008276182227,4.806599617,1.172832981e-05,-1.083411735e-05,-0.002582472516,0.0001350433449,-1.018590137e-05,3.446127653,4.762286699e-05,7.645186997e-05
-27.83098412,-3.182107449,0.7958865166,4.864661605e-05,-0.004599689972,-3.13971734,-4.806591511,-0.009025603533,-0.008276182227,4.806599617,1.172832981e-05,-1.083411735e-05,-0.002582472516,0.0001350433449,0,1,0,0.01872897148,-27.9037571,-3.182243824,0.7957674265,4.84969274e-05,-0.004649996219,-3.139720008,-4.872231007,-0.009137067944,0.01248827204,4.87223959,1.287648138e-05,-8.732044989e-06,-0.002694885945,0.0001531323069,-7.992358405e-06,3.504729271,6.130350084e-05,0.0009658278432
-27.9037571,-3.182243824,0.7957674265,4.849692777e-05,-0.004649996292,-3.139719963,-4.872231007,-0.009137067944,0.01248827204,4.87223959,1.287648138e-05,-8.732044989e-06,-0.002694885945,0.0001531323069,0,1,0,0.01481890678,-27.98515892,-3.182396173,0.7960179448,4.8354438e-05,-0.004703878784,-3.139723296,-4.944861412,-0.009258585051,0.00486913044,4.944869995,1.488443922e-05,-1.0582301e-05,-0.003625120735,0.0002083446598,-9.615404451e-06,4.901198387,0.0001354997221,0.003725804621
-27.98515892,-3.182396173,0.7960179448,4.835443906e-05,-0.004703878891,-3.139723301,-4.944861412,-0.009258585051,0.00486913044,4.944869995,1.488443922e-05,-1.0582301e-05,-0.003625120735,0.0002083446598,0,1,0,0.01615524292,-28.07715988,-3.182567596,0.7961360216,4.825528945e-05,-0.004741667888,-3.139724983,-5.001665115,-0.009352568537,-0.01377989817,5.001674175,1.102909846e-05,-6.607491287e-06,-0.002324361587,0.0001098719149,-6.137302535e-06,3.516145229,-0.0002386433189,-0.006095404737
-28.07715988,-3.182567596,0.7961360216,4.825528958e-05,-0.00474166777,-3.13972497,-5.001665115,-0.009352568537,-0.01377989817,5.001674175,1.102909846e-05,-6.607491287e-06,-0.002324361587,0.0001098719149,0,1,0,0.03372597694,-28.2340107,-3.182860374,0.7963408232,4.801913051e-05,-0.004871128988,-3.13973038,-5.144697189,-0.009592364542,0.005592008121,5.144706249,1.189776503e-05,-9.333318303e-06,-0.002999745309,0.0001646782766,-7.002290204e-06,4.241005898,2.575660255e-05,0.001625048928
-28.2340107,-3.182860374,0.7963408232,4.801913019e-05,-0.004871129058,-3.139730453,-5.144697189,-0.009592364542,0.005592008121,5.144706249,1.189776503e-05,-9.333318303e-06,-0.002999745309,0.0001646782766,0,1,0,0.01823997498,-28.3326931,-3.183043718,0.7964911461,4.791184829e-05,-0.00491225652,-3.139732656,-5.201972961,-0.009687596001,0.00284761237,5.201982021,1.163239358e-05,-6.613434834e-06,-0.002296220046,0.0001263451995,-5.881690868e-06,3.140123367,-1.454889389e-05,-0.002101596911
-28.3326931,-3.183043718,0.7964911461,4.791184983e-05,-0.004912256729,-3.139732599,-5.201972961,-0.009687596001,0.00284761237,5.201982021,1.163239358e-05,-6.613434834e-06,-0.002296220046,0.0001263451995,0,1,0,0.01556396484,-28.40796661,-3.183183432,0.7965382934,4.777724456e-05,-0.00494885368,-3.13973586,-5.273594379,-0.009806419723,-0.0003216741607,5.273603439,1.483877713e-05,-9.531942851e-06,-0.002314335899,0.0002034244535,-8.648520634e-06,4.601746559,0.0002060132829,0.004952417687
-28.40796661,-3.183183432,0.7965382934,4.777724462e-05,-0.004948853515,-3.139735937,-5.273594379,-0.009806419723,-0.0003216741607,5.273603439,1.483877713e-05,-9.531942851e-06,-0.002314335899,0.0002034244535,0,1,0,0.01795697212,-28.5021286,-3.183358192,0.7965454459,4.766541423e-05,-0.004995227072,-3.139738642,-5.337402821,-0.00991229061,-0.001230007154,5.33741188,1.62332617e-05,-7.086096957e-06,-0.00260718097,0.0001607243612,-6.227686299e-06,3.553407669,7.765700138e-05,-0.002377911704
-28.5021286,-3.183358192,0.7965454459,4.766541315e-05,-0.00499522686,-3.13973856,-5.337402821,-0.00991229061,-0.001230007154,5.33741188,1.62332617e-05,-7.086096957e-06,-0.00260718097,0.0001607243612,0,1,0,0.01651287079,-28.58656502,-3.183514595,0.7965326309,4.75635104e-05,-0.005025624455,-3.13974193,-5.408642292,-0.01002901979,-0.00164604804,5.408651352,1.893093577e-05,-7.18213596e-06,-0.001847788924,0.0001955688786,-6.171110272e-06,4.314178467,0.000163367964,0.002110142959
-28.58656502,-3.183514595,0.7965326309,4.756350972e-05,-0.005025624298,-3.139741898,-5.408642292,-0.01002901979,-0.00164604804,5.408651352,1.893093577e-05,-7.18213596e-06,-0.001847788924,0.0001955688786,0,1,0,0.03191518784,-28.77255058,-3.183858156,0.7964807749,4.738633342e-05,-0.005103468669,-3.139747242,-5.541007042,-0.01024498045,-0.00205561379,5.541016579,1.898025221e-05,-5.678451089e-06,-0.002299280372,0.0001808149827,-5.551472896e-06,4.147405624,1.545234227e-06,-0.0004622844863
-28.77255058,-3.183858156,0.7964807749,4.738633288e-05,-0.005103468895,-3.139747143,-5.541007042,-0.01024498045,-0.00205561379,5.541016579,1.898025221e-05,-5.678451089e-06,-0.002299280372,0.0001808149827,0,1,0,0.01696491241,-28.86318588,-3.184025526,0.7964523435,4.729908599e-05,-0.005127667942,-3.139749855,-5.603512287,-0.010345608,-0.001964763738,5.603521824,1.894999332e-05,-5.8853675e-06,-0.001418910804,0.0001467112888,-5.14278463e-06,3.684383631,-1.783615971e-06,-0.002010248834
-28.86318588,-3.184025526,0.7964523435,4.729908687e-05,-0.005127667915,-3.139749765,-5.603512287,-0.010345608,-0.001964763738,5.603521824,1.894999332e-05,-5.8853675e-06,-0.001418910804,0.0001467112888,0,1,0,0.01647186279,-28.95180893,-3.184188366,0.7964246273,4.720196118e-05,-0.005150436995,-3.13975289,-5.673007011,-0.01045777556,-0.001727872295,5.673016548,2.062958447e-05,-6.862313967e-06,-0.001384943957,0.0001884611847,-5.896460607e-06,4.218996048,0.0001019672854,0.002534619067
-28.95180893,-3.184188366,0.7964246273,4.720196011e-05,-0.005150436889,-3.139752865,-5.673007011,-0.01045777556,-0.001727872295,5.673016548,2.062958447e-05,-6.862313967e-06,-0.001384943957,0.0001884611847,0,1,0,0.01707911491,-29.04829025,-3.184365988,0.7963991165,4.709670508e-05,-0.00518619932,-3.139755588,-5.740068436,-0.01056573167,-0.002034720499,5.740078449,2.026066795e-05,-7.008709417e-06,-0.002094271127,0.0001604594145,-6.162792033e-06,3.926544189,-2.160044642e-05,-0.001639532857
-29.04829025,-3.184365988,0.7963991165,4.709670611e-05,-0.005186199211,-3.139755487,-5.740068436,-0.01056573167,-0.002034720499,5.740078449,2.026066795e-05,-7.008709417e-06,-0.002094271127,0.0001604594145,0,1,0,0.01713991165,-29.14267921,-3.18453908,0.7963708043,4.700234988e-05,-0.00520455757,-3.139758707,-5.808843136,-0.01067514066,-0.001679086359,5.808853149,2.270809455e-05,-6.449698049e-06,-0.001072258339,0.0001809809619,-5.505059562e-06,4.012547016,0.0001427910902,0.001197295962
-29.14267921,-3.18453908,0.7963708043,4.700235149e-05,-0.005204557441,-3.139758825,-5.808843136,-0.01067514066,-0.001679086359,5.808853149,2.270809455e-05,-6.449698049e-06,-0.001072258339,0.0001809809619,0,1,0,0.03270292282,-29.34194756,-3.184904337,0.7963190079,4.683537e-05,-0.005248546711,-3.139764777,-5.946163654,-0.0108922217,-0.001697159256,5.946173668,2.3408571e-05,-6.012342965e-06,-0.001393437618,0.0002171819942,-5.106011031e-06,4.199028969,2.141938421e-05,0.001106966287
-29.34194756,-3.184904337,0.7963190079,4.683536827e-05,-0.0052485466,-3.139764786,-5.946163654,-0.0108922217,-0.001697159256,5.946173668,2.3408571e-05,-6.012342965e-06,-0.001393437618,0.0002171819942,0,1,0,0.01838827133,-29.4415493,-3.185086489,0.7962937951,4.672787939e-05,-0.005275964181,-3.13976798,-6.010690212,-0.01099380199,-0.00187696144,6.010700226,2.567251795e-05,-6.783729532e-06,-0.001501064748,0.0001696092804,-5.845512987e-06,3.509114981,0.000123119069,-0.00258712261
-29.4415493,-3.185086489,0.7962937951,4.672788054e-05,-0.005275964271,-3.139767885,-6.010690212,-0.01099380199,-0.00187696144,6.010700226,2.567251795e-05,-6.783729532e-06,-0.001501064748,0.0001696092804,0,1,0,0.01507091522,-29.53721428,-3.185260773,0.7962679267,4.620545011e-05,-0.00529444152,-3.139771098,-6.084777832,-0.01111212,-0.001624350087,6.084787846,2.765707904e-05,-3.545558866e-05,-0.001214730437,0.0002115534007,-3.466481212e-05,4.915933609,0.0001316815178,0.002783116885
-29.53721428,-3.185260773,0.7962679267,4.62054486e-05,-0.005294441711,-3.139770985,-6.084777832,-0.01111212,-0.001624350087,6.084787846,2.765707904e-05,-3.545558866e-05,-0.001214730437,0.0002115534007,0,1,0,0.02005696297,-29.64803314,-3.185462475,0.7962411046,4.56956341e-05,-0.005316257235,-3.139774385,-6.146521091,-0.01121489611,-0.001809178735,6.146531105,3.847352491e-05,-2.683753883e-05,-0.001109614735,0.0001697192056,-2.541833055e-05,3.078395128,0.0005392863532,-0.002085769083
-29.64803314,-3.185462475,0.7962411046,4.569563316e-05,-0.005316257011,-3.139774323,-6.146521091,-0.01121489611,-0.001809178735,6.146531105,3.847352491e-05,-2.683753883e-05,-0.001109614735,0.0001697192056,0,1,0,0.0127260685,-29.74153709,-3.185632467,0.7962165475,4.517595817e-05,-0.005336164601,-3.13977725,-6.226348877,-0.01134124491,-0.001682516653,6.226358891,3.748259041e-05,-4.078352504e-05,-0.001519538229,0.0002092096838,-4.083547174e-05,6.272776604,-7.786650531e-05,0.003103116993
-29.74153709,-3.185632467,0.7962165475,4.51759588e-05,-0.005336164497,-3.139777184,-6.226348877,-0.01134124491,-0.001682516653,6.226358891,3.748259041e-05,-4.078352504e-05,-0.001519538229,0.0002092096838,0,1,0,0.03371691704,-29.94585419,-3.186002731,0.7961658239,4.450054467e-05,-0.00536751705,-3.139783655,-6.349178314,-0.01152942888,-0.001655722852,6.349188805,4.35447364e-05,-2.306631359e-05,-0.0009533278062,0.0001949576399,-2.003190639e-05,3.642975807,0.0001797953882,-0.0004226971359
-29.94585419,-3.186002731,0.7961658239,4.450054621e-05,-0.005367517006,-3.139783621,-6.349178314,-0.01152942888,-0.001655722852,6.349188805,4.35447364e-05,-2.306631359e-05,-0.0009533278062,0.0001949576399,-0.06343512982,1,0,0.01783013344,-30.05434418,-3.186199188,0.7961398363,0.0001311875714,-0.005383014251,-3.139324823,-6.41476059,-0.03806523234,-0.001797722653,6.414830685,0.0235180743,0.005051108543,-0.0008745910018,-0.02600132488,0.004861827008,3.681513786,1.316565037,-1.469214082
-30.05434418,-3.186199188,0.7961398363,0.0001311875676,-0.005383014213,-3.139324903,-6.41476059,-0.03806523234,-0.001797722653,6.414830685,0.0235180743,0.005051108543,-0.0008745910018,-0.02600132488,-0.1286804825,1,0,0.01581192017,-30.16023445,-3.186951637,0.796112597,0.0002989340248,-0.005386232785,-3.138297899,-6.483188152,-0.07834904641,-0.001607686281,6.483411312,0.05698747933,0.01091466658,-0.0001833796268,-0.0646738708,0.01060886029,4.337273598,2.116719723,-2.44578433
-30.16023445,-3.186951637,0.796112597,0.0002989340283,-0.005386232864,-3.138297796,-6.483188152,-0.07834904641,-0.001607686281,6.483411312,0.05698747933,0.01091466658,-0.0001833796268,-0.0646738708,-0.188304022,1,0,0.01645898819,-30.27436638,-3.188406706,0.7960849404,0.0006240856274,-0.005372047238,-3.136336148,-6.540878296,-0.13270244,-0.00172015524,6.54148531,0.09831821173,0.02013831958,0.0009244655957,-0.1176753342,0.01975526102,3.528406382,2.511134386,-3.22021389
-30.27436638,-3.188406706,0.7960849404,0.0006240856019,-0.005372047424,-3.136336088,-6.540878296,-0.13270244,-0.00172015524,6.54148531,0.09831821173,0.02013831958,0.0009244655957,-0.1176753342,-0.2339854091,1,0,0.01587200165,-30.3781929,-3.191012144,0.7960560918,0.001019177371,-0.005356668764,-3.133569645,-6.600532532,-0.1933856606,-0.001577217248,6.60187149,0.1404243559,0.02584996819,0.001147530042,-0.174472332,0.02489237115,3.804572582,2.652856588,-3.578439474
-30.3781929,-3.191012144,0.7960560918,0.001019177376,-0.00535666896,-3.133569717,-6.600532532,-0.1933856606,-0.001577217248,6.60187149,0.1404243559,0.02584996819,0.001147530042,-0.174472332,-0.3020256162,1,0,0.03330397606,-30.59339523,-3.19979763,0.7959970832,0.002241797331,-0.005278825054,-3.124645149,-6.707683086,-0.346560806,-0.001567907049,6.712593079,0.2328385562,0.04143672809,0.002824748866,-0.3100765646,0.03671092913,3.324575663,2.774869919,-4.071712971
-30.59339523,-3.19979763,0.7959970832,0.00224179728,-0.005278824829,-3.124645233,-6.707683086,-0.346560806,-0.001567907049,6.712593079,0.2328385562,0.04143672809,0.002824748866,-0.3100765646,-0.3020256162,1,0,0.01704192162,-30.70755386,-3.20651412,0.7959674597,0.003078471333,-0.005206345776,-3.118430824,-6.754507065,-0.4373860359,-0.001677660272,6.762825012,0.280836165,0.05126383528,0.005404035561,-0.3665587902,0.04909505323,2.947551012,2.816443443,-3.314310789
-30.70755386,-3.20651412,0.7959674597,0.003078471404,-0.005206345581,-3.118430853,-6.754507065,-0.4373860359,-0.001677660272,6.762825012,0.280836165,0.05126383528,0.005404035561,-0.3665587902,-0.3309378922,1,0,0.0169532299,-30.81710434,-3.21506381,0.7959323525,0.003933779925,-0.005157112211,-3.111070864,-6.802518368,-0.5342468619,-0.001608473714,6.815653801,0.3264052868,0.05384997278,0.004713373259,-0.4436782897,0.05045106634,3.116148949,2.687931538,-4.548955917
-30.81710434,-3.21506381,0.7959323525,0.003933779895,-0.005157112144,-3.111070871,-6.802518368,-0.5342468619,-0.001608473714,6.815653801,0.3264052868,0.05384997278,0.004713373259,-0.4436782897,-0.4026724398,1,0,0.01622390747,-30.93211555,-3.22532773,0.7959015965,0.005009122251,-0.005058049699,-3.102357684,-6.842857361,-0.6432961822,-0.0017111419,6.86282444,0.3743902743,0.0682131052,0.008695974946,-0.5308967829,0.06628134102,2.90747714,2.957671404,-5.37592411
-30.93211555,-3.22532773,0.7959015965,0.005009122193,-0.00505804969,-3.102357626,-6.842857361,-0.6432961822,-0.0017111419,6.86282444,0.3743902743,0.0682131052,0.008695974946,-0.5308967829,-0.4232001603,1,0,0.01772594452,-31.04545403,-3.237962008,0.7958639264,0.006150951048,-0.004965662451,-3.092535846,-6.879484653,-0.7568644285,-0.001711507211,6.908322811,0.4186029136,0.06711535901,0.008613355458,-0.5536140203,0.06441568583,2.566766977,2.494233131,-1.281581163
-31.04545403,-3.237962008,0.7958639264,0.006150951143,-0.004965662491,-3.092535734,-6.879484653,-0.7568644285,-0.001711507211,6.908322811,0.4186029136,0.06711535901,0.008613355458,-0.5536140203,-0.4259628952,1,0,0.03333806992,-31.28050423,-3.269922495,0.7957969308,0.008461350263,-0.004859804864,-3.068911988,-6.966262817,-0.9887134433,-0.001794599812,7.019668579,0.4802365005,0.07736420631,0.009687247686,-0.7702360153,0.06930212677,3.339898348,1.848744869,-6.497736454
-31.28050423,-3.269922495,0.7957969308,0.008461350575,-0.004859804641,-3.068912029,-6.966262817,-0.9887134433,-0.001794599812,7.019668579,0.4802365005,0.07736420631,0.009687247686,-0.7702360153,-0.4250312746,1,0,0.01670408249,-31.40256691,-3.289327621,0.7957663536,0.009605180991,-0.00481677082,-3.057233801,-7.007608891,-1.090048075,-0.001893058419,7.07453537,0.4957188964,0.07135929167,0.009228562005,-0.6943520308,0.06847610325,3.284633636,0.9268630147,4.542840481
-31.40256691,-3.289327621,0.7957663536,0.009605181403,-0.004816771019,-3.05723381,-7.007608891,-1.090048075,-0.001893058419,7.07453537,0.4957188964,0.07135929167,0.009228562005,-0.6943520308,-0.4213047922,1,0,0.0163128376,-31.5132122,-3.309005976,0.7957386374,0.01065967934,-0.004804609733,-3.044524731,-7.052931309,-1.191439271,-0.00189960713,7.135199547,0.502291441,0.06862007082,0.009080983698,-0.7816929817,0.06464221328,3.718799829,0.4029062688,-5.354123592
-31.5132122,-3.309005976,0.7957386374,0.01065967977,-0.004804609809,-3.04452467,-7.052931309,-1.191439271,-0.00189960713,7.135199547,0.502291441,0.06862007082,0.009080983698,-0.7816929817,-0.4213047922,1,0,0.01561594009,-31.63129234,-3.331105947,0.7957137823,0.01174749218,-0.004796385373,-3.031845737,-7.096622944,-1.293779731,-0.001979115186,7.195631981,0.508726716,0.07274685055,0.009953889996,-0.8029373884,0.06966038793,3.869919777,0.41209656,-1.360430837
-31.63129234,-3.331105947,0.7957137823,0.01174749248,-0.004796385299,-3.031845808,-7.096622944,-1.293779731,-0.001979115186,7.195631981,0.508726716,0.07274685055,0.009953889996,-0.8029373884,-0.4278582633,1,0,0.01770806313,-31.74628258,-3.354654074,0.7956902981,0.012741656,-0.004795192639,-3.019265265,-7.137609482,-1.392950892,-0.002011973178,7.254243851,0.5115919709,0.05982160941,0.009160955437,-0.7136300802,0.05614185706,3.309897184,0.1618050933,5.043313026
-31.74628258,-3.354654074,0.7956902981,0.01274165604,-0.004795192741,-3.019265175,-7.137609482,-1.392950892,-0.002011973178,7.254243851,0.5115919709,0.05982160941,0.009160955437,-0.7136300802,-0.4278582633,1,0,0.03272485733,-31.98448181,-3.407762289,0.7956426144,0.01467488639,-0.004801273823,-2.99006436,-7.226336956,-1.625371933,-0.00203413493,7.388882637,0.5159388781,0.07218167186,0.01496003754,-1.040268064,0.05907528847,4.114266396,0.1328319609,-9.981341362
-31.98448181,-3.407762289,0.7956426144,0.01467488613,-0.004801273812,-2.990064383,-7.226336956,-1.625371933,-0.00203413493,7.388882637,0.5159388781,0.07218167186,0.01496003754,-1.040268064,-0.4269266427,1,0,0.01644325256,-32.11576462,-3.439650297,0.7956169844,0.01545478463,-0.004804848107,-2.978138977,-7.259981632,-1.722293019,-0.002054100391,7.443477631,0.5179427862,0.05090423301,0.01098835468,-0.7250067592,0.04742969945,3.320206404,0.1218681112,19.17268562
-32.11576462,-3.439650297,0.7956169844,0.01545478497,-0.004804848228,-2.978138924,-7.259981632,-1.722293019,-0.002054100391,7.443477631,0.5179427862,0.05090423301,0.01098835468,-0.7250067592,-0.4269266427,1,0,0.01752877235,-32.21967316,-3.466593742,0.795596838,0.01632170963,-0.004809259351,-2.964355938,-7.297394753,-1.832750559,-0.002080079168,7.506211281,0.5174344182,0.05318951234,0.01256986614,-0.7854650617,0.04945723712,3.578895807,-0.02900191769,-3.449089289
-32.21967316,-3.466593742,0.795596838,0.01632170938,-0.004809259437,-2.964355946,-7.297394753,-1.832750559,-0.002080079168,7.506211281,0.5174344182,0.05318951234,0.01256986614,-0.7854650617,-0.3159998953,1,0,0.01648712158,-32.33909988,-3.499222279,0.795573771,0.01702796505,-0.004841447256,-2.95001329,-7.351503849,-1.9186517,-0.002047416288,7.582335949,0.4837533832,0.04703672603,0.01285699848,-0.8696085811,0.04283680767,4.617219925,-2.042869329,-5.103590488
-32.33909988,-3.499222279,0.795573771,0.01702796482,-0.004841447342,-2.950013399,-7.351503849,-1.9186517,-0.002047416288,7.582335949,0.4837533832,0.04703672603,0.01285699848,-0.8696085811,-0.1519709378,1,0,0.01590108871,-32.46721268,-3.534974337,0.7955514193,0.01745636896,-0.004924178891,-2.93795789,-7.415382385,-1.960435152,-0.002073022304,7.658625126,0.4203142524,0.0304859411,0.00798210036,-0.7534434199,0.02694181167,4.79773283,-3.989609241,7.305484772
-32.46721268,-3.534974337,0.7955514193,0.01745636947,-0.004924179055,-2.937958002,-7.415382385,-1.960435152,-0.002073022304,7.658625126,0.4203142524,0.0304859411,0.00798210036,-0.7534434199,0,1,0,0.01695585251,-32.58900833,-3.569255829,0.7955344915,0.01758995598,-0.004992603759,-2.927756382,-7.479556561,-1.980234146,-0.001935286797,7.729428291,0.347892493,0.01087660994,0.006544002797,-0.6013028622,0.007878488861,4.17573595,-4.271195412,8.972745895
-32.58900833,-3.569255829,0.7955344915,0.01758995652,-0.00499260379,-2.92775631,-7.479556561,-1.980234146,-0.001935286797,7.729428291,0.347892493,0.01087660994,0.006544002797,-0.6013028622,0,1,0,0.03393602371,-32.83566284,-3.637410402,0.7954916954,0.01705596644,-0.005072952001,-2.910221968,-7.626991272,-1.971693277,-0.001512316172,7.875887871,0.1701943427,-0.02826035395,0.006940580904,-0.5527894497,-0.01573519967,4.315755367,-5.236268997,1.429555058
-32.83566284,-3.637410402,0.7954916954,0.01705596596,-0.005072951782,-2.910222054,-7.626991272,-1.971693277,-0.001512316172,7.875887871,0.1701943427,-0.02826035395,0.006940580904,-0.5527894497,0,1,0,0.01661920547,-32.98085785,-3.676016808,0.7954609394,0.01645738593,-0.005100728275,-2.905955692,-7.68727541,-1.964623332,-0.001414359314,7.933509827,0.1156436205,-0.03443902731,0.002533419756,-0.2546981573,-0.03601736575,3.467190742,-3.282390594,17.93655586
-32.98085785,-3.676016808,0.7954609394,0.01645738631,-0.005100728478,-2.905955791,-7.68727541,-1.964623332,-0.001414359314,7.933509827,0.1156436205,-0.03443902731,0.002533419756,-0.2546981573,0,0.9796007872,0,0.01578068733,-33.0931015,-3.7049191,0.7954364419,0.01574543736,-0.005126595153,-2.902104536,-7.755899906,-1.970631242,-0.001180320978,8.001987457,0.07464791834,-0.04383777082,0.002202316187,-0.2439067364,-0.04511520639,4.33933115,-2.597840071,0.6838371754
-33.0931015,-3.7049191,0.7954364419,0.01574543677,-0.005126595031,-2.902104616,-7.755899906,-1.970631242,-0.001180320978,8.001987457,0.07464791834,-0.04383777082,0.002202316187,-0.2439067364,0,0.8733320832,0,0.01691317558,-33.22267151,-3.737956762,0.7954113483,0.01492436313,-0.005169510467,-2.899710604,-7.820018291,-1.982170224,-0.001136733801,8.067158699,0.05133603886,-0.04787400737,-0.0004254118539,-0.1417250335,-0.04854639247,3.853282452,-1.378326535,6.041544437
-33.22267151,-3.737956762,0.7954113483,0.01492436323,-0.005169510376,-2.899710655,-7.820018291,-1.982170224,-0.001136733801,8.067158699,0.05133603886,-0.04787400737,-0.0004254118539,-0.1417250335,0,0.6230481863,0,0.03347301483,-33.4792099,-3.802524567,0.7953674197,0.01314525065,-0.005238176002,-2.896136931,-7.965382576,-2.024620533,-0.001087890938,8.218613625,0.02836124226,-0.0714661181,-0.001392267412,-0.117276378,-0.05315065384,4.52468729,-0.6863676906,0.730398953
-33.4792099,-3.802524567,0.7953674197,0.01314525027,-0.005238175858,-2.896136999,-7.965382576,-2.024620533,-0.001087890938,8.218613625,0.02836124226,-0.0714661181,-0.001392267412,-0.117276378,0,0.400616467,0,0.01651000977,-33.63747025,-3.842287779,0.7953411937,0.01246082385,-0.005265234645,-2.895413268,-8.017611504,-2.041306496,-0.001088347984,8.273351669,0.02586683817,-0.04116859287,-0.001091260929,-0.04377754033,-0.04145523906,3.3154459,-0.1510843486,4.45177412
-33.63747025,-3.842287779,0.7953411937,0.0124608241,-0.005265234504,-2.89541316,-8.017611504,-2.041306496,-0.001088347984,8.273351669,0.02586683817,-0.04116859287,-0.001091260929,-0.04377754033,0,0.3051738441,0,0.01823997498,-33.7460556,-3.869567871,0.7953235507,0.01161969589,-0.005289314703,-2.894806782,-8.079803467,-2.061613798,-0.001111857593,8.338634491,0.02535000257,-0.04636669531,-0.000942476443,-0.03356914222,-0.04611454904,3.579107046,-0.02833532356,0.5596717
-33.7460556,-3.869567871,0.7953235507,0.01161969546,-0.00528931478,-2.894806862,-8.079803467,-2.061613798,-0.001111857593,8.338634491,0.02535000257,-0.04636669531,-0.000942476443,-0.03356914222,0,0.2466746867,0,0.01558089256,-33.87976074,-3.903191328,0.7953006029,0.01081688936,-0.005291700171,-2.894312923,-8.144314766,-2.081532001,-0.001173876459,8.406070709,0.0247527808,-0.05085232854,0.000187890415,-0.03139343858,-0.05152503774,4.328135967,-0.03833039477,0.1396392137
-33.87976074,-3.903191328,0.7953006029,0.01081688982,-0.005291700363,-2.894312859,-8.144314766,-2.081532001,-0.001173876459,8.406070709,0.0247527808,-0.05085232854,0.000187890415,-0.03139343858,0,0.171053037,0,0.01593112946,-34.02676392,-3.940268517,0.7952726483,0.0100789442,-0.005278228952,-2.894035146,-8.198456764,-2.09745717,-0.001213140204,8.462471008,0.02459077537,-0.0462185517,0.001021032804,-0.01742134802,-0.046320986,3.540257454,-0.01016911119,0.8770307302
-34.02676392,-3.940268517,0.7952726483,0.01007894427,-0.005278228782,-2.894035101,-8.198456764,-2.09745717,-0.001213140204,8.462471008,0.02459077537,-0.0462185517,0.001021032804,-0.01742134802,0,0.171053037,0,0.03552794456,-34.15587234,-3.97282958,0.795245409,0.00868382442,-0.005206345927,-2.893689463,-8.301519394,-2.127193928,-0.001309347106,8.56968689,0.02520423569,-0.03788056225,0.002387176035,-0.008580032736,-0.03926824033,3.017790079,0.01726697944,0.2488552481
-34.15587234,-3.97282958,0.795245409,0.00868382398,-0.005206346046,-2.893689394,-8.301519394,-2.127193928,-0.001309347106,8.56968689,0.02520423569,-0.03788056225,0.002387176035,-0.008580032736,0,0.09270077199,0,0.01569604874,-34.43235016,-4.042743683,0.7951821089,0.008004661929,-0.005133271005,-2.893578152,-8.349755287,-2.139778137,-0.001359731425,8.619539261,0.02460840717,-0.04317472875,0.004705958534,-0.007061665878,-0.04326961935,3.176109552,-0.03796041384,0.09673561156
-34.43235016,-4.042743683,0.7951821089,0.008004661649,-0.005133271217,-2.893578053,-8.349755287,-2.139778137,-0.001359731425,8.619539261,0.02460840717,-0.04317472875,0.004705958534,-0.007061665878,0,0.05309096351,0,0.01643514633,-34.58242035,-4.080748081,0.795142591,0.007389336236,-0.005022525296,-2.893515123,-8.388269424,-2.149705887,-0.001385137206,8.659314156,0.02423290163,-0.0377705805,0.006829769816,-0.003807841567,-0.03743960708,2.420111895,-0.02284771577,0.1979796439
-34.58242035,-4.080748081,0.795142591,0.007389336359,-0.005022525322,-2.89351511,-8.388269424,-2.149705887,-0.001385137206,8.659314156,0.02423290163,-0.0377705805,0.006829769816,-0.003807841567,0,0.03240262344,0,0.01574683189,-34.71429062,-4.114126205,0.7951009274,0.006787203168,-0.004897236689,-2.893472984,-8.423112869,-2.159116745,-0.001404495328,8.695402145,0.02443324029,-0.03802561387,0.00793270953,-0.002604572335,-0.03823836893,2.291761875,0.01272247452,0.07641341537
-34.71429062,-4.114126205,0.7951009274,0.006787203252,-0.004897236824,-2.89347291,-8.423112869,-2.159116745,-0.001404495328,8.695402145,0.02443324029,-0.03802561387,0.00793270953,-0.002604572335,0,0.02337557077,0,0.0174498558,-34.85145569,-4.148876667,0.7950564623,0.006241818127,-0.004763602336,-2.893445176,-8.452052116,-2.166484594,-0.001427634154,8.725265503,0.02422720939,-0.03096153215,0.007598032709,-0.001543344348,-0.03125442192,1.711381316,-0.01180702634,0.06081585959
-34.85145569,-4.148876667,0.7950564623,0.006241817959,-0.004763602279,-2.893445253,-8.452052116,-2.166484594,-0.001427634154,8.725265503,0.02422720939,-0.03096153215,0.007598032709,-0.001543344348,0,0.01887810789,0,0.03474617004,-34.98525238,-4.182798386,0.7950117588,0.005213927683,-0.004419325738,-2.893407285,-8.498046875,-2.176085949,-0.001499245991,8.772210121,0.02190525644,-0.0275781136,0.01173695549,-0.0007288398338,-0.0295828376,1.351073146,-0.06682615727,0.02344156243
-34.98525238,-4.182798386,0.7950117588,0.005213927478,-0.004419325851,-2.893407345,-8.498046875,-2.176085949,-0.001499245991,8.772210121,0.02190525644,-0.0275781136,0.01173695549,-0.0007288398338,0,0.01348114945,0,0.01539778709,-35.27309799,-4.255829334,0.7949066162,0.004733311894,-0.004242539059,-2.89339447,-8.513002396,-2.178905487,-0.001514592092,8.787400246,0.02085133456,-0.03115115315,0.01146357693,-0.0007880328922,-0.03121328913,0.9865134954,-0.06844632328,-0.003844257444
-35.27309799,-4.255829334,0.7949066162,0.004733311944,-0.00424253894,-2.89339447,-8.513002396,-2.178905487,-0.001514592092,8.787400246,0.02085133456,-0.03115115315,0.01146357693,-0.0007880328922,0,0.004486220889,0,0.01704335213,-35.42842865,-4.295262337,0.7948516607,0.004322267254,-0.004005074276,-2.893387721,-8.522192955,-2.180112123,-0.001518377685,8.796606064,0.01970463991,-0.0242839586,0.01403162628,-0.0003408124321,-0.02411759645,0.5401412845,-0.06728105247,0.02624017
-35.42842865,-4.295262337,0.7948516607,0.004322267137,-0.004005074501,-2.893387794,-8.522192955,-2.180112123,-0.001518377685,8.796606064,0.01970463991,-0.0242839586,0.01403162628,-0.0003408124321,0,0.004486220889,0,0.01534175873,-35.55981064,-4.328588963,0.7947929502,0.003935951274,-0.003815174204,-2.893381712,-8.525974274,-2.180040598,-0.001546042273,8.800253868,0.01865166612,-0.0249385573,0.01226107031,-0.0003288444714,-0.02518067695,0.2377696335,-0.06863448769,0.000780090515
-35.55981064,-4.328588963,0.7947929502,0.003935951274,-0.003815174103,-2.893381596,-8.525974274,-2.180040598,-0.001546042273,8.800253868,0.01865166612,-0.0249385573,0.01226107031,-0.0003288444714,0,0,0,0.01687121391,-35.70404434,-4.365208626,0.7947381139,0.003576491564,-0.003540992838,-2.893377629,-8.526548386,-2.17901659,-0.001561800251,8.800559044,0.01748250425,-0.02110805176,0.01610179804,-0.000187427635,-0.02130609564,0.01808854938,-0.06929921359,0.008382137865
-35.70404434,-4.365208626,0.7947381139,0.003576491494,-0.003540992737,-2.893377542,-8.526548386,-2.17901659,-0.001561800251,8.800559044,0.01748250425,-0.02110805176,0.01610179804,-0.000187427635,0,0,0,0.03411579132,-35.9810524,-4.435507298,0.7946157455,0.002894801774,-0.00304746607,-2.893371284,-8.511498451,-2.172892094,-0.001572576584,8.78446579,0.01518860925,-0.02233149111,0.01824243926,-0.0001246729225,-0.01998164691,-0.4717244804,-0.06723850965,0.001839462318
-35.9810524,-4.435507298,0.7946157455,0.002894801786,-0.003047466045,-2.893371344,-8.511498451,-2.172892094,-0.001572576584,8.78446579,0.01518860925,-0.02233149111,0.01824243926,-0.0001246729225,0,0,0,0.01894402504,-36.13972855,-4.475783825,0.7945451736,0.002612493938,-0.002737164726,-2.893368912,-8.500585556,-2.169133425,-0.001581147895,8.772963524,0.014205168,-0.01500420831,0.01649262011,-7.729520439e-05,-0.01490221079,-0.6071711779,-0.05191300437,0.002500931965
-36.13972855,-4.475783825,0.7945451736,0.002612493932,-0.00273716473,-2.893368959,-8.500585556,-2.169133425,-0.001581147895,8.772963524,0.014205168,-0.01500420831,0.01649262011,-7.729520439e-05,0,0,0,0.01574492455,-36.27089691,-4.509059429,0.7944759727,0.002320134808,-0.002475142368,-2.893367047,-8.482709885,-2.163576841,-0.001579002594,8.754270554,0.01319392584,-0.01856651157,0.01664046943,-8.252185216e-05,-0.01856846735,-1.187237859,-0.06422654539,-0.0003319576208
-36.27089691,-4.509059429,0.7944759727,0.002320134779,-0.002475142479,-2.893367052,-8.482709885,-2.163576841,-0.001579002594,8.754270554,0.01319392584,-0.01856651157,0.01664046943,-8.252185216e-05,0,0,0,0.01528811455,-36.43046188,-4.549561977,0.7944085002,0.002079420737,-0.002165675056,-2.893365131,-8.465800285,-2.158303261,-0.001598220901,8.73658371,0.01221986208,-0.01558801066,0.02004078217,-7.412343984e-05,-0.015745176,-1.156901598,-0.06371379644,0.0005493425997
-36.43046188,-4.549561977,0.7944085002,0.002079420723,-0.002165675163,-2.893365145,-8.465800285,-2.158303261,-0.001598220901,8.73658371,0.01221986208,-0.01558801066,0.02004078217,-7.412343984e-05,0,0,0,0.01692914963,-36.56360626,-4.583340168,0.7943386436,0.001865808041,-0.001904010683,-2.89336293,-8.446648598,-2.152786732,-0.001584189828,8.716664314,0.01155907288,-0.01269377023,0.01554975193,-0.0001055843895,-0.01261803973,-1.176633,-0.0390326269,-0.001858389238
-36.56360626,-4.583340168,0.7943386436,0.001865808037,-0.001904010656,-2.893362999,-8.446648598,-2.152786732,-0.001584189828,8.716664314,0.01155907288,-0.01269377023,0.01554975193,-0.0001055843895,0,0,0,0.03292989731,-36.83564758,-4.65238142,0.7942205071,0.001481884257,-0.001448392612,-2.893358682,-8.396887779,-2.138188362,-0.001593755325,8.664841652,0.009596604854,-0.01218853891,0.01629247703,-0.0001383147901,-0.01165882125,-1.573726773,-0.05959532782,-0.0009939417941
-36.83564758,-4.65238142,0.7942205071,0.001481884276,-0.001448392635,-2.893358707,-8.396887779,-2.138188362,-0.001593755325,8.664841652,0.009596604854,-0.01218853891,0.01629247703,-0.0001383147901,0,0,0,0.01647901535,-36.98276138,-4.68971777,0.7941567898,0.001319803829,-0.001153111299,-2.893356007,-8.372425079,-2.131166697,-0.001599685173,8.639403343,0.008777737617,-0.00993844308,0.01810654998,-0.0001296085829,-0.009835566394,-1.54367888,-0.04969151318,0.0005283208448
-36.98276138,-4.68971777,0.7941567898,0.00131980388,-0.001153111341,-2.893356085,-8.372425079,-2.131166697,-0.001599685173,8.639403343,0.008777737617,-0.00993844308,0.01810654998,-0.0001296085829,0,0,0,0.01612997055,-37.1116066,-4.72240448,0.7940901518,0.001164209591,-0.0008801220626,-2.893353417,-8.344765663,-2.123550415,-0.001597754192,8.610720634,0.008168039843,-0.009479755536,0.01663260721,-0.0001476868347,-0.009646284394,-1.778224468,-0.03779906407,-0.001120786415
-37.1116066,-4.72240448,0.7940901518,0.001164209563,-0.0008801220683,-2.893353462,-8.344765663,-2.123550415,-0.001597754192,8.610720634,0.008168039843,-0.009479755536,0.01663260721,-0.0001476868347,0,0,0,0.01917290688,-37.24754715,-4.756890297,0.7940254211,0.001024209709,-0.0006335973544,-2.893351127,-8.31532383,-2.115466833,-0.001594386529,8.580195427,0.007545692846,-0.007478286047,0.0131687019,-0.0001075005785,-0.007301962934,-1.592101216,-0.03245970979,0.002095991746
-37.24754715,-4.756890297,0.7940254211,0.001024209661,-0.000633597374,-2.893351078,-8.31532383,-2.115466833,-0.001594386529,8.580195427,0.007545692846,-0.007478286047,0.0131687019,-0.0001075005785,0,0,0,0.01440119743,-37.38388824,-4.791480064,0.7939642668,0.0008923793301,-0.0004345177814,-2.893348634,-8.280033112,-2.105708599,-0.001590522588,8.543588638,0.006737131625,-0.00897808373,0.01355826203,-0.0001665106247,-0.009154123254,-2.541926622,-0.05614541471,-0.004097579047
-37.38388824,-4.791480064,0.7939642668,0.0008923793212,-0.0004345177731,-2.893348694,-8.280033112,-2.105708599,-0.001590522588,8.543588638,0.006737131625,-0.00897808373,0.01355826203,-0.0001665106247,0,0,0,0.0337998867,-37.6599884,-4.861531734,0.7938516736,0.0006912644904,3.242490125e-05,-2.893343849,-8.21840477,-2.088885069,-0.001591189299,8.479716301,0.005531080998,-0.005935432389,0.01419747621,-0.0001287645136,-0.005950162653,-1.88972044,-0.03568208963,0.001116752625
-37.6599884,-4.861531734,0.7938516736,0.0006912645185,3.242490129e-05,-2.893343925,-8.21840477,-2.088885069,-0.001591189299,8.479716301,0.005531080998,-0.005935432389,0.01419747621,-0.0001287645136,0,0.074710913,0,0.01624798775,-37.7962532,-4.896095753,0.7937910557,0.000605109731,0.0001928805887,-2.893341418,-8.183001518,-2.079327583,-0.001586081344,8.443049431,0.004943191539,-0.005278636701,0.009831028059,-0.0001401275949,-0.005302489735,-2.256702185,-0.03618229181,-0.0006993531133
-37.7962532,-4.896095753,0.7937910557,0.0006051097298,0.0001928805868,-2.893341303,-8.183001518,-2.079327583,-0.001586081344,8.443049431,0.004943191539,-0.005278636701,0.009831028059,-0.0001401275949,0,0.1593274921,0,0.01665687561,-37.93709946,-4.931828976,0.7937413454,0.0005256491832,0.0004266500138,-2.893338813,-8.149335861,-2.070225,-0.001594159286,8.408180237,0.004371693823,-0.004768360406,0.01402818039,-0.0001571575849,-0.004770435393,-2.093381405,-0.03431002051,-0.001022399985
-37.93709946,-4.931828976,0.7937413454,0.0005256491713,0.0004266500182,-2.893338919,-8.149335861,-2.070225,-0.001594159286,8.408180237,0.004371693823,-0.004768360406,0.01402818039,-0.0001571575849,0,0.1863444149,0,0.01804327965,-38.06996918,-4.965528488,0.7936823368,0.0004541947712,0.0006273984562,-2.893336399,-8.114602089,-2.06102252,-0.001568094129,8.372249603,0.003963917494,-0.003971679602,0.0111581143,-0.0001274504757,-0.003960167058,-1.99135828,-0.02259990014,0.001646436169
-38.06996918,-4.965528488,0.7936823368,0.0004541947856,0.0006273984327,-2.893336296,-8.114602089,-2.06102252,-0.001568094129,8.372249603,0.003963917494,-0.003971679602,0.0111581143,-0.0001274504757,0,0.1863444149,0,0.01619076729,-38.20507812,-4.99979496,0.793628037,0.0003919056427,0.0007653236343,-2.893333098,-8.07768631,-2.05119729,-0.001569635235,8.334051132,0.003484732006,-0.003846021136,0.008515882306,-0.000210109356,-0.003847201355,-2.359274864,-0.02959621884,-0.005105309654
-38.20507812,-4.99979496,0.793628037,0.0003919056326,0.0007653236389,-2.893333197,-8.07768631,-2.05119729,-0.001569635235,8.334051132,0.003484732006,-0.003846021136,0.008515882306,-0.000210109356,0,0.2133613229,0,0.03220105171,-38.48067856,-5.069696903,0.7935295105,0.0002921594544,0.001065254134,-2.893328827,-8.010759354,-2.033452272,-0.001570173888,8.264816284,0.002693363465,-0.003112152452,0.007860383019,-0.0001896133617,-0.003097606124,-2.150080442,-0.02457585931,0.0006365007721
-38.48067856,-5.069696903,0.7935295105,0.0002921594423,0.001065254095,-2.893328905,-8.010759354,-2.033452272,-0.001570173888,8.264816284,0.002693363465,-0.003112152452,0.007860383019,-0.0001896133617,0,0.3061054647,0,0.01647305489,-38.62018585,-5.10507822,0.7934859395,0.0002548128725,0.00120162955,-2.893327115,-7.981946945,-2.025840998,-0.001551749534,8.235016823,0.00237955479,-0.002266610507,0.008276330307,-0.0001064090611,-0.002267130883,-1.808982134,-0.01904981583,0.005050933454
-38.62018585,-5.10507822,0.7934859395,0.0002548128832,0.001201629522,-2.893326998,-7.981946945,-2.025840998,-0.001551749534,8.235016823,0.00237955479,-0.002266610507,0.008276330307,-0.0001064090611,0,0.4105430245,0,0.01747894287,-38.7390976,-5.135232925,0.7934440374,0.0002183921929,0.001329421895,-2.893325763,-7.951565266,-2.017885447,-0.001562595135,8.203611374,0.002123559592,-0.002099799691,0.007367413025,-7.398924208e-05,-0.00208368944,-1.796759009,-0.01464592014,0.001854792936
-38.7390976,-5.135232925,0.7934440374,0.0002183921897,0.001329421881,-2.893325806,-7.951565266,-2.017885447,-0.001562595135,8.203611374,0.002123559592,-0.002099799691,0.007367413025,-7.398924208e-05,0,0.5437964797,0,0.01650619507,-38.87004471,-5.168439388,0.7934005857,0.0001878942823,0.001403570216,-2.893323393,-7.922278881,-2.010193825,-0.001537218224,8.173333168,0.001844765618,-0.001858788426,0.004518734291,-0.0001444463851,-0.001847664244,-1.834354043,-0.01689026318,-0.004268527031
-38.87004471,-5.168439388,0.7934005857,0.0001878942858,0.001403570175,-2.893323421,-7.922278881,-2.010193825,-0.001537218224,8.173333168,0.001844765618,-0.001858788426,0.004518734291,-0.0001444463851,0,0.5798404217,0,0.01812577248,-39.00754547,-5.203308582,0.7933630347,0.0001609749184,0.001495718899,-2.893321596,-7.896100521,-2.003305435,-0.001534219598,8.14626503,0.001584754558,-0.001488823327,0.005095950793,-9.806600428e-05,-0.001485143206,-1.493350863,-0.01434482634,0.002558808541
-39.00754547,-5.203308582,0.7933630347,0.0001609749161,0.001495718956,-2.893321514,-7.896100521,-2.003305435,-0.001534219598,8.14626503,0.001584754558,-0.001488823327,0.005095950793,-9.806600428e-05,0,0.5798404217,0,0.03330802917,-39.13705826,-5.236149311,0.7933254242,0.0001375202814,0.001541971915,-2.893319561,-7.871424198,-1.996836543,-0.001534857322,8.120756149,0.001362385694,-0.001482241787,0.00292264414,-0.0001201195628,-0.0007041735807,-0.7658478022,-0.006676133722,-0.0006621094071
-39.13705826,-5.236149311,0.7933254242,0.0001375202846,0.001541971928,-2.893319607,-7.871424198,-1.996836543,-0.001534857322,8.120756149,0.001362385694,-0.001482241787,0.00292264414,-0.0001201195628,0,0.5861047506,0,0.01485395432,-39.40372086,-5.303766251,0.7932614684,0.0001026099627,0.001590370876,-2.893316459,-7.834676743,-1.987169504,-0.00152968266,8.082759857,0.0009965971112,-0.001095364452,0.0006726550055,-0.0001200469851,-0.002350237686,-2.557991743,-0.02462567016,4.886084753e-06
-39.40372086,-5.303766251,0.7932614684,0.0001026099635,0.001590370899,-2.893316507,-7.834676743,-1.987169504,-0.00152968266,8.082759857,0.0009965971112,-0.001095364452,0.0006726550055,-0.0001200469851,0,0.5879358649,0,0.01878094673,-39.54191208,-5.338805199,0.793233037,9.029493153e-05,0.001584648928,-2.89331511,-7.821778297,-1.983762622,-0.001521627768,8.069418907,0.0008522074204,-0.0006621408393,-0.0003075848799,-7.052021101e-05,-0.0006557194283,-0.7103449106,-0.007688094396,0.002637075493
-39.54191208,-5.338805199,0.793233037,9.029493231e-05,0.00158464897,-2.893315077,-7.821778297,-1.983762622,-0.001521627768,8.069418907,0.0008522074204,-0.0006621408393,-0.0003075848799,-7.052021101e-05,0,0.6347416043,0,0.01434516907,-39.65835571,-5.368330479,0.7932110429,7.817212063e-05,0.001562714443,-2.893314524,-7.809498787,-1.980513453,-0.001518852077,8.056717873,0.0007163264672,-0.0008294048021,-0.001500603161,-3.273895709e-05,-0.0008450797177,-0.8853875995,-0.009472244419,0.00263372669
-39.65835571,-5.368330479,0.7932110429,7.817211736e-05,0.00156271446,-2.8933146,-7.809498787,-1.980513453,-0.001518852077,8.056717873,0.0007163264672,-0.0008294048021,-0.001500603161,-3.273895709e-05,0,0.6464671493,0,0.0173740387,-39.80369949,-5.405182362,0.7931857705,7.002226397e-05,0.001523852357,-2.893314009,-7.801826477,-1.978465438,-0.001516683027,8.04877758,0.0006126258522,-0.0004712147347,-0.002246818505,-2.083356048e-05,-0.000469082268,-0.4570205212,-0.005968710873,0.0006852406077
-39.80369949,-5.405182362,0.7931857705,7.00222663e-05,0.001523852348,-2.893314123,-7.801826477,-1.978465438,-0.001516683027,8.04877758,0.0006126258522,-0.0004712147347,-0.002246818505,-2.083356048e-05,0,0.6761504412,0,0.03327679634,-40.05266571,-5.468306541,0.7931491137,5.598699487e-05,0.001402497123,-2.893312779,-7.792790413,-1.975969553,-0.00151786278,8.039404869,0.000402249716,-0.0004849209217,-0.005552321207,-3.534125062e-05,-0.0004217735259,-0.2816590667,-0.006322006695,-0.0004359701707
-40.05266571,-5.468306541,0.7931491137,5.598699499e-05,0.001402497175,-2.893312693,-7.792790413,-1.975969553,-0.00151786278,8.039404869,0.000402249716,-0.0004849209217,-0.005552321207,-3.534125062e-05,0,0.6770499349,0,0.01633119583,-40.20502472,-5.506934643,0.7931300998,5.240440854e-05,0.001328944993,-2.893312784,-7.792417049,-1.975811005,-0.001521866419,8.039004326,0.0003403122537,-0.0002165822661,-0.004446480423,-2.330151574e-07,-0.0002193707332,-0.02452626266,-0.003792585805,0.002149765147
-40.20502472,-5.506934643,0.7931300998,5.240440805e-05,0.001328945043,-2.893312693,-7.792417049,-1.975811005,-0.001521866419,8.039004326,0.0003403122537,-0.0002165822661,-0.004446480423,-2.330151574e-07,0,0.6770499349,0,0.01698184013,-40.31114197,-5.533839703,0.7931195498,4.907950824e-05,0.001226186729,-2.893312381,-7.794122219,-1.976177216,-0.001544296392,8.040746689,0.0002744106168,-0.0001959288929,-0.006053986028,-3.541316255e-05,-0.0001957914938,0.1026015431,-0.003880712437,-0.002071633469
-40.31114197,-5.533839703,0.7931195498,4.907950643e-05,0.001226186752,-2.893312454,-7.794122219,-1.976177216,-0.001544296392,8.040746689,0.0002744106168,-0.0001959288929,-0.006053986028,-3.541316255e-05,0,0.6764716506,0,0.01688599586,-40.44013977,-5.566543579,0.7931082249,4.679461857e-05,0.00115263456,-2.893312551,-7.798578262,-1.977246404,-0.001557265641,8.045329094,0.0002157978161,-0.0001355672575,-0.004364801105,2.101836071e-05,-0.0001353125845,0.2713730931,-0.003471089294,0.003341912758
