x_pos,y_pos,z_pos,roll,pitch,yaw,u_x,u_y,u_z,comp_u_x,comp_u_y,roll_mder,pitch_mder,yaw_mder,steer,throttle,brake,time_step,act_x_pos,act_y_pos,act_z_pos,act_roll,act_pitch,act_yaw,act_u_x,act_u_y,act_u_z,act_comp_u_x,act_comp_u_y,act_roll_mder,act_pitch_mder,act_yaw_mder,accel_roll,accel_x,accel_y,accel_yaw, accel2_x,accel2_y,accel2_yaw
0.1545387208,-0.08277226985,0.798086822,-0.005330049898,-0.00465464592,-0.0766313225,1.304031968,-0.6277726293,0.01492478698,1.348264933,-0.5260983706,-0.02361108363,-0.008280323818,0.5381496549,1,1,0,0.02021980286,0.1986629814,-0.1072063521,0.7985926867,-0.005989449279,-0.004947423289,-0.09602439683,1.452894688,-0.7209280729,-0.01972272992,1.515321851,-0.5783078671,-0.02239197493,-0.004049349576,0.5982547402,-0.0326115638,8.262044907,-2.582097292,2.972585201,0.03198591247,0.162100628,1.869626045
0.301656574,-0.1667620093,0.7986328602,-0.007161238696,-0.00533723738,-0.1400934458,1.732964873,-0.9270402193,-0.01917100325,1.845434785,-0.6759743094,-0.02040673047,0.001128260046,0.6960702538,1,1,0,0.02082252502,0.3599270582,-0.2022090852,0.7985729575,-0.007700264986,-0.005449890312,-0.1646070816,1.861002326,-1.039978504,-0.01708145626,2.006262541,-0.7209682465,-0.01989280246,0.003315626178,0.7389279008,-0.02588669211,7.723739147,-2.160830021,2.05823493,0.02981069498,0.1356541365,0.5218127966
0.487870276,-0.2852083445,0.7981200218,-0.008746353909,-0.005543827079,-0.2184121162,2.091294289,-1.286777496,-0.006512300111,2.320429325,-0.8030660748,-0.02030816302,0.006866769399,0.842244029,1,1,0,0.02012300491,0.5572382808,-0.3332834542,0.7984055877,-0.009272058839,-0.005557894452,-0.2475352674,2.193104029,-1.422267914,-0.01260488387,2.474733591,-0.8415725231,-0.02081701718,0.008625689894,0.8841105103,-0.02612457424,7.668052673,-1.913553596,2.080528259,-0.02428212762,0.1279521585,1.333535314
0.7050136924,-0.4438956976,0.7983717322,-0.01032986678,-0.005568384659,-0.3097315431,2.393152237,-1.704430461,0.01206027437,2.798790455,-0.8938859701,-0.01954105869,0.008445878513,0.9504834414,0.2593639493,1,0,0.02026820183,0.7839274406,-0.5055910945,0.7987509966,-0.01045450375,-0.00570964716,-0.3399200201,2.54680419,-1.783415437,-0.02117022686,2.995691061,-0.8322364688,-0.003919655457,0.004393161274,0.8826813698,-0.006149384659,9.714754105,3.04168582,-3.345243454,0.5961149931,-0.102259174,-2.872693062
0.7839274406,-0.5055910945,0.7987509966,-0.01045450382,-0.005709647201,-0.3399200141,2.54680419,-1.783415437,-0.02117022686,2.995691061,-0.8322364688,-0.003919655457,0.004393161274,0.8826813698,0.08030062169,1,0,0.01995015144,0.8256345391,-0.5372659564,0.7984098792,-0.01029311622,-0.005804419755,-0.3536667076,2.635021687,-1.80593884,-0.01314977184,3.097406387,-0.7815545797,0.004878479056,0.002793389838,0.8218505383,0.008089542389,5.098474026,2.540426254,-3.049141407,0.5260062218,-0.0956441015,-3.636838436
0.8256345391,-0.5372659564,0.7984098792,-0.01029311586,-0.005804419983,-0.353666693,2.635021687,-1.80593884,-0.01314977184,3.097406387,-0.7815545797,0.004878479056,0.002793389838,0.8218505383,0,1,0,0.01985740662,0.8688434362,-0.5690718889,0.7982037067,-0.01004544454,-0.005916118392,-0.3667303397,2.725743055,-1.828053832,0.01603407227,3.199970245,-0.7291405201,0.01023901254,0.001173799392,0.7850562334,0.01247249078,5.165017605,2.639521837,-1.852926016,0.3221334517,-0.09732692689,-2.211100101
0.8688434362,-0.5690718889,0.7982037067,-0.01004544459,-0.005916118622,-0.3667303324,2.725743055,-1.828053832,0.01603407227,3.199970245,-0.7291405201,0.01023901254,0.001173799392,0.7850562334,0,1,0,0.01987481117,0.9134686589,-0.601160109,0.798527658,-0.009636379301,-0.006001472662,-0.3784583057,2.810482025,-1.840368509,-0.01511505339,3.291594028,-0.6716953516,0.02032875828,0.001660287846,0.7039419413,0.02058209665,4.610045433,2.890350342,-4.081261158,0.6056164503,0.02920047939,-4.868720531
0.9134686589,-0.601160109,0.798527658,-0.009636378847,-0.006001472473,-0.3784582913,2.810482025,-1.840368509,-0.01511505339,3.291594028,-0.6716953516,0.02032875828,0.001660287846,0.7039419413,0,1,0,0.02031540871,0.9597200751,-0.6330981255,0.7982861996,-0.009096823639,-0.006080746703,-0.3889233339,2.903981924,-1.841544151,-0.009344698861,3.385406017,-0.6028459072,0.02853654698,0.0009548431262,0.6274952292,0.02655891515,4.617774963,3.389025688,-3.762991667,0.492144227,-0.042298913,-4.583793163
0.9597200751,-0.6330981255,0.7982861996,-0.009096823633,-0.006080746651,-0.388923347,2.903981924,-1.841544151,-0.009344698861,3.385406017,-0.6028459072,0.02853654698,0.0009548431262,0.6274952292,0,1,0,0.01981854439,1.056959391,-0.6964433193,0.7985044122,-0.007742872553,-0.006211518374,-0.4063262007,3.08650136,-1.833605051,-0.01354400348,3.559904575,-0.4644106328,0.04185149074,0.001006274018,0.4727241099,0.06831738353,8.804812431,6.985138416,-7.809409142,0.5368536115,0.08082054555,-5.902302742
1.056959391,-0.6964433193,0.7985044122,-0.007742872462,-0.00621151831,-0.4063262045,3.08650136,-1.833605051,-0.01354400348,3.559904575,-0.4644106328,0.04185149074,0.001006274018,0.4727241099,0,1,0,0.02011609077,1.108053446,-0.7275289893,0.7982824445,-0.006933272885,-0.00626122856,-0.4131368686,3.184226036,-1.815722942,0.01578613929,3.645308256,-0.3845421076,0.04606081545,-0.0001495305914,0.4090360403,0.04024636745,4.245540619,3.970380068,-3.166026115,0.2527981102,-0.06941380352,-3.824894667
1.108053446,-0.7275289893,0.7982824445,-0.006933272816,-0.006261228584,-0.4131368697,3.184226036,-1.815722942,0.01578613929,3.645308256,-0.3845421076,0.04606081545,-0.0001495305914,0.4090360403,0,1,0,0.01976060867,1.160699487,-0.7583414912,0.7985908389,-0.00598572116,-0.006265043708,-0.4181311293,3.272138596,-1.790599465,-0.01534809079,3.717320681,-0.3076755702,0.05503732339,0.001566432184,0.2999820411,0.04795154184,3.644241095,3.889887094,-5.518756866,0.5391935706,0.1030730605,-6.55056715
1.160699487,-0.7583414912,0.7985908389,-0.005985721014,-0.006265043747,-0.4181311429,3.272138596,-1.790599465,-0.01534809079,3.717320681,-0.3076755702,0.05503732339,0.001566432184,0.2999820411,0,1,0,0.02022194862,1.215139031,-0.7882282138,0.7983330488,-0.004931108051,-0.006247639208,-0.4214405687,3.366013527,-1.748417139,-0.009410482831,3.786723614,-0.2184782624,0.06187861413,0.002018254716,0.1980461329,0.05215189606,3.432059526,4.410915375,-5.040854931,0.4094343185,0.02704046108,-6.100612164
1.215139031,-0.7882282138,0.7983330488,-0.004931108095,-0.00624763919,-0.4214405715,3.366013527,-1.748417139,-0.009410482831,3.786723614,-0.2184782624,0.06187861413,0.002018254716,0.1980461329,0,1,0,0.01983809471,1.271253109,-0.8171174526,0.7981718183,-0.003886616839,-0.006248116161,-0.4238113363,3.45802021,-1.727612615,0.01833820529,3.862542152,-0.1526997387,0.06194755808,0.0005256932927,0.1426305473,0.05265078321,3.821866035,3.315768242,-2.79339242,0.004147810396,-0.089795582,-3.333916426
1.271253109,-0.8171174526,0.7981718183,-0.003886616789,-0.006248116028,-0.4238113463,3.45802021,-1.727612615,0.01833820529,3.862542152,-0.1526997387,0.06194755808,0.0005256932927,0.1426305473,0,1,0,0.02018737793,1.387789249,-0.8739855289,0.7982935905,-0.001962217356,-0.006240963213,-0.4261585636,3.618986845,-1.735717297,0.01559574716,4.01281023,-0.08447317034,0.05480073392,-0.0002499923576,0.05852146447,0.09532686323,7.443665028,3.37966466,-4.166419506,-0.2975056171,-0.07684056461,-1.425484776
1.387789249,-0.8739855289,0.7982935905,-0.001962217269,-0.006240963005,-0.4261585772,3.618986845,-1.735717297,0.01559574716,4.01281023,-0.08447317034,0.05480073392,-0.0002499923576,0.05852146447,0,1,0,0.0196325779,1.44800806,-0.9024514556,0.7985943556,-0.001148887987,-0.00623536134,-0.4267249548,3.692094564,-1.752028465,-0.01566611417,4.086160183,-0.06679019332,0.04857429117,0.0003750690666,0.03396404907,0.04142753407,3.736134529,0.900695622,-1.25085032,-0.3734817803,0.03749316931,-1.47303164
1.44800806,-0.9024514556,0.7985943556,-0.001148888026,-0.006235361565,-0.4267249405,3.692094564,-1.752028465,-0.01566611417,4.086160183,-0.06679019332,0.04857429117,0.0003750690666,0.03396404907,0,1,0,0.02016234398,1.50972414,-0.931224823,0.7983326316,-0.00043462772,-0.006247043312,-0.4271386293,3.76871419,-1.772627234,0.01451151073,4.164456844,-0.05210689828,0.04266796261,-0.0006895806873,0.02480023541,0.0354254581,3.88331151,0.7282533646,-0.4545013905,-0.3541090786,-0.06383020431,-0.5494089127
1.50972414,-0.931224823,0.7983326316,-0.0004346277274,-0.006247043144,-0.4271386266,3.76871419,-1.772627234,0.01451151073,4.164456844,-0.05210689828,0.04266796261,-0.0006895806873,0.02480023541,0,1,0,0.0201086998,1.572422743,-0.960309267,0.7986150384,0.0001771731428,-0.006259441222,-0.4274148987,3.842908621,-1.796175599,0.008174414746,4.241752148,-0.04163123295,0.03665157035,-0.0007478243206,0.01660059392,0.03042468615,3.843873739,0.5209519267,-0.4077658653,-0.3614499867,-0.003499133745,-0.4926142395
1.572422743,-0.960309267,0.7986150384,0.0001771731477,-0.006259441376,-0.4274148941,3.842908621,-1.796175599,0.008174414746,4.241752148,-0.04163123295,0.03665157035,-0.0007478243206,0.01660059392,0,1,0,0.01991939545,1.636372924,-0.989834249,0.7987769246,0.0006799620159,-0.006257771611,-0.4275865411,3.912443399,-1.820842385,-0.02032436617,4.315262318,-0.03451466933,0.03009289317,9.321809921e-05,0.01028896682,0.02524117194,3.690381527,0.3572680652,-0.316858381,-0.3933895826,0.05044574291,-0.3785715401
1.636372924,-0.989834249,0.7987769246,0.0006799619878,-0.006257771514,-0.4275865555,3.912443399,-1.820842385,-0.02032436617,4.315262318,-0.03451466933,0.03009289317,9.321809921e-05,0.01028896682,0,1,0,0.0200920105,1.767895222,-1.050312757,0.7986657023,0.001440453906,-0.006266235291,-0.4278115053,4.053882122,-1.874005437,-0.0181062147,4.466017723,-0.02323550731,0.02001501061,0.0002207661018,0.005439287983,0.03785046563,7.503251553,0.5613754988,-0.2413734943,-0.3331610858,0.0580413565,-0.1590598375
1.767895222,-1.050312757,0.7986657023,0.001440453925,-0.006266235374,-0.4278115034,4.053882122,-1.874005437,-0.0181062147,4.466017723,-0.02323550731,0.02001501061,0.0002207661018,0.005439287983,0,1,0,0.01994180679,1.835395217,-1.081283569,0.7983646989,0.001716353482,-0.006276130654,-0.4278872492,4.125993729,-1.902292848,0.01286129467,4.543367863,-0.01871166565,0.01647926122,-0.0005997606204,0.004520914517,0.01383523364,3.878793001,0.2268521488,-0.04605267197,-0.2115510553,-0.04909377545,-0.05494814366
1.835395217,-1.081283569,0.7983646989,0.001716353465,-0.006276130676,-0.4278872609,4.125993729,-1.902292848,0.01286129467,4.543367863,-0.01871166565,0.01647926122,-0.0005997606204,0.004520914517,0,1,0,0.01997423172,1.903995275,-1.112739444,0.798615396,0.001929513349,-0.006284474871,-0.4279474547,4.196937561,-1.930841923,0.007173100486,4.619762897,-0.0149707878,0.01278370991,-0.0005082180724,0.003608589992,0.01067174412,3.824679613,0.1872851998,-0.04567507282,-0.2220250219,0.005499784369,-0.05481154472
1.903995275,-1.112739444,0.798615396,0.001929513295,-0.006284474861,-0.4279474616,4.196937561,-1.930841923,0.007173100486,4.619762897,-0.0149707878,0.01278370991,-0.0005082180724,0.003608589992,0,1,0,0.02008605003,1.973905325,-1.14477098,0.7987577915,0.002077325798,-0.006277203866,-0.427992721,4.264089584,-1.958559275,-0.02090797387,4.692362785,-0.01210780349,0.008845944889,0.000430364249,0.002709892113,0.007358963136,3.614443302,0.1425359547,-0.04474239051,-0.2361113429,0.05627809837,-0.05388659611
1.973905325,-1.14477098,0.7987577915,0.002077325713,-0.006277204026,-0.4279927313,4.264089584,-1.958559275,-0.02090797387,4.692362785,-0.01210780349,0.008845944889,0.000430364249,0.002709892113,0,1,0,0.01994037628,2.044914246,-1.177284479,0.798409164,0.002188699062,-0.006283282134,-0.4280329874,4.334926128,-1.98803556,0.01121016499,4.769044399,-0.009332763962,0.00666854158,-0.0003701890819,0.002424354199,0.005585318431,3.845545053,0.1391668618,-0.0143195847,-0.1306705773,-0.04804290086,-0.01713573374
2.044914246,-1.177284479,0.798409164,0.002188699087,-0.006283282302,-0.4280329943,4.334926128,-1.98803556,0.01121016499,4.769044399,-0.009332763962,0.00666854158,-0.0003701890819,0.002424354199,0,1,0,0.02014780045,2.19030118,-1.243816972,0.7983189225,0.002286978156,-0.006276726422,-0.428095095,4.471503735,-2.046086311,0.01277818624,4.917396545,-0.005150143523,0.002199950628,-0.0002416787029,0.001820364152,0.004877905827,7.363193035,0.2075968832,-0.02997796424,-0.08897442371,-0.05219506845,-0.005918874871
2.19030118,-1.243816972,0.7983189225,0.002286978066,-0.006276726257,-0.4280951023,4.471503735,-2.046086311,0.01277818624,4.917396545,-0.005150143523,0.002199950628,-0.0002416787029,0.001820364152,0,1,0,0.01994585991,2.264820099,-1.277902007,0.7985672355,0.002286415314,-0.006264566728,-0.4281194466,4.536840916,-2.074303865,-0.01696287468,4.988551617,-0.003575832583,-4.274421372e-05,0.0007241671556,0.001456678496,-2.821395901e-05,3.567410469,0.07892920822,-0.01823364198,-0.1341859698,0.05778894201,-0.02176021039
2.264820099,-1.277902007,0.7985672355,0.002286415314,-0.00626456691,-0.4281194508,4.536840916,-2.074303865,-0.01696287468,4.988551617,-0.003575832583,-4.274421372e-05,0.0007241671556,0.001456678496,0,1,0,0.02014303207,2.339953899,-1.312258482,0.7982845902,0.002269333854,-0.006271123198,-0.4281430444,4.608226299,-2.105262995,0.02645791322,5.066347599,-0.00198497274,-0.001033984823,-0.000396649295,0.001415545819,-0.0008480084362,3.862178326,0.07897817343,-0.002042029984,-0.05948550999,-0.0672615096,-0.00246841996
2.339953899,-1.312258482,0.7982845902,0.002269333927,-0.00627112342,-0.4281430542,4.608226299,-2.105262995,0.02645791322,5.066347599,-0.00198497274,-0.001033984823,-0.000396649295,0.001415545819,-0.1062895432,1,0,0.01989126205,2.416669369,-1.347328901,0.7986521721,0.002306776331,-0.006272316321,-0.4277093225,4.68611002,-2.111216307,0.01868409663,5.139683723,0.02270577475,0.002411124762,-1.144733687e-05,-0.0260491576,0.00188235438,3.686851263,1.241286159,-1.380742073,0.2068198472,0.02312478237,-1.648785114
2.416669369,-1.347328901,0.7986521721,0.002306776354,-0.006272316445,-0.4277093112,4.68611002,-2.111216307,0.01868409663,5.139683723,0.02270577475,0.002411124762,-1.144733687e-05,-0.0260491576,-0.3215895891,1,0,0.01989245415,2.494792461,-1.382429481,0.7989637852,0.002440462326,-0.006256698935,-0.4265819949,4.76753521,-2.103208065,0.006790994201,5.210520744,0.05789291859,0.008458781056,0.001103780698,-0.06773237139,0.006720436271,3.560999632,1.768868923,-2.095428467,0.3634813726,0.06702838093,-2.505279779
2.494792461,-1.382429481,0.7989637852,0.002440462355,-0.006256699096,-0.4265820086,4.76753521,-2.103208065,0.006790994201,5.210520744,0.05789291859,0.008458781056,0.001103780698,-0.06773237139,-0.3215895891,1,0,0.02019476891,2.655175924,-1.451465011,0.7991004586,0.002973429685,-0.006204604972,-0.4219375888,4.935892582,-2.061450005,-0.0005089716869,5.347223759,0.1407356411,0.0181735754,0.001748542301,-0.1578707397,0.02639135532,6.769228935,4.102187157,-4.463451385,0.1596385986,-0.02516568452,-2.235515594
2.655175924,-1.451465011,0.7991004586,0.002973429626,-0.006204605103,-0.4219375849,4.935892582,-2.061450005,-0.0005089716869,5.347223759,0.1407356411,0.0181735754,0.001748542301,-0.1578707397,-0.4371423125,1,0,0.01976108551,2.737348557,-1.485409021,0.7990944386,0.003358104369,-0.00616991472,-0.4183922152,5.021635056,-2.029901505,-0.001183010638,5.413218021,0.1854404509,0.02440562658,0.00279711606,-0.2128151655,0.01946627535,3.339607239,2.262264967,-2.780435562,0.3741170466,0.06294706464,-3.298375845
2.737348557,-1.485409021,0.7990944386,0.003358104266,-0.006169914734,-0.4183922112,5.021635056,-2.029901505,-0.001183010638,5.413218021,0.1854404509,0.02440562658,0.00279711606,-0.2128151655,-0.5014881492,1,0,0.01989507675,2.821047068,-1.518692493,0.7990734577,0.003935926115,-0.006094336154,-0.413487179,5.10823822,-1.982883811,-0.001784923603,5.474475384,0.2367391437,0.03642494977,0.005687189754,-0.2939816415,0.0290434584,3.079021215,2.578461647,-4.079726696,0.7204089761,0.1732239872,-4.864921093
2.821047068,-1.518692493,0.7990734577,0.003935926128,-0.006094336044,-0.4134871662,5.10823822,-1.982883811,-0.001784923603,5.474475384,0.2367391437,0.03642494977,0.005687189754,-0.2939816415,-0.5266418457,1,0,0.01994967461,2.906517982,-1.550695658,0.7990347743,0.004511785965,-0.006047725037,-0.4078135689,5.194564819,-1.93634975,-0.001482324908,5.536521912,0.2826308608,0.0366762802,0.004340259824,-0.3410027623,0.02886562608,3.110152483,2.300374269,-2.356986761,0.01510700118,-0.08096142858,-2.826351404
2.906517982,-1.550695658,0.7990347743,0.004511786159,-0.006047725212,-0.4078135788,5.194564819,-1.93634975,-0.001482324908,5.536521912,0.2826308608,0.0366762802,0.004340259824,-0.3410027623,-0.5350264311,1,0,0.01998925209,2.993252993,-1.582076669,0.7990068793,0.00528439091,-0.005950212251,-0.4007563995,5.280548573,-1.874602318,-0.001917825197,5.593461037,0.3339502811,0.04882201552,0.008079277351,-0.422914356,0.03865100816,2.8484869,2.567350626,-4.097781658,0.7279427648,0.2240943462,-4.909291267
2.993252993,-1.582076669,0.7990068793,0.005284390878,-0.005950212479,-0.4007563889,5.280548573,-1.874602318,-0.001917825197,5.593461037,0.3339502811,0.04882201552,0.008079277351,-0.422914356,-0.5382710099,1,0,0.0207669735,3.171351671,-1.640801907,0.798935473,0.00684427809,-0.005815266981,-0.3839794822,5.452094555,-1.742031097,-0.001560681267,5.707667351,0.4272475243,0.05255973339,0.008294079453,-0.537791729,0.07511384785,5.499420166,4.492577553,-5.53173399,0.3377072215,0.1192568466,-4.138757229
3.171351671,-1.640801907,0.798935473,0.006844277959,-0.005815267097,-0.3839794695,5.452094555,-1.742031097,-0.001560681267,5.707667351,0.4272475243,0.05255973339,0.008294079453,-0.537791729,-0.5447923541,1,0,0.01939630508,3.262862206,-1.668530226,0.7989031076,0.007858528258,-0.005679248832,-0.3737008023,5.535266399,-1.657457352,-0.001888171653,5.758314133,0.47765854,0.06435954571,0.01300750487,-0.6166408658,0.05229090154,2.611156225,2.599000931,-4.065162659,0.7080105543,0.2828142345,-4.731093884
3.262862206,-1.668530226,0.7989031076,0.007858527824,-0.005679248832,-0.3737007976,5.535266399,-1.657457352,-0.001888171653,5.758314133,0.47765854,0.06435954571,0.01300750487,-0.6166408658,-0.5447923541,1,0,0.01990699768,3.355345011,-1.693967342,0.7988587022,0.008936747752,-0.005556463004,-0.3621967979,5.617645741,-1.566993952,-0.001733853365,5.808408737,0.5251684189,0.06835497171,0.01350098662,-0.6883922219,0.05416285992,2.516431808,2.386591911,-3.604328394,0.23911874,0.0295339562,-4.294183731
3.355345011,-1.693967342,0.7988587022,0.008936747909,-0.005556462798,-0.3621968031,5.617645741,-1.566993952,-0.001733853365,5.808408737,0.5251684189,0.06835497171,0.01350098662,-0.6883922219,-0.5424793363,1,0,0.02000808716,3.44967103,-1.717810035,0.7988196611,0.009930380724,-0.005478500513,-0.3498903592,5.698894501,-1.473708749,-0.001478548511,5.858779907,0.5691342354,0.06369224936,0.01201544143,-0.7386453748,0.04966155812,2.517540455,2.197402239,-2.511641979,-0.2798914015,-0.08917351067,-3.016569138
3.44967103,-1.717810035,0.7988196611,0.00993038062,-0.005478500389,-0.3498903513,5.698894501,-1.473708749,-0.001478548511,5.858779907,0.5691342354,0.06369224936,0.01201544143,-0.7386453748,-0.5424793363,1,0,0.02027463913,3.545260906,-1.740508199,0.7987921238,0.01108377373,-0.005357026348,-0.3364851456,5.781302452,-1.380398035,-0.001778630423,5.912860394,0.6058341265,0.07303673774,0.01609745808,-0.7989526987,0.05688846484,2.66739583,1.810137868,-2.974520206,0.5570414066,0.2433362007,-3.595025778
3.545260906,-1.740508199,0.7987921238,0.01108377334,-0.005357026123,-0.3364851475,5.781302452,-1.380398035,-0.001778630423,5.912860394,0.6058341265,0.07303673774,0.01609745808,-0.7989526987,-0.5396844745,1,0,0.02013444901,3.741029501,-1.780453801,0.7987318039,0.01317103511,-0.005248784351,-0.3080119554,5.947821617,-1.214430571,-0.001787689165,6.036078453,0.6458926201,0.06993801147,0.01514815073,-0.8760429025,0.1036662012,6.119763374,1.989549994,-3.828771353,0.3047887385,0.1259305626,-2.213521004
3.741029501,-1.780453801,0.7987318039,0.01317103487,-0.005248784553,-0.3080119491,5.947821617,-1.214430571,-0.001787689165,6.036078453,0.6458926201,0.06993801147,0.01514815073,-0.8760429025,-0.5415155888,1,0,0.01976084709,3.840718269,-1.797945857,0.7987038493,0.01417569007,-0.005217790194,-0.2931986215,6.030014515,-1.135355473,-0.00170250365,6.100815296,0.6558660269,0.06477680057,0.01442681253,-0.8867446184,0.05084069446,3.27601552,0.5047054291,-0.5415616035,-0.3090040386,-0.0431868434,-0.6407165527
3.840718269,-1.797945857,0.7987038493,0.01417568978,-0.005217790138,-0.2931986153,6.030014515,-1.135355473,-0.00170250365,6.100815296,0.6558660269,0.06477680057,0.01442681253,-0.8867446184,-0.5443425775,1,0,0.01997685432,3.941171885,-1.814013958,0.7986822128,0.01503723048,-0.005203486065,-0.2780156511,6.111731052,-1.05310607,-0.001510760863,6.16607523,0.6646837592,0.0563419722,0.01453276165,-0.9093937278,0.04312694445,3.266777277,0.4413974285,-1.133767605,-0.5052765012,0.006346732844,-1.356763005
3.941171885,-1.814013958,0.7986822128,0.01503723022,-0.005203485955,-0.2780156434,6.111731052,-1.05310607,-0.001510760863,6.16607523,0.6646837592,0.0563419722,0.01453276165,-0.9093937278,-0.5443425775,1,0,0.01982569695,4.043511391,-1.829269528,0.7986647487,0.01586448457,-0.005188345593,-0.2625865963,6.193728447,-0.9675737619,-0.001537690521,6.232580662,0.6733570099,0.05454134196,0.01562324353,-0.9273418188,0.04172636941,3.354506731,0.4374752045,-0.9052943587,-0.1082422137,0.06555269659,-1.078922868
4.043511391,-1.829269528,0.7986647487,0.01586448401,-0.005188345443,-0.2625865936,6.193728447,-0.9675737619,-0.001537690521,6.232580662,0.6733570099,0.05454134196,0.01562324353,-0.9273418188,-0.5443425775,1,0,0.02008414268,4.147118092,-1.843064785,0.7986466289,0.01673220617,-0.005168318789,-0.2469358002,6.275276184,-0.8805844188,-0.001712800236,6.30016613,0.6800172925,0.05702872574,0.01694626547,-0.9407367706,0.04320434108,3.365115881,0.3316189647,-0.6669417024,0.1495369077,0.07953762263,-0.8052796721
4.147118092,-1.843064785,0.7986466289,0.01673220657,-0.005168318748,-0.2469357997,6.275276184,-0.8805844188,-0.001712800236,6.30016613,0.6800172925,0.05702872574,0.01694626547,-0.9407367706,-0.5415155888,1,0,0.02010655403,4.358192444,-1.8653965,0.7986083031,0.01820585299,-0.005154848047,-0.2151364385,6.433557034,-0.7070145011,-0.001427254756,6.436179638,0.6827245355,0.04541983455,0.01771692745,-0.9581112266,0.07329184562,6.764635563,0.1346448064,-0.8641190529,-0.4438758492,0.0323657617,-0.5387878418
4.358192444,-1.8653965,0.7986083031,0.01820585318,-0.005154848099,-0.2151364386,6.433557034,-0.7070145011,-0.001427254756,6.436179638,0.6827245355,0.04541983455,0.01771692745,-0.9581112266,-0.5154303312,0.8985821605,0,0.02002477646,4.465517521,-1.874847174,0.7985929847,0.01882475929,-0.005159496766,-0.1991904895,6.513475418,-0.625774622,-0.001417118125,6.508511066,0.6754584908,0.04204382375,0.01771919988,-0.9559679031,0.03090701625,3.612096786,-0.3628527224,0.1070335731,-0.2024315298,0.0001362587063,0.128517434
4.465517521,-1.874847174,0.7985929847,0.01882475987,-0.005159496795,-0.1991904825,6.513475418,-0.625774622,-0.001417118125,6.508511066,0.6754584908,0.04204382375,0.01771919988,-0.9559679031,-0.45301193,0.7932130098,0,0.01968383789,4.574095249,-1.882937908,0.7985783219,0.01932968889,-0.005188941531,-0.1836214664,6.594902992,-0.5671246052,-0.001373624662,6.587587357,0.6465816498,0.03478822112,0.01612495631,-0.924582243,0.0256519597,4.017320633,-1.467033029,1.594488859,-0.4309433997,-0.09468941391,1.864137769
4.574095249,-1.882937908,0.7985783219,0.01932968944,-0.00518894149,-0.1836214662,6.594902992,-0.5671246052,-0.001373624662,6.587587357,0.6465816498,0.03478822112,0.01612495631,-0.924582243,-0.4259628952,0.7067652941,0,0.02009296417,4.684033871,-1.890085101,0.798566401,0.01973990124,-0.005223987514,-0.1683204328,6.674687862,-0.498668611,-0.001310276333,6.663897991,0.6265676022,0.02971022762,0.01618285663,-0.9273191094,0.02041569352,3.797878504,-0.9960724115,-0.1362101883,-0.3078029454,0.003509632312,-0.1658953577
4.684033871,-1.890085101,0.798566401,0.01973990165,-0.005223987624,-0.1683204323,6.674687862,-0.498668611,-0.001310276333,6.663897991,0.6265676022,0.02971022762,0.01618285663,-0.9273191094,-0.3337006271,0.5158800483,0,0.02000784874,4.79631567,-1.896317124,0.7985548377,0.01996448538,-0.005294798664,-0.1544233144,6.753287315,-0.4686458409,-0.001372091938,6.745008469,0.5756559372,0.01790583692,0.01240867469,-0.8344691396,0.01122478209,4.053933144,-2.544584751,4.640677452,-0.7088907957,-0.2266514897,5.575932503
4.79631567,-1.896317124,0.7985548377,0.0199644845,-0.005294798873,-0.1544233114,6.753287315,-0.4686458409,-0.001372091938,6.745008469,0.5756559372,0.01790583692,0.01240867469,-0.8344691396,-0.3215895891,0.2205572575,0,0.02039361,5.021763325,-1.907436609,0.7985352874,0.01991887557,-0.005393385484,-0.1294078969,6.903621674,-0.4047952592,-0.0009715941851,6.898134708,0.4894812703,-0.0006844471209,0.01218011975,-0.7260195017,-0.002236432163,7.508540154,-4.225572109,5.317824364,-0.402426064,0.01815045252,2.991917849
5.021763325,-1.907436609,0.7985352874,0.01991887577,-0.005393385421,-0.1294078976,6.903621674,-0.4047952592,-0.0009715941851,6.898134708,0.4894812703,-0.0006844471209,0.01218011975,-0.7260195017,-0.2992307544,0.1485335827,0,0.01977610588,5.136782646,-1.912489295,0.7985233068,0.01975090697,-0.005405307686,-0.1180765961,6.973049164,-0.3660425842,-0.0008320566267,6.967617035,0.4579481483,-0.006390039809,0.01268573757,-0.678350389,-0.008493522182,3.513448238,-1.594506145,2.41043973,-0.3416338563,0.03027488664,2.854284286
5.136782646,-1.912489295,0.7985233068,0.01975090615,-0.005405307747,-0.1180765927,6.973049164,-0.3660425842,-0.0008320566267,6.967617035,0.4579481483,-0.006390039809,0.01268573757,-0.678350389,-0.273145467,0.02880465426,0,0.01989650726,5.252968788,-1.917067647,0.7985088229,0.01957523544,-0.005391717225,-0.1070937617,7.03696537,-0.3144639134,-0.0006506567588,7.030262947,0.4395130277,-0.006985170301,0.01370915212,-0.6585963964,-0.008829223923,3.148588419,-0.9265505672,0.9928371906,-0.03569568321,0.06138398871,1.184836388
5.252968788,-1.917067647,0.7985088229,0.01957523637,-0.005391717423,-0.1070937589,7.03696537,-0.3144639134,-0.0006506567588,7.030262947,0.4395130277,-0.006985170301,0.01370915212,-0.6585963964,-0.1100160107,0,0,0.02026104927,5.370227337,-1.921075821,0.7984933853,0.01929656984,-0.005362866846,-0.09696745457,7.095934391,-0.2956535518,-0.0006083743647,7.091223717,0.3927322328,-0.01344532892,0.01343811024,-0.6067052484,-0.01375380531,3.008766651,-2.308902979,2.561128378,-0.3871496618,-0.01624321938,3.109775066
5.370227337,-1.921075821,0.7984933853,0.01929656975,-0.005362866912,-0.09696745127,7.095934391,-0.2956535518,-0.0006083743647,7.091223717,0.3927322328,-0.01344532892,0.01343811024,-0.6067052484,-0.07837313414,0,0,0.01984190941,5.488257408,-1.924788952,0.7984750867,0.01883074704,-0.005315660408,-0.08820917466,7.146382809,-0.3074920475,-0.0005251637194,7.145687103,0.3232628405,-0.0252432283,0.01277052611,-0.5271549225,-0.02347670868,2.744866133,-3.501144409,4.009207249,-0.7103230953,-0.04019363225,4.789533615
5.488257408,-1.924788952,0.7984750867,0.01883074641,-0.005315660499,-0.08820917457,7.146382809,-0.3074920475,-0.0005251637194,7.145687103,0.3232628405,-0.0252432283,0.01277052611,-0.5271549225,-0.06343512982,0,0,0.02020549774,5.726465225,-1.934279919,0.7984170914,0.01717606175,-0.005121229804,-0.07633321747,7.22431612,-0.3636130691,-0.0001722096204,7.231008053,0.1883656532,-0.04825172573,0.0107832402,-0.3272776902,-0.08189279586,4.222660065,-6.676261425,9.892220497,-0.0578725487,-0.1583455801,3.431514502
5.726465225,-1.934279919,0.7984170914,0.01717606187,-0.005121229682,-0.07633321732,7.22431612,-0.3636130691,-0.0001722096204,7.231008053,0.1883656532,-0.04825172573,0.0107832402,-0.3272776902,-0.006574329454,0,0,0.01982665062,5.847174644,-1.940083265,0.7983905673,0.01607536537,-0.004946827249,-0.07283210324,7.252903938,-0.4010096788,-0.0001679332199,7.262856483,0.1278307736,-0.0649889484,0.0138365766,-0.2098216563,-0.05551600829,1.606344461,-3.053207636,5.924149036,-1.004023314,0.1831618696,7.045888424
5.847174644,-1.940083265,0.7983905673,0.01607536525,-0.004946827423,-0.07283210009,7.252903938,-0.4010096788,-0.0001679332199,7.262856483,0.1278307736,-0.0649889484,0.0138365766,-0.2098216563,-0.0009846234461,0,0,0.02017998695,5.967460155,-1.94696784,0.7983491421,0.01504657279,-0.004821775959,-0.07018570714,7.277357578,-0.4239997864,1.340754261e-05,7.289175034,0.08739136159,-0.06030517817,0.009784728289,-0.1569448262,-0.0509808287,1.304190636,-2.003936529,2.620260954,0.2779985964,-0.2404917777,3.138430119
5.967460155,-1.94696784,0.7983491421,0.01504657324,-0.004821775947,-0.07018570602,7.277357578,-0.4239997864,1.340754261e-05,7.289175034,0.08739136159,-0.06030517817,0.009784728289,-0.1569448262,0,0,0,0.01957368851,6.088540077,-1.954256296,0.7983192205,0.01398001009,-0.004655122957,-0.06839505764,7.297839642,-0.4371373951,1.766056084e-05,7.310651779,0.06263176352,-0.06236092374,0.01129483152,-0.1053658873,-0.05448963493,1.097225308,-1.264942884,2.635115862,-0.121144034,0.08898960799,3.039520502
6.088540077,-1.954256296,0.7983192205,0.01398001052,-0.004655122757,-0.06839505583,7.297839642,-0.4371373951,1.766056084e-05,7.310651779,0.06263176352,-0.06236092374,0.01129483152,-0.1053658873,0,0,0,0.0201997757,6.211251259,-1.962023854,0.798283577,0.01292090089,-0.00445938167,-0.06720806253,7.313489437,-0.4435366988,-6.684689652e-06,7.326765537,0.04862012342,-0.06531324983,0.01308130566,-0.07341687381,-0.05243175104,0.7977196574,-0.6936532259,1.581651926,-0.1829789728,0.110721916,1.980132699
6.211251259,-1.962023854,0.798283577,0.01292090118,-0.004459381569,-0.06720805913,7.313489437,-0.4435366988,-6.684689652e-06,7.326765537,0.04862012342,-0.06531324983,0.01308130566,-0.07341687381,0,0,0,0.02009367943,6.453068733,-1.977867961,0.7981947064,0.01091821573,-0.004000544219,-0.0660841355,7.329739094,-0.4470790625,-8.392585005e-05,7.343263149,0.03792385384,-0.05631587282,0.0114774527,-0.02891235426,-0.09966742992,0.8210349083,-0.5323200822,2.214851618,0.4187152684,-0.3163994253,0.5470163226
6.453068733,-1.977867961,0.7981947064,0.01091821585,-0.004000544082,-0.06608413905,7.329739094,-0.4470790625,-8.392585005e-05,7.343263149,0.03792385384,-0.05631587282,0.0114774527,-0.02891235426,0,0,0,0.01979327202,6.575532913,-1.98589623,0.7981587648,0.01002959213,-0.003777146538,-0.065770869,7.330574989,-0.4475297332,-0.0001535382908,7.344138622,0.03522865102,-0.05308400095,0.01355041377,-0.01861873083,-0.04489523917,0.04423083737,-0.1361676306,0.5200566649,0.1933206916,0.1239981875,0.6157330275
6.575532913,-1.98589623,0.7981587648,0.01002959255,-0.003777146572,-0.06577087194,7.330574989,-0.4475297332,-0.0001535382908,7.344138622,0.03522865102,-0.05308400095,0.01355041377,-0.01861873083,0,0,0,0.02028822899,6.697566509,-1.993896484,0.79811728,0.009189177135,-0.003531574592,-0.0655676117,7.327037811,-0.4475668669,-0.0002020666871,7.340618134,0.03346710652,-0.0505704619,0.01490125619,-0.0120970998,-0.04142379388,-0.1735237092,-0.08682593703,0.3214490116,0.1513770372,0.08135402203,0.3927629888
6.697566509,-1.993896484,0.79811728,0.009189177305,-0.003531574504,-0.06556761265,7.327037811,-0.4475668669,-0.0002020666871,7.340618134,0.03346710652,-0.0505704619,0.01490125619,-0.0120970998,0,0,0,0.02003788948,6.819875717,-2.00190115,0.7980725169,0.008330107774,-0.003183841348,-0.06545503119,7.320568562,-0.4474446774,-0.0002458163945,7.334158897,0.03233946487,-0.05151389912,0.02091597393,-0.006576834712,-0.04287225753,-0.3223511279,-0.05627546832,0.2754913568,-0.05659664795,0.3608219624,0.3311598301
6.819875717,-2.00190115,0.7980725169,0.008330107667,-0.00318384124,-0.06545503438,7.320568562,-0.4474446774,-0.0002458163945,7.334158897,0.03233946487,-0.05151389912,0.02091597393,-0.006576834712,0,0,0,0.01966047287,6.941160679,-2.009874344,0.7980130315,0.007607878576,-0.002975582706,-0.06537260938,7.309286118,-0.4470693171,-0.000302060711,7.322878361,0.03137249127,-0.04315876588,0.012486469,-0.004836380482,-0.03673508391,-0.5737673044,-0.04918364063,0.08852555603,0.4994532466,-0.5038990378,0.1040408909
6.941160679,-2.009874344,0.7980130315,0.007607878651,-0.002975582611,-0.0653726086,7.309286118,-0.4470693171,-0.000302060711,7.322878361,0.03137249127,-0.04315876588,0.012486469,-0.004836380482,0,0,0,0.02008080482,7.184791088,-2.025707006,0.797929287,0.00629341761,-0.002474903937,-0.06528161316,7.278645992,-0.4476141334,-0.0003831542854,7.292342186,0.02816366777,-0.03837644309,0.01556053571,-0.002079861239,-0.06545858085,-1.52066493,-0.1597955674,0.1372713596,0.1394739002,0.05785743147,0.06657842547
7.184791088,-2.025707006,0.797929287,0.00629341742,-0.002474903828,-0.06528161466,7.278645992,-0.4476141334,-0.0003831542854,7.292342186,0.02816366777,-0.03837644309,0.01556053571,-0.002079861239,0,0.1791484654,0,0.01984000206,7.306291103,-2.033593893,0.7978828549,0.005654066244,-0.00212550125,-0.06526044487,7.260549068,-0.4477674365,-0.0004193184723,7.274294376,0.02667616121,-0.03718003631,0.02032680437,-0.001119130291,-0.03222535923,-0.9096677303,-0.07497511804,0.04842393473,0.0695791766,0.2771908939,0.05587302893
7.306291103,-2.033593893,0.7978828549,0.005654066335,-0.002125501167,-0.06526044756,7.260549068,-0.4477674365,-0.0004193184723,7.274294376,0.02667616121,-0.03718003631,0.02032680437,-0.001119130291,0,0.5465270877,0,0.02010846138,7.426056862,-2.041405439,0.7978230119,0.005099478513,-0.00191640826,-0.06524333051,7.239944935,-0.4475960135,-0.0004376511788,7.253723145,0.02537939698,-0.03392799571,0.01279762667,-0.0009849836351,-0.02757982351,-1.023013711,-0.06448848546,0.006671154872,0.1989616156,-0.4606392086,0.008207165636
7.426056862,-2.041405439,0.7978230119,0.005099478643,-0.001916408306,-0.06524333358,7.239944935,-0.4475960135,-0.0004376511788,7.253723145,0.02537939698,-0.03392799571,0.01279762667,-0.0009849836351,0,0.9147409201,0,0.02010655403,7.55047226,-2.049459219,0.7977836728,0.004566985155,-0.001623153403,-0.06523349674,7.220360756,-0.4479920566,-0.0004804111959,7.234206676,0.02363622189,-0.0312856175,0.01723261178,-0.0005026457366,-0.02648357861,-0.9706520438,-0.08669686317,0.02398908883,0.1552524716,0.2605767548,0.02833967842
7.55047226,-2.049459219,0.7977836728,0.004566985182,-0.001623153454,-0.06523349881,7.220360756,-0.4479920566,-0.0004804111959,7.234206676,0.02363622189,-0.0312856175,0.01723261178,-0.0005026457366,0,1,0,0.01997065544,7.668270111,-2.057123423,0.7977320552,0.004104612522,-0.001446247051,-0.06522538202,7.201063633,-0.4481239319,-0.0004983954132,7.214959621,0.02218814008,-0.02868237719,0.01097625401,-0.000450422056,-0.02315260284,-0.9637668133,-0.07251048088,0.002615020843,0.1614910364,-0.3881108165,0.003239676356
7.668270111,-2.057123423,0.7977320552,0.004104612395,-0.001446247101,-0.06522538513,7.201063633,-0.4481239319,-0.0004983954132,7.214959621,0.02218814008,-0.02868237719,0.01097625401,-0.000450422056,0,1,0,0.02019882202,7.906401157,-2.072564602,0.7976530194,0.003251215134,-0.00101768942,-0.06521582737,7.169377327,-0.4487274587,-0.0005169388023,7.183380127,0.01945197023,-0.02478872985,0.0113926772,-0.0002132540394,-0.04224985465,-1.563432455,-0.135461852,0.01174167544,0.09751428664,-0.1757827103,0.00379938609
7.906401157,-2.072564602,0.7976530194,0.00325121521,-0.001017689472,-0.06521582603,7.169377327,-0.4487274587,-0.0005169388023,7.183380127,0.01945197023,-0.02478872985,0.0113926772,-0.0002132540394,0,1,0,0.01941299438,8.025725365,-2.080309629,0.7976164222,0.002909507674,-0.0009145736021,-0.06521320953,7.158533096,-0.4495991468,-0.0005299317418,7.172616005,0.01785662025,-0.02044354379,0.006169639528,-0.0001389550307,-0.01760200039,-0.5544802547,-0.08217948675,0.003827282228,0.2599636614,-0.3124837577,0.004445158876
8.025725365,-2.080309629,0.7976164222,0.002909507602,-0.0009145736112,-0.06521321088,7.158533096,-0.4495991468,-0.0005299317418,7.172616005,0.01785662025,-0.02044354379,0.006169639528,-0.0001389550307,0,1,0,0.02034282684,8.145015717,-2.088022947,0.7975919247,0.002593616494,-0.0008124112446,-0.06521123112,7.151526928,-0.4508569241,-0.000549098826,7.165706635,0.01613077149,-0.01897878572,0.006138253957,-0.000105836596,-0.01552837808,-0.3396465182,-0.08483819664,0.001628015307,0.08800334483,-0.001885659643,0.001989770913
8.145015717,-2.088022947,0.7975919247,0.002593616489,-0.0008124112501,-0.06521122903,7.151526928,-0.4508569241,-0.000549098826,7.165706635,0.01613077149,-0.01897878572,0.006138253957,-0.000105836596,0,1,0,0.02021098137,8.264492989,-2.095760107,0.7975674272,0.002278816379,-0.000699520195,-0.06520969715,7.148050785,-0.4521585405,-0.0005700497422,7.162322521,0.01459437422,-0.01888804138,0.006773699075,-7.754792023e-05,-0.01557569671,-0.1674393415,-0.076017946,0.001399668632,0.005444690119,0.03812691569,0.001697329804
8.264492989,-2.095760107,0.7975674272,0.002278816421,-0.0006995201693,-0.06520969421,7.148050785,-0.4521585405,-0.0005700497422,7.162322521,0.01459437422,-0.01888804138,0.006773699075,-7.754792023e-05,0,1,0,0.01981973648,8.383378029,-2.103491545,0.7975410819,0.001997876474,-0.0006506443536,-0.06520962057,7.151523113,-0.4532314241,-0.0005690580001,7.165857315,0.01374950726,-0.01686974987,0.002934864489,5.863504157e-06,-0.01417475659,0.1783471704,-0.04262755811,0.004208503291,0.1211935133,-0.2305127084,0.005008653738
8.383378029,-2.103491545,0.7975410819,0.001997876447,-0.0006506443606,-0.0652096197,7.151523113,-0.4532314241,-0.0005690580001,7.165857315,0.01374950726,-0.01686974987,0.002934864489,5.863504157e-06,0,1,0,0.02021479607,8.621749878,-2.118972778,0.7975129485,0.001524205976,-0.0006695986098,-0.06520896444,7.173940182,-0.4568026662,-0.000566636154,7.188459873,0.01164195035,-0.01336462796,-0.001562787103,-3.806339737e-05,-0.02343186922,1.118119478,-0.104258135,-0.002173007466,0.1007687673,-0.1192852557,-0.001465911511
8.621749878,-2.118972778,0.7975129485,0.001524206018,-0.0006695986376,-0.06520896405,7.173940182,-0.4568026662,-0.000566636154,7.188459873,0.01164195035,-0.01336462796,-0.001562787103,-3.806339737e-05,0,1,0,0.01991891861,8.741141319,-2.126724958,0.7975065708,0.001340539121,-0.0007058382823,-0.06520900874,7.192550659,-0.4592503607,-0.000566416129,7.20718956,0.010412517,-0.01101473998,-0.002173347864,4.235679626e-06,-0.009220725857,0.9402963519,-0.06172189116,0.002123562852,0.1409257948,-0.03661611304,0.002536729909
8.741141319,-2.126724958,0.7975065708,0.001340539078,-0.0007058382616,-0.06520900875,7.192550659,-0.4592503607,-0.000566416129,7.20718956,0.010412517,-0.01101473998,-0.002173347864,4.235679626e-06,0,1,0,0.02017140388,8.861227036,-2.134509802,0.797501862,0.001173830652,-0.0007668733593,-0.06520906173,7.214672565,-0.4618901312,-0.0005810252624,7.229436874,0.009220259264,-0.01002101973,-0.003668901511,1.002492536e-05,-0.008264591917,1.102913499,-0.05910633504,0.0002870026219,0.05973356962,-0.08989930153,0.000347997644
8.861227036,-2.134509802,0.797501862,0.001173830708,-0.0007668733597,-0.06520906091,7.214672565,-0.4618901312,-0.0005810252624,7.229436874,0.009220259264,-0.01002101973,-0.003668901511,1.002492536e-05,0,0.9778017998,0,0.01955223083,8.981466293,-2.142314911,0.7975004911,0.00101017515,-0.0008758306053,-0.06520896701,7.239356041,-0.4645439386,-0.0005977207911,7.25424099,0.008179808967,-0.009821250103,-0.00653870916,-1.375920692e-05,-0.008370173164,1.268607974,-0.05321389064,-0.001216440811,0.01198852994,-0.1722222418,-0.001427327981
8.981466293,-2.142314911,0.7975004911,0.001010175096,-0.0008758305921,-0.06520896405,7.239356041,-0.4645439386,-0.0005977207911,7.25424099,0.008179808967,-0.009821250103,-0.00653870916,-1.375920692e-05,0,0.9525838494,0,0.02040147781,9.101964951,-2.150157213,0.7975055575,0.0008662594295,-0.0009820458117,-0.06520936849,7.26744175,-0.4670148492,-0.0005864310078,7.282427788,0.00754724443,-0.008630726486,-0.006369804963,2.307826071e-05,-0.00705417851,1.381605744,-0.03100582026,0.001805627369,0.07139631361,0.01012927108,0.002209161874
9.101964951,-2.150157213,0.7975055575,0.0008662594482,-0.0009820457781,-0.06520936638,7.26744175,-0.4670148492,-0.0005864310078,7.282427788,0.00754724443,-0.008630726486,-0.006369804963,2.307826071e-05,0,0.9552823305,0,0.01977491379,9.344745636,-2.165943623,0.797511518,0.0006423241413,-0.001165389817,-0.0652104209,7.33219099,-0.4728547931,-0.0005814912729,7.347420216,0.005946708843,-0.006601717323,-0.00646648556,1.050962783e-05,-0.01132421196,3.286609888,-0.08093767613,-0.0006355846999,0.01295973174,-0.1166870445,-0.001713208039
9.344745636,-2.165943623,0.797511518,0.0006423241575,-0.001165389782,-0.06521042436,7.33219099,-0.4728547931,-0.0005814912729,7.347420216,0.005946708843,-0.006601717323,-0.00646648556,1.050962783e-05,0,0.9543828368,0,0.02013707161,9.470154762,-2.174100161,0.7975159883,0.0005443119603,-0.001314163135,-0.06521015977,7.365841389,-0.4757359624,-0.0005921926349,7.381186485,0.005262489431,-0.005911153741,-0.008972596377,-3.364226723e-05,-0.004867251962,1.676821232,-0.03397809714,-0.002192567801,0.04164839163,-0.1511453688,-0.002662832849
9.470154762,-2.174100161,0.7975159883,0.0005443119444,-0.001314163092,-0.06521015614,7.365841389,-0.4757359624,-0.0005921926349,7.381186485,0.005262489431,-0.005911153741,-0.008972596377,-3.364226723e-05,0,0.9588803053,0,0.01976633072,9.590016365,-2.181907415,0.797527194,0.0004571668979,-0.001446842988,-0.06521096983,7.402000427,-0.4785631597,-0.0005977020483,7.417452812,0.004803606775,-0.005077499431,-0.007730493322,5.897626397e-05,-0.004408761859,1.83475256,-0.02321536839,0.004685671534,0.04857200384,0.07236985117,0.005396322813
9.590016365,-2.181907415,0.797527194,0.0004571668978,-0.001446843031,-0.06521096826,7.402000427,-0.4785631597,-0.0005977020483,7.417452812,0.004803606775,-0.005077499431,-0.007730493322,5.897626397e-05,0,0.9516843557,0,0.01991581917,9.712832451,-2.189906597,0.7975357771,0.0003848464219,-0.001541137632,-0.06521093566,7.44163084,-0.4817095399,-0.0005891579785,7.457204342,0.004246198572,-0.004465802107,-0.005822725594,-2.240855338e-06,-0.003631308209,1.99597764,-0.02798821405,-0.003073793603,0.03777241334,0.1178049818,-0.00378016755
9.712832451,-2.189906597,0.7975357771,0.0003848464112,-0.001541137579,-0.06521093845,7.44163084,-0.4817095399,-0.0005891579785,7.457204342,0.004246198572,-0.004465802107,-0.005822725594,-2.240855338e-06,0,0.9534833431,0,0.01997256279,9.840443611,-2.1982131,0.7975388169,0.0003200685813,-0.001687288102,-0.06521192562,7.480078697,-0.4847590625,-0.0005910297623,7.495769024,0.003715987317,-0.003888279665,-0.00877245795,5.443490227e-05,-0.003243340878,1.93088305,-0.02654698119,0.002837680746,0.03466485813,-0.1770529449,0.003401871538
9.840443611,-2.1982131,0.7975388169,0.0003200685896,-0.001687288051,-0.06521192193,7.480078697,-0.4847590625,-0.0005910297623,7.495769024,0.003715987317,-0.003888279665,-0.00877245795,5.443490227e-05,0,0.9912941456,0,0.0201985836,10.08705997,-2.214284658,0.7975586653,0.0002166870442,-0.001911163146,-0.06521389562,7.563677788,-0.491013974,-0.0006005262258,7.57959795,0.002937101526,-0.002757167211,-0.005395844113,3.470739102e-05,-0.005118257366,4.150238037,-0.03856140748,-0.000976677984,0.04147638008,0.1588010788,-0.002508129459
10.08705997,-2.214284658,0.7975586653,0.0002166870399,-0.001911163097,-0.06521389633,7.563677788,-0.491013974,-0.0006005262258,7.57959795,0.002937101526,-0.002757167211,-0.005395844113,3.470739102e-05,0,1,0,0.01995158195,10.21330833,-2.222509384,0.7975614667,0.000173857253,-0.002061724435,-0.06521462877,7.607176781,-0.4942681789,-0.0006114134449,7.623216629,0.002530126134,-0.00256032357,-0.009000055492,4.831658953e-05,-0.002146686194,2.186226606,-0.02039815113,0.0006821112474,0.01176662929,-0.2154472321,0.0008135106182
10.21330833,-2.222509384,0.7975614667,0.0001738572464,-0.00206172443,-0.06521462649,7.607176781,-0.4942681789,-0.0006114134449,7.623216629,0.002530126134,-0.00256032357,-0.009000055492,4.831658953e-05,0,1,0,0.0200753212,10.3397913,-2.230756521,0.7975724339,0.0001400458148,-0.002155065496,-0.06521553543,7.6525774,-0.4975521863,-0.0005869565066,7.66873455,0.002218771726,-0.002030589152,-0.005605475046,3.500981256e-05,-0.001684228657,2.267357111,-0.01550931111,-0.0006628425326,0.03181261942,0.2038578093,-0.0007991238963
10.3397913,-2.230756521,0.7975724339,0.0001400458132,-0.002155065536,-0.06521553546,7.6525774,-0.4975521863,-0.0005869565066,7.66873455,0.002218771726,-0.002030589152,-0.005605475046,3.500981256e-05,0,1,0,0.01977443695,10.46767902,-2.239093065,0.7975754142,0.0001089416174,-0.002306580644,-0.06521694515,7.698782921,-0.5008921027,-0.0006006956683,7.715059757,0.001907951199,-0.001867045532,-0.009093627334,0.0001063291056,-0.001572949812,2.342681408,-0.0157182999,0.003606640967,0.009815516882,-0.2093509883,0.004280422349
10.46767902,-2.239093065,0.7975754142,0.0001089416182,-0.002306580544,-0.06521694362,7.698782921,-0.5008921027,-0.0006006956683,7.715059757,0.001907951199,-0.001867045532,-0.009093627334,0.0001063291056,0,1,0,0.02005457878,10.59597778,-2.247461319,0.7975868583,8.306188308e-05,-0.002434372771,-0.0652177686,7.746046543,-0.5042108893,-0.0006074846606,7.762439251,0.001682860311,-0.001550981542,-0.007658110466,4.222639109e-05,-0.001290465123,2.362527609,-0.01122391503,-0.00319641293,0.01894054003,0.08602518588,-0.003841437167
10.59597778,-2.247461319,0.7975868583,8.306188101e-05,-0.002434372669,-0.06521777064,7.746046543,-0.5042108893,-0.0006074846606,7.762439251,0.001682860311,-0.001550981542,-0.007658110466,4.222639109e-05,0,1,0,0.02015542984,10.85504818,-2.264359474,0.7975967526,4.517008413e-05,-0.002661466481,-0.06522111405,7.844124794,-0.5110948086,-0.0006141213235,7.860757351,0.001231791452,-0.00107032957,-0.008493236266,4.243924559e-05,-0.001879979623,4.877995491,-0.02237952128,1.056065321e-05,0.008015141822,-0.2015911788,-0.006453799084
10.85504818,-2.264359474,0.7975967526,4.517008347e-05,-0.002661466366,-0.06522111595,7.844124794,-0.5110948086,-0.0006141213235,7.860757351,0.001231791452,-0.00107032957,-0.008493236266,4.243924559e-05,0,1,0,0.0196428299,10.98556995,-2.272876024,0.7976064682,3.161068863e-05,-0.002747416278,-0.06522278784,7.894640446,-0.514582634,-0.0006082503241,7.911393166,0.001056970446,-0.0008128715563,-0.005150910933,9.985442739e-05,-0.0006902973983,2.577826977,-0.008899990469,0.002922958694,0.01542924996,0.2003028542,0.003440845292
10.98556995,-2.272876024,0.7976064682,3.161068889e-05,-0.002747416263,-0.06522278488,7.894640446,-0.514582634,-0.0006082503241,7.911393166,0.001056970446,-0.0008128715563,-0.005150910933,9.985442739e-05,0,1,0,0.02019906044,11.11727524,-2.281469107,0.7976085544,2.061888151e-05,-0.002848028959,-0.06522513825,7.946015835,-0.5181179047,-0.0006088034716,7.962889671,0.0008963980945,-0.0006618529442,-0.006054454949,0.0001433450088,-0.0005441741669,2.549450636,-0.007949495688,0.002153099282,0.009087675251,-0.0543715395,0.002617083257
11.11727524,-2.281469107,0.7976085544,2.061888154e-05,-0.002848028904,-0.06522513926,7.946015835,-0.5181179047,-0.0006088034716,7.962889671,0.0008963980945,-0.0006618529442,-0.006054454949,0.0001433450088,0,1,0,0.02015256882,11.24971676,-2.290112019,0.7976126075,1.136694486e-05,-0.002991080537,-0.06522699036,7.997837543,-0.5216644406,-0.0006152274436,8.014832497,0.0007498660707,-0.0005547819892,-0.008572670631,0.0001142039328,-0.0004590946482,2.577479124,-0.007271133829,-0.001446022885,0.006416453049,-0.1509093791,-0.001746340422
11.24971676,-2.290112019,0.7976126075,1.136694482e-05,-0.002991080517,-0.065226987,7.997837543,-0.5216644406,-0.0006152274436,8.014832497,0.0007498660707,-0.0005547819892,-0.008572670631,0.0001142039328,0,1,0,0.01971936226,11.38271904,-2.298793793,0.7976225615,4.643845914e-06,-0.003072857553,-0.06522934496,8.05056572,-0.525241673,-0.0006182059296,8.067681313,0.000636150362,-0.0004040874774,-0.004909787327,0.0001431198179,-0.0003409389756,2.680046797,-0.005766703282,0.001466370188,0.00904749427,0.2199145555,0.001736070612
11.38271904,-2.298793793,0.7976225615,4.643845841e-06,-0.003072857624,-0.06522934139,8.05056572,-0.525241673,-0.0006182059296,8.067681313,0.000636150362,-0.0004040874774,-0.004909787327,0.0001431198179,0,1,0,0.02035236359,11.6519556,-2.316369534,0.7976315022,-4.261055348e-06,-0.003305315678,-0.06523406522,8.157611847,-0.5324689746,-0.0006188888801,8.174971581,0.0004403879866,-0.0002241210896,-0.006250154693,0.0001358988229,-0.0004375364515,5.271636963,-0.009618655778,-0.0003547988308,0.005255777389,0.08777813613,-0.0004484920646
11.6519556,-2.316369534,0.7976315022,-4.261055437e-06,-0.003305315739,-0.06523406506,8.157611847,-0.5324689746,-0.0006188888801,8.174971581,0.0004403879866,-0.0002241210896,-0.006250154693,0.0001358988229,0,1,0,0.02012968063,11.78768158,-2.325231552,0.7976360917,-6.392230157e-06,-0.00337362269,-0.06523600745,8.212268829,-0.536139369,-0.0006209618878,8.229751587,0.0003568026295,-0.0001278092968,-0.004083991516,0.0001140644235,-0.0001058722555,2.721354961,-0.004152344074,-0.001084686839,0.005758410785,0.1295132935,-0.00130546256
11.78768158,-2.325231552,0.7976360917,-6.392230262e-06,-0.003373622661,-0.06523600966,8.212268829,-0.536139369,-0.0006209618878,8.229751587,0.0003568026295,-0.0001278092968,-0.004083991516,0.0001140644235,0,1,0,0.01983523369,11.92439461,-2.334158421,0.7976353168,-7.456987575e-06,-0.003455638649,-0.06523904381,8.267669678,-0.5398502946,-0.0006227067788,8.285276413,0.0002904437133,-6.457908603e-05,-0.004925476387,0.0001861718047,-5.368009806e-05,2.799302816,-0.003345507197,0.003635318018,0.003797274549,-0.05053516477,0.004330390599
11.92439461,-2.334158421,0.7976353168,-7.456987532e-06,-0.003455638653,-0.06523904204,8.267669678,-0.5398502946,-0.0006227067788,8.285276413,0.0002904437133,-6.457908603e-05,-0.004925476387,0.0001861718047,0,1,0,0.01988315582,12.06249714,-2.343176842,0.7976365685,-7.989707834e-06,-0.003572702091,-0.06524183089,8.323278427,-0.5435665846,-0.00062886253,8.34100914,0.0002305761154,-3.255432603e-05,-0.007017488591,0.0001715618564,-2.679254249e-05,2.803012133,-0.00301097054,-0.0007347902283,0.001919756178,-0.1254077554,-0.0008758079493
12.06249714,-2.343176842,0.7976365685,-7.989708138e-06,-0.003572702175,-0.06524182856,8.323278427,-0.5435665846,-0.00062886253,8.34100914,0.0002305761154,-3.255432603e-05,-0.007017488591,0.0001715618564,0,1,0,0.02015995979,12.20116997,-2.352233648,0.797642827,-7.456393596e-06,-0.003638863479,-0.06524462006,8.379368782,-0.5473042727,-0.0006271411548,8.397223473,0.0001811286929,3.138315151e-05,-0.003967613447,0.000164452169,2.645414679e-05,2.788414955,-0.00245275395,-0.0003526637738,0.003834263189,0.1828977913,-0.0004263604642
12.20116997,-2.352233648,0.797642827,-7.456393632e-06,-0.003638863564,-0.06524462253,8.379368782,-0.5473042727,-0.0006271411548,8.397223473,0.0001811286929,3.138315151e-05,-0.003967613447,0.000164452169,0,1,0,0.0199379921,12.48124981,-2.370527506,0.7976418734,-4.793824446e-06,-0.003792047155,-0.06525020147,8.49332428,-0.5548778176,-0.000637535064,8.511429787,0.0001009718762,9.586780652e-05,-0.004701502621,0.0001656184322,0.0001335424895,5.728075027,-0.00402030535,5.849451918e-05,0.001988625387,-0.01228337828,-0.0003155174199
12.48124981,-2.370527506,0.7976418734,-4.793824246e-06,-0.003792047268,-0.06525020301,8.49332428,-0.5548778176,-0.000637535064,8.511429787,0.0001009718762,9.586780652e-05,-0.004701502621,0.0001656184322,0,1,0,0.01979184151,12.62331772,-2.379808187,0.7976422906,-2.663237691e-06,-0.003895163045,-0.06525409182,8.550349236,-0.5586598516,-0.0006452064263,8.568580627,7.85601369e-05,0.0001231135102,-0.006000088062,0.0002219838934,0.0001076497356,2.887595892,-0.00113237265,0.002847913885,0.001585372956,-0.07556208223,0.003279793309
12.62331772,-2.379808187,0.7976422906,-2.663237638e-06,-0.00389516307,-0.06525409222,8.550349236,-0.5586598516,-0.0006452064263,8.568580627,7.85601369e-05,0.0001231135102,-0.006000088062,0.0002219838934,0,1,0,0.02032232285,12.76495743,-2.389061689,0.7976463437,-5.323210661e-07,-0.003953933221,-0.06525679742,8.609793663,-0.5625976324,-0.0007638083771,8.628154755,4.872223144e-05,0.0001298625575,-0.003599782242,0.0001679404377,0.000104855957,2.931462526,-0.001468233066,-0.002659314778,0.0004133883631,0.1470220089,-0.00331023545
12.76495743,-2.389061689,0.7976463437,-5.32321053e-07,-0.00395393325,-0.06525679678,8.609793663,-0.5625976324,-0.0007638083771,8.628154755,4.872223144e-05,0.0001298625575,-0.003599782242,0.0001679404377,0,1,0,0.01972723007,12.91270447,-2.398714781,0.7976424098,1.612684372e-06,-0.004034637842,-0.0652596717,8.666747093,-0.5663627982,-0.0009112586849,8.685233116,3.049328916e-05,0.0001258089178,-0.004759472329,0.0001687157055,0.0001087332275,2.89337945,-0.0009240497602,3.92993752e-05,-0.000239057641,-0.06839106977,4.572031685e-05
12.91270447,-2.398714781,0.7976424098,1.6126844e-06,-0.004034637939,-0.0652596727,8.666747093,-0.5663627982,-0.0009112586849,8.685233116,3.049328916e-05,0.0001258089178,-0.004759472329,0.0001687157055,0.06292113662,1,0,0.02000832558,13.05425358,-2.407963753,0.7976390719,3.974617649e-06,-0.004079222241,-0.06526322601,8.726113319,-0.5702860951,-0.001133517479,8.744729042,1.81017258e-05,0.0001452499127,-0.002757994458,0.0002138468262,0.0001180475228,2.973558426,-0.0006193203735,0.002255617175,0.001202649553,0.1238144711,0.002791879931
13.05425358,-2.407963753,0.7976390719,3.974617812e-06,-0.004079222213,-0.06526322663,8.726113319,-0.5702860951,-0.001133517479,8.744729042,1.81017258e-05,0.0001452499127,-0.002757994458,0.0002138468262,0.1918377429,1,0,0.02029585838,13.34396839,-2.427408218,0.7976161838,-0.000224238305,-0.00417280224,-0.06661758931,8.83413887,-0.6408017874,-0.001218111953,8.857200623,-0.05130660161,-0.009323553182,-0.001813310897,0.05607037246,-0.01124431007,5.541602612,-2.528826475,2.752114534,-0.2772273719,0.1182227731,1.853851557
13.34396839,-2.427408218,0.7976161838,-0.0002242383052,-0.004172802437,-0.06661758572,8.83413887,-0.6408017874,-0.001218111953,8.857200623,-0.05130660161,-0.009323553182,-0.001813310897,0.05607037246,0.480414331,1,0,0.0198404789,13.49185658,-2.438201666,0.7976000905,-0.0005715140986,-0.004204273292,-0.0686851813,8.88247776,-0.7026222944,-0.001248476794,8.909755707,-0.09135058522,-0.02131707594,-0.001813914627,0.1238156855,-0.01750339754,2.648881912,-2.018297195,3.414499998,-0.718229413,-3.615422611e-05,4.056912899
13.49185658,-2.438201666,0.7976000905,-0.0005715140724,-0.004204273224,-0.06868518144,8.88247776,-0.7026222944,-0.001248476794,8.909755707,-0.09135058522,-0.02131707594,-0.001813914627,0.1238156855,0.7402713895,1,0,0.01999783516,13.6391449,-2.450381279,0.7975834608,-0.0009821731904,-0.00421094842,-0.0715228035,8.929421425,-0.7712675333,-0.001241961727,8.961708069,-0.1311827451,-0.0247146897,-0.0002273873397,0.1659487784,-0.02053517848,2.597899199,-1.991823554,2.106882811,-0.1986968964,0.09278219193,2.463998318
13.6391449,-2.450381279,0.7975834608,-0.0009821731364,-0.004210948478,-0.07152280211,8.929421425,-0.7712675333,-0.001241961727,8.961708069,-0.1311827451,-0.0247146897,-0.0002273873397,0.1659487784,0.7402713895,1,0,0.01981687546,13.78801823,-2.463646889,0.7975631356,-0.001549959915,-0.00420856505,-0.0755753659,8.973421097,-0.8541377783,-0.001264492748,9.012296677,-0.1741754562,-0.03609379381,0.0005347763654,0.2500932813,-0.0286516808,2.55280447,-2.169499874,4.246103287,-0.7022674084,0.04703733698,5.193022251
13.78801823,-2.463646889,0.7975631356,-0.001549959881,-0.004208565224,-0.07557536662,8.973421097,-0.8541377783,-0.001264492748,9.012296677,-0.1741754562,-0.03609379381,0.0005347763654,0.2500932813,0.8917396069,1,0,0.02028918266,13.94120216,-2.47885108,0.7975409627,-0.002329200553,-0.004184603294,-0.08091333075,9.009538651,-0.9465491176,-0.00128217903,9.056567192,-0.2152557224,-0.04746238887,0.00215498032,0.3160802722,-0.03840670735,2.181976318,-2.024737358,3.252323866,-0.6731469035,0.09593404084,3.907161713
13.94120216,-2.47885108,0.7975409627,-0.002329200506,-0.004184603225,-0.08091332763,9.009538651,-0.9465491176,-0.00128217903,9.056567192,-0.2152557224,-0.04746238887,0.00215498032,0.3160802722,0.910114944,1,0,0.02007102966,14.23953819,-2.514210701,0.7974916697,-0.004228567235,-0.004099965067,-0.09538970981,9.072949409,-1.163344979,-0.001328630606,9.142505646,-0.2939020991,-0.06673892587,0.005577984266,0.4803313911,-0.09463225305,4.281716347,-3.918402672,8.183492661,-0.9134167433,0.1671550125,5.202525139
14.23953819,-2.514210701,0.7974916697,-0.004228567239,-0.004099965096,-0.09538970888,9.072949409,-1.163344979,-0.001328630606,9.142505646,-0.2939020991,-0.06673892587,0.005577984266,0.4803313911,0.9357504845,1,0,0.01968741417,14.38903522,-2.535251856,0.7974625826,-0.005427521224,-0.004034041877,-0.1047463293,9.096744537,-1.286821008,-0.001379966387,9.181429863,-0.3286589384,-0.0739550516,0.00697898306,0.5594881177,-0.0608995147,1.977111697,-1.765434504,4.020676613,-0.4315271676,0.08378028125,4.733603477
14.38903522,-2.535251856,0.7974625826,-0.005427521188,-0.004034041893,-0.1047463268,9.096744537,-1.286821008,-0.001379966387,9.181429863,-0.3286589384,-0.0739550516,0.00697898306,0.5594881177,0.9306105375,0.9408904314,0,0.0200574398,14.53979588,-2.55873704,0.7974326015,-0.006579073931,-0.003984570521,-0.1150888209,9.11711216,-1.417695761,-0.001451189746,9.219599724,-0.3613542914,-0.07180438191,0.007074333727,0.6225800514,-0.05741274729,1.903027534,-1.630086064,3.145562649,0.1294704974,0.005740118213,3.798139811
14.53979588,-2.55873704,0.7974326015,-0.006579074077,-0.003984570503,-0.1150888205,9.11711216,-1.417695761,-0.001451189746,9.219599724,-0.3613542914,-0.07180438191,0.007074333727,0.6225800514,0.9326665401,0.7382797003,0,0.02002573013,14.69186878,-2.584104776,0.7974042892,-0.008019843113,-0.003882407484,-0.1269850494,9.128857613,-1.563307047,-0.001488915063,9.25333786,-0.3946042359,-0.08897678554,0.01182187255,0.7117733955,-0.07194589078,1.684739351,-1.660361171,4.453937054,-1.027566195,0.2840843201,5.337171555
14.69186878,-2.584104776,0.7974042892,-0.008019843139,-0.003882407444,-0.1269850433,9.128857613,-1.563307047,-0.001488915063,9.25333786,-0.3946042359,-0.08897678554,0.01182187255,0.7117733955,0.9357504845,0.614053309,0,0.02032208443,14.84307957,-2.612699509,0.7973700762,-0.009369532524,-0.003814457923,-0.1398492699,9.136605263,-1.711418271,-0.001622531679,9.285965919,-0.4211229682,-0.0841769278,0.01134236623,0.7740808725,-0.06641490757,1.605546832,-1.304921865,3.065998316,0.2888541222,-0.02885655873,3.749646902
14.84307957,-2.612699509,0.7973700762,-0.009369532578,-0.003814457916,-0.1398492754,9.136605263,-1.711418271,-0.001622531679,9.285965919,-0.4211229682,-0.0841769278,0.01134236623,0.7740808725,0.8978433013,0.433062464,0,0.01975631714,15.14641857,-2.677602768,0.797300756,-0.01272564763,-0.003541350434,-0.1698602544,9.122850418,-2.0428617,-0.001996547217,9.336893082,-0.471292913,-0.1059885621,0.01999991573,0.9378045201,-0.1698755473,2.577765942,-2.539438009,8.287154198,-0.2410044819,0.1295422763,4.465537071
15.14641857,-2.677602768,0.797300756,-0.01272564754,-0.003541350365,-0.1698602587,9.122850418,-2.0428617,-0.001996547217,9.336893082,-0.471292913,-0.1059885621,0.01999991573,0.9378045201,0.867164135,0.3862245679,0,0.02001428604,15.29751396,-2.714896679,0.7972595692,-0.01428626073,-0.003448843858,-0.1863419605,9.104096413,-2.212265968,-0.002564921975,9.356348038,-0.4872941673,-0.09662765265,0.01959193312,0.9844482541,-0.07797496021,0.9720534682,-0.7994916439,2.33052206,0.5592243075,-0.02437303774,2.786514521
15.29751396,-2.714896679,0.7972595692,-0.01428626105,-0.003448843956,-0.1863419563,9.104096413,-2.212265968,-0.002564921975,9.356348038,-0.4872941673,-0.09662765265,0.01959193312,0.9844482541,0.6983165145,0.2592675686,0,0.02011656761,15.44862652,-2.754342318,0.7972167134,-0.01594487304,-0.003311634351,-0.2039944947,9.072404861,-2.396137953,-0.002782092895,9.369706154,-0.5085428953,-0.1027930677,0.02506249398,1.056505322,-0.08245004714,0.6640355587,-1.056280017,3.581976414,-0.3690956831,0.3274978995,4.313732624
