x_pos,y_pos,z_pos,roll,pitch,yaw,u_x,u_y,u_z,comp_u_x,comp_u_y,roll_mder,pitch_mder,yaw_mder,steer,throttle,brake,time_step,act_x_pos,act_y_pos,act_z_pos,act_roll,act_pitch,act_yaw,act_u_x,act_u_y,act_u_z,act_comp_u_x,act_comp_u_y,act_roll_mder,act_pitch_mder,act_yaw_mder,accel_roll,accel_x,accel_y,accel_yaw
0.041303996,-8.267164162e-07,0.7980216146,5.889548265e-05,-0.002995252144,-1.521197873e-06,0.7465689778,-4.206559242e-05,0.00276847207,0.7465689778,-4.092991367e-05,7.645015103e-06,-0.02403246611,4.771380191e-05,0,1,0,0.05866098404,0.09353254735,-4.088878541e-06,0.7982156277,5.938047108e-05,-0.004222392666,-7.037462442e-06,1.096964717,-6.227738777e-05,0.00124878122,1.096964717,-5.455753853e-05,7.081669992e-06,-0.01832569949,0.0001210279443,8.267648809e-06,5.973233223,-0.0002323115623,0.001249793917
0.09353254735,-4.088878541e-06,0.7982156277,5.938047252e-05,-0.00422239257,-7.037462638e-06,1.096964717,-6.227738777e-05,0.00124878122,1.096964717,-5.455753853e-05,7.081669992e-06,-0.01832569949,0.0001210279443,0,1,0,0.04338097572,0.1463182569,-7.569789886e-06,0.798304975,5.97299673e-05,-0.004926680886,-1.194828914e-05,1.355675936,-7.663412543e-05,0.0008304052753,1.355675936,-6.043611575e-05,8.699910722e-06,-0.01568780281,9.541300824e-05,8.056406841e-06,5.963702202,-0.0001355104905,-0.0005904647405
0.1463182569,-7.569789886e-06,0.798304975,5.972996587e-05,-0.004926681053,-1.194828928e-05,1.355675936,-7.663412543e-05,0.0008304052753,1.355675936,-6.043611575e-05,8.699910722e-06,-0.01568780281,9.541300824e-05,0,1,0,0.05887389183,0.2334020585,-1.325815902e-05,0.7984143496,6.013382733e-05,-0.005617975836,-2.04837766e-05,1.686959743,-9.318831871e-05,0.002699976787,1.686959743,-5.86330134e-05,5.085112207e-06,-0.01015144587,0.0001541838137,6.859771929e-06,5.627007008,3.06265174e-05,0.0009982490446
0.2334020585,-1.325815902e-05,0.7984143496,6.013382881e-05,-0.005617975723,-2.04837761e-05,1.686959743,-9.318831871e-05,0.002699976787,1.686959743,-5.86330134e-05,5.085112207e-06,-0.01015144587,0.0001541838137,0,1,0,0.04354214668,0.3099048734,-1.863241232e-05,0.7985178828,5.889832138e-05,-0.005999684096,-2.748796651e-05,1.928807974,-9.001044964e-05,0.0009470067453,1.928807974,-3.699144145e-05,-4.116472701e-05,-0.007746207528,0.0001834019786,-2.837497777e-05,5.554347992,0.0004970258451,0.0006710317684
0.3099048734,-1.863241232e-05,0.7985178828,5.889832028e-05,-0.005999683868,-2.748796578e-05,1.928807974,-9.001044964e-05,0.0009470067453,1.928807974,-3.699144145e-05,-4.116472701e-05,-0.007746207528,0.0001834019786,0,1,0,0.05796813965,0.428268373,-2.716183553e-05,0.7985906005,5.591275316e-05,-0.006369590202,-3.693030967e-05,2.245601654,-9.914382827e-05,-0.0004865229421,2.245601654,-1.621306546e-05,-3.979523535e-05,-0.005313806236,0.0001903284719,-5.150358629e-05,5.464962006,0.000358444755,0.0001194879369
0.428268373,-2.716183553e-05,0.7985906005,5.591275476e-05,-0.006369590294,-3.693030885e-05,2.245601654,-9.914382827e-05,-0.0004865229421,2.245601654,-1.621306546e-05,-3.979523535e-05,-0.005313806236,0.0001903284719,0,1,0,0.04314184189,0.5304133296,-3.396957982e-05,0.7985838652,5.461071264e-05,-0.006564974505,-4.342215838e-05,2.480948925,-0.0001294855902,-1.783112384e-05,2.480948925,-2.175743248e-05,-2.616428719e-05,-0.004059645347,0.0001334260451,-3.018049392e-05,5.455197334,-0.0001285148464,-0.001318961498
0.5304133296,-3.396957982e-05,0.7985838652,5.461071123e-05,-0.006564974319,-4.342215834e-05,2.480948925,-0.0001294855902,-1.783112384e-05,2.480948925,-2.175743248e-05,-2.616428719e-05,-0.004059645347,0.0001334260451,0,1,0,0.05916500092,0.642685771,-4.174351488e-05,0.7985764742,5.374671915e-05,-0.006702899211,-5.058804221e-05,2.70950985,-0.0001602201664,0.002416759031,2.70950985,-2.315136953e-05,-1.78075079e-05,-0.002800585236,0.0001558880467,-1.460309431e-05,3.863110304,-2.356016194e-05,0.0003796501551
0.642685771,-4.174351488e-05,0.7985764742,5.374672037e-05,-0.006702899002,-5.058804163e-05,2.70950985,-0.0001602201664,0.002416759031,2.70950985,-2.315136953e-05,-1.78075079e-05,-0.002800585236,0.0001558880467,0,1,0,0.04316306114,0.8081652522,-5.40855508e-05,0.798571229,5.301958428e-05,-0.006817460151,-5.994530743e-05,3.011058331,-0.0002060037805,0.003212559968,3.011058331,-2.550495992e-05,-1.036435151e-05,-0.001561649493,0.000185048295,-1.684625931e-05,6.986262798,-5.452788537e-05,0.0006755834329
0.8081652522,-5.40855508e-05,0.798571229,5.301958299e-05,-0.00681746006,-5.994530875e-05,3.011058331,-0.0002060037805,0.003212559968,3.011058331,-2.550495992e-05,-1.036435151e-05,-0.001561649493,0.000185048295,0,1,0,0.04423880577,0.9422095418,-6.482988101e-05,0.798584938,5.2783687e-05,-0.006862878074,-6.727930458e-05,3.234352589,-0.0002442149853,0.0002715193841,3.234352589,-2.66099978e-05,-3.852404006e-06,-0.0008343889494,0.0001271016517,-5.332331966e-06,5.047474861,-2.497892638e-05,-0.001309860032
0.9422095418,-6.482988101e-05,0.798584938,5.278368553e-05,-0.006862877868,-6.727930304e-05,3.234352589,-0.0002442149853,0.0002715193841,3.234352589,-2.66099978e-05,-3.852404006e-06,-0.0008343889494,0.0001271016517,0,1,0,0.05760097504,1.138270259,-8.184999024e-05,0.7985733151,5.274570877e-05,-0.006883978433,-7.756362263e-05,3.526210546,-0.000298993109,0.0006559571484,3.526210546,-2.548744851e-05,-1.634029445e-07,-0.0001596808579,0.0001597259106,-6.593076023e-07,5.066892624,1.948837235e-05,0.0005663838238
1.138270259,-8.184999024e-05,0.7985733151,5.274570867e-05,-0.006883978378,-7.756362174e-05,3.526210546,-0.000298993109,0.0006559571484,3.526210546,-2.548744851e-05,-1.634029445e-07,-0.0001596808579,0.0001597259106,0,1,0,0.04406929016,1.296385169,-9.67505548e-05,0.7985387444,5.274869283e-05,-0.00687992589,-8.56557688e-05,3.738887787,-0.00034227781,0.00382762868,3.738887787,-2.202050746e-05,-1.2362392e-06,4.76739624e-05,0.0001909828134,6.771519168e-08,4.825973988,7.867022941e-05,0.0007092672167
1.296385169,-9.67505548e-05,0.7985387444,5.274869181e-05,-0.006879925728,-8.565576718e-05,3.738887787,-0.00034227781,0.00382762868,3.738887787,-2.202050746e-05,-1.2362392e-06,4.76739624e-05,0.0001909828134,0,1,0,0.05864500999,1.517178059,-0.0001192745549,0.7985673547,5.272757458e-05,-0.006848692106,-9.593875651e-05,4.024357319,-0.0004071887524,-0.004155576695,4.024357319,-2.109692468e-05,-1.428444193e-06,0.0008367224364,0.0001805045904,-3.600858349e-07,4.867754936,1.574870112e-05,-0.000178672024
1.517178059,-0.0001192745549,0.7985673547,5.272757335e-05,-0.006848691963,-9.593875438e-05,4.024357319,-0.0004071887524,-0.004155576695,4.024357319,-2.109692468e-05,-1.428444193e-06,0.0008367224364,0.0001805045904,0,1,0,0.04322195053,1.697897315,-0.0001391497208,0.7985343933,5.282306101e-05,-0.006819128031,-0.000103693368,4.229444981,-0.0004585821007,0.001386360964,4.229444981,-2.001670509e-05,2.13543899e-07,0.0006961644394,0.0001520640799,2.209239938e-06,4.744988441,2.499238326e-05,-0.0006580108311
1.697897315,-0.0001391497208,0.7985343933,5.282305938e-05,-0.006819128059,-0.0001036933681,4.229444981,-0.0004585821007,0.001386360964,4.229444981,-2.001670509e-05,2.13543899e-07,0.0006961644394,0.0001520640799,0,1,0,0.05817914009,1.94856751,-0.0001687791955,0.7985262275,5.292421349e-05,-0.006764888419,-0.0001151562775,4.504899979,-0.0005338716437,-0.001616306254,4.504899979,-1.51041404e-05,-1.089375701e-06,0.000998364063,0.0001964498661,1.738666356e-06,4.734600544,8.443859406e-05,0.0007629158208
1.94856751,-0.0001687791955,0.7985262275,5.292421338e-05,-0.006764888298,-0.0001151562756,4.504899979,-0.0005338716437,-0.001616306254,4.504899979,-1.51041404e-05,-1.089375701e-06,0.000998364063,0.0001964498661,0,1,0,0.04357671738,2.147835016,-0.0001940944785,0.7984993458,5.299534191e-05,-0.006722449661,-0.0001233319136,4.705692768,-0.0005933860084,0.0005903645651,4.705692768,-1.3023885e-05,8.577148947e-08,0.0009297552751,0.000149758489,1.632259909e-06,4.607800007,4.773777255e-05,-0.00107147533
2.147835016,-0.0001940944785,0.7984993458,5.299534314e-05,-0.006722449791,-0.0001233319199,4.705692768,-0.0005933860084,0.0005903645651,4.705692768,-1.3023885e-05,8.577148947e-08,0.0009297552751,0.000149758489,0,1,0,0.04303503036,2.356122494,-0.000222106275,0.7984624505,5.311940833e-05,-0.006674886026,-0.0001321819497,4.906950951,-0.0006577852764,0.0009042791207,4.906950951,-9.174962543e-06,1.657041821e-06,0.001021695905,0.0001978057117,2.882888566e-06,4.676612854,8.943696594e-05,0.001116467756
2.356122494,-0.000222106275,0.7984624505,5.311940913e-05,-0.006674886215,-0.0001321819436,4.906950951,-0.0006577852764,0.0009042791207,4.906950951,-9.174962543e-06,1.657041821e-06,0.001021695905,0.0001978057117,0,1,0,0.05922698975,2.649066925,-0.0002641913306,0.7988950014,5.319292403e-05,-0.006640910351,-0.0001444882276,5.183283806,-0.000749014027,0.01821821928,5.183283806,-9.056650185e-08,2.156484697e-07,0.0005609419895,0.0002113988594,1.241239829e-06,4.66565752,0.0001533827017,0.0002295093436
2.649066925,-0.0002641913306,0.7988950014,5.319292541e-05,-0.006640910171,-0.0001444882218,5.183283806,-0.000749014027,0.01821821928,5.183283806,-9.056650185e-08,2.156484697e-07,0.0005609419895,0.0002113988594,0,1,0,0.04351782799,2.880793333,-0.0002996307448,0.7993102074,5.323207308e-05,-0.006627440021,-0.0001540132326,5.389544964,-0.0008228805964,2.337122532e-05,5.389544964,7.180664852e-06,2.79017172e-07,-0.0002953586809,0.000262450194,8.995779126e-07,4.739693165,0.0001670862694,0.001173113124
2.880793333,-0.0002996307448,0.7993102074,5.32320737e-05,-0.006627439987,-0.0001540132362,5.389544964,-0.0008228805964,2.337122532e-05,5.389544964,7.180664852e-06,2.79017172e-07,-0.0002953586809,0.000262450194,0,1,0,0.05832505226,3.200116158,-0.0003514343407,0.7992321849,5.331985596e-05,-0.006626128497,-0.0001657303832,5.670076847,-0.0009273493779,-0.002006622264,5.670076847,1.235461332e-05,-1.52046141e-07,-0.003441926558,0.0002620565647,1.50505241e-06,4.809800625,8.870885358e-05,-6.748889064e-06
3.200116158,-0.0003514343407,0.7992321849,5.331985449e-05,-0.006626128685,-0.0001657303801,5.670076847,-0.0009273493779,-0.002006622264,5.670076847,1.235461332e-05,-1.52046141e-07,-0.003441926558,0.0002620565647,0,1,0,0.04414510727,3.450717449,-0.0003944513155,0.799151361,5.337538478e-05,-0.006508468924,-0.0001746625786,5.839347363,-0.001004092512,-0.001907223603,5.839347363,1.58229559e-05,5.139845598e-07,0.007839278318,0.0001446967071,1.257903591e-06,3.834411621,7.856685988e-05,-0.002658501966
3.450717449,-0.0003944513155,0.799151361,5.33753846e-05,-0.006508469116,-0.0001746625785,5.839347363,-0.001004092512,-0.001907223603,5.839347363,1.58229559e-05,5.139845598e-07,0.007839278318,0.0001446967071,0,1,0,0.05833721161,3.794934511,-0.0004567825818,0.7990410328,5.348230973e-05,-0.006476163284,-0.0001878119336,6.10413456,-0.001119989553,-0.00161150808,6.10413456,2.643978041e-05,-3.962270512e-07,0.006112071685,0.0001825457293,1.832880343e-06,4.538907528,0.0001819906029,0.0006487972569
3.794934511,-0.0004567825818,0.7990410328,5.348230843e-05,-0.006476163398,-0.0001878119365,6.10413456,-0.001119989553,-0.00161150808,6.10413456,2.643978041e-05,-3.962270512e-07,0.006112071685,0.0001825457293,0,1,0,0.04346680641,4.06955862,-0.0005094259977,0.7989545465,5.351390153e-05,-0.006531953174,-0.0001980974302,6.33816433,-0.001220099628,-0.00140955043,6.338164806,3.547446249e-05,-6.23350104e-07,-0.005284532439,0.000231908125,7.268326954e-07,5.384114265,0.0002078524412,0.001135634258
4.06955862,-0.0005094259977,0.7989545465,5.351390064e-05,-0.006531953346,-0.0001980974339,6.33816433,-0.001220099628,-0.00140955043,6.338164806,3.547446249e-05,-6.23350104e-07,-0.005284532439,0.000231908125,0,1,0,0.04350614548,4.348630428,-0.0005655669956,0.7989023328,5.352849912e-05,-0.006419180944,-0.0002078725454,6.50369978,-0.001316994894,-0.001273114816,6.503700256,3.494577686e-05,-5.513646215e-07,0.006174542475,0.0002061436389,3.355498279e-07,3.804875135,-1.215197608e-05,-0.0005922033451
4.348630428,-0.0005655669956,0.7989023328,5.352849985e-05,-0.006419180892,-0.000207872552,6.50369978,-0.001316994894,-0.001273114816,6.503700256,3.494577686e-05,-5.513646215e-07,0.006174542475,0.0002061436389,0,1,0,0.05896067619,4.730566502,-0.0006454443792,0.7987028956,5.354855904e-05,-0.005179524163,-0.0002131495807,6.496127605,-0.001366511686,-0.001046838239,6.496128082,1.813522249e-05,9.492158597e-07,0.02915869281,-7.215330697e-05,3.402130062e-07,-0.1284275353,-0.0002851146855,-0.004720043391
4.730566502,-0.0006454443792,0.7987028956,5.354855966e-05,-0.005179523956,-0.0002131495858,6.496127605,-0.001366511686,-0.001046838239,6.496128082,1.813522249e-05,9.492158597e-07,0.02915869281,-7.215330697e-05,0,1,0,0.04381418228,5.017086506,-0.0007060542703,0.7985075712,5.364111438e-05,-0.004392742685,-0.0002152358414,6.531662464,-0.001393710962,-0.0009044138715,6.531662941,1.213686664e-05,2.426249466e-06,0.01029344555,8.103182336e-05,2.112437414e-06,0.8110355139,-0.000136904433,0.003496245248
5.017086506,-0.0007060542703,0.7985075712,5.364111348e-05,-0.004392742645,-0.0002152358356,6.531662464,-0.001393710962,-0.0009044138715,6.531662941,1.213686664e-05,2.426249466e-06,0.01029344555,8.103182336e-05,0,1,0,0.05895996094,5.395900249,-0.0007870980771,0.7983096242,5.399251784e-05,-0.003423929027,-0.0002150416898,6.528185368,-0.001404891722,-0.0008375194739,6.528185844,-1.059747092e-06,6.442458471e-06,0.006526537705,-1.558526492e-05,5.960050657e-06,-0.05897386,-0.0002238233137,-0.001638689777
5.395900249,-0.0007870980771,0.7983096242,5.399251677e-05,-0.003423928982,-0.000215041684,6.528185368,-0.001404891722,-0.0008375194739,6.528185844,-1.059747092e-06,6.442458471e-06,0.006526537705,-1.558526492e-05,0,1,0,0.04285097122,5.682197571,-0.000849154545,0.7983052731,5.440756761e-05,-0.003938793483,-0.0002196926503,6.76035738,-0.001479594852,-0.0008551981882,6.760357857,5.605980732e-06,1.003392572e-05,-0.01331206504,0.0001383682247,9.685914847e-06,5.41812706,0.0001555560448,0.003592765424
5.682197571,-0.000849154545,0.7983052731,5.440756649e-05,-0.00393879367,-0.0002196926507,6.76035738,-0.001479594852,-0.0008551981882,6.760357857,5.605980732e-06,1.003392572e-05,-0.01331206504,0.0001383682247,0,1,0,0.05883312225,6.082725525,-0.0009392860229,0.798388958,5.498298654e-05,-0.004849672084,-0.0002310987392,7.096893311,-0.001627106802,-0.0008483034908,7.096893787,1.297625022e-05,6.213982488e-06,-0.01080998778,0.000202334224,9.780545952e-06,5.720178127,0.0001252741495,0.001087244716
6.082725525,-0.0009392860229,0.798388958,5.49829856e-05,-0.004849671852,-0.0002310987329,7.096893311,-0.001627106802,-0.0008483034908,7.096893787,1.297625022e-05,6.213982488e-06,-0.01080998778,0.000202334224,0,1,0,0.04393005371,6.400567532,-0.001014459995,0.7984303832,5.525479522e-05,-0.005437731171,-0.0002426640893,7.364188194,-0.001759914216,-0.0008162615122,7.364188671,2.710977969e-05,4.784795692e-06,-0.01414532866,0.000227627912,6.187327017e-06,6.084556103,0.0003217280318,0.0005757718463
6.400567532,-0.001014459995,0.7984303832,5.525479355e-05,-0.005437731277,-0.0002426640858,7.364188194,-0.001759914216,-0.0008162615122,7.364188671,2.710977969e-05,4.784795692e-06,-0.01414532866,0.000227627912,0.01280653011,1,0,0.04366469383,6.729133129,-0.00130953698,0.7984648943,-4.793642621e-05,-0.005823492051,-0.0008369003962,7.596811295,-0.0285914205,-0.0007944195531,7.596832275,-0.02223363705,-0.0049386709,-0.006919268053,0.0278769955,-0.002363264561,5.327956676,-0.5098111033,0.6332202554
6.729133129,-0.00130953698,0.7984648943,-4.793642802e-05,-0.005823492073,-0.0008369003772,7.596811295,-0.0285914205,-0.0007944195531,7.596832275,-0.02223363705,-0.0049386709,-0.006919268053,0.0278769955,0.1795660853,1,0,0.05785536766,7.176254749,-0.006255453452,0.7984798551,-0.0009113330827,-0.006214618708,-0.006596987512,7.910457611,-0.1581270695,-0.0007787969662,7.911328793,-0.1059388146,-0.02380643226,-0.004684690386,0.1589274704,-0.01492336299,5.435909271,-1.44680059,2.265139341
7.176254749,-0.006255453452,0.7984798551,-0.0009113330743,-0.006214618683,-0.006596987601,7.910457611,-0.1581270695,-0.0007787969662,7.911328793,-0.1059388146,-0.02380643226,-0.004684690386,0.1589274704,0.2409564704,1,0,0.04412484169,7.527450562,-0.0172995124,0.7984726429,-0.002252501763,-0.00638616045,-0.01675894828,8.132539749,-0.3167087436,-0.0007630073815,8.136705399,-0.1803778261,-0.03783199936,-0.002904413035,0.2811837494,-0.03039486706,5.107703209,-1.687009096,2.770690441
7.527450562,-0.0172995124,0.7984726429,-0.002252501668,-0.006386160385,-0.01675894856,8.132539749,-0.3167087436,-0.0007630073815,8.136705399,-0.1803778261,-0.03783199936,-0.002904413035,0.2811837494,0.4527549148,1,0,0.05815505981,8.004553795,-0.04574367031,0.798445642,-0.004836299506,-0.006467103501,-0.0387347222,8.395177841,-0.5980916023,-0.0008173998795,8.412041664,-0.2725393772,-0.05149551481,0.001422516769,0.4304117858,-0.04442945868,4.734519482,-1.58475554,2.56603694
8.004553795,-0.04574367031,0.798445642,-0.004836299457,-0.006467103492,-0.03873472288,8.395177841,-0.5980916023,-0.0008173998795,8.412041664,-0.2725393772,-0.05149551481,0.001422516769,0.4304117858,0.5325849056,1,0,0.04354310036,8.37601757,-0.08059871197,0.7984138131,-0.007356183409,-0.006445288045,-0.06221538477,8.572313309,-0.8689213395,-0.0009342848789,8.609753609,-0.3342544138,-0.0631352514,0.005191083066,0.5695623755,-0.05787102878,4.540603161,-1.417332172,3.195697784
8.37601757,-0.08059871197,0.7984138131,-0.007356183603,-0.006445288192,-0.0622153841,8.572313309,-0.8689213395,-0.0009342848789,8.609753609,-0.3342544138,-0.0631352514,0.005191083066,0.5695623755,0.6522817016,1,0,0.0586130619,8.876708984,-0.1478634775,0.798357904,-0.01126676938,-0.006319164328,-0.102013935,8.767401695,-1.301793456,-0.001118316199,8.854392052,-0.4021788836,-0.07313197106,0.01089958567,0.7210230231,-0.0667186752,4.173787117,-1.158862352,2.584076643
8.876708984,-0.1478634775,0.798357904,-0.01126676984,-0.006319164298,-0.1020139381,8.767401695,-1.301793456,-0.001118316199,8.854392052,-0.4021788836,-0.07313197106,0.01089958567,0.7210230231,0.8886556029,1,0,0.0436258316,9.263284683,-0.217773661,0.7983058095,-0.01462182142,-0.006153226321,-0.138917041,8.87853241,-1.687920094,-0.001304088626,9.02672863,-0.442243129,-0.08559062332,0.01747377403,0.8990386724,-0.07690516114,3.950333357,-0.9183605909,4.080510139
9.263284683,-0.217773661,0.7983058095,-0.01462182123,-0.006153226364,-0.1389170438,8.87853241,-1.687920094,-0.001304088626,9.02672863,-0.442243129,-0.08559062332,0.01747377403,0.8990386724,1,1,0,0.04418492317,9.656007767,-0.3066594303,0.7982464433,-0.01809830737,-0.005944727441,-0.1800571094,8.949212074,-2.107092857,-0.001533637638,9.181884766,-0.4703520536,-0.07945462316,0.02093964629,0.9028617144,-0.07868037373,3.511517525,-0.6361654997,0.08652367443
9.656007767,-0.3066594303,0.7982464433,-0.01809830777,-0.005944727454,-0.1800571084,8.949212074,-2.107092857,-0.001533637638,9.181884766,-0.4703520536,-0.07945462316,0.02093964629,0.9028617144,1,1,0,0.06153488159,10.18043327,-0.4564448297,0.7981587052,-0.02320625289,-0.005605698988,-0.2453281327,8.987569809,-2.74657011,-0.001857972587,9.385533333,-0.4814786315,-0.08724171668,0.02994007617,1.07885766,-0.08300893754,3.309481859,-0.1808174103,2.860100508
10.18043327,-0.4564448297,0.7981587052,-0.0232062526,-0.005605699029,-0.2453281283,8.987569809,-2.74657011,-0.001857972587,9.385533333,-0.4814786315,-0.08724171668,0.02994007617,1.07885766,1,1,0,0.04788136482,10.60426617,-0.6050937772,0.798093915,-0.02708221158,-0.00541925365,-0.3012084934,8.989961624,-3.264589548,-0.002049365547,9.553741455,-0.4505207539,-0.08391866088,0.03504693881,1.16681385,-0.08094921708,3.513018608,0.6465537548,1.836960793
10.60426617,-0.6050937772,0.798093915,-0.02708221227,-0.005419253837,-0.3012084961,8.989961624,-3.264589548,-0.002049365547,9.553741455,-0.4505207539,-0.08391866088,0.03504693881,1.16681385,1,1,0,0.04797887802,11.03572464,-0.7821457386,0.7980336547,-0.03067003032,-0.005272627916,-0.3599217951,8.958576202,-3.805297136,-0.002124154707,9.724779129,-0.4062503576,-0.08158627898,0.04219802469,1.278605342,-0.07477911562,3.564853668,0.9227059484,2.330014706
11.03572464,-0.7821457386,0.7980336547,-0.03067003004,-0.005272627808,-0.3599217832,8.958576202,-3.805297136,-0.002124154707,9.724779129,-0.4062503576,-0.08158627898,0.04219802469,1.278605342,0.8917396069,1,0,0.0492067337,11.46372318,-0.9835184813,0.797985673,-0.03348285103,-0.005311844838,-0.417174936,8.952747345,-4.299500942,-0.002017526422,9.92700386,-0.3032961488,-0.05790266767,0.0371231772,1.184435487,-0.05716333538,4.109696388,2.092278957,-1.91375947
11.46372318,-0.9835184813,0.797985673,-0.0334828496,-0.00531184487,-0.4171749353,8.952747345,-4.299500942,-0.002017526422,9.92700386,-0.3032961488,-0.05790266767,0.0371231772,1.184435487,0.4773303568,1,0,0.04846525192,11.90010929,-1.209578633,0.7979559302,-0.03491191858,-0.005492328736,-0.4672042197,8.985168457,-4.719442844,-0.001507318695,10.14783573,-0.1668177247,-0.02372955158,0.02661997452,0.90100348,-0.0294864662,4.556499004,2.816005707,-5.848148823
11.90010929,-1.209578633,0.7979559302,-0.03491191939,-0.005492328666,-0.4672042131,8.985168457,-4.719442844,-0.001507318695,10.14783573,-0.1668177247,-0.02372955158,0.02661997452,0.90100348,0.1826500595,1,0,0.04911589622,12.33525085,-1.450822473,0.7979368567,-0.03486717071,-0.005722281323,-0.5072731465,9.058548927,-5.070901394,-0.0008072723285,10.38124943,-0.03173201904,0.008630957454,0.0188483987,0.6908980608,0.0009110833635,4.752304554,2.750345945,-4.277747631
12.33525085,-1.450822473,0.7979368567,-0.0348671712,-0.005722281523,-0.5072731376,9.058548927,-5.070901394,-0.0008072723285,10.38124943,-0.03173201904,0.008630957454,0.0188483987,0.6908980608,0,1,0,0.04807591438,12.77401352,-1.703946948,0.7979183793,-0.03310256303,-0.005911467291,-0.5325708022,9.179519653,-5.322277069,-0.0001295258844,10.61058331,0.07573243231,0.04824035615,0.0112317726,0.4402711689,0.03670461848,4.770244598,2.235307455,-5.213148594
12.77401352,-1.703946948,0.7979183793,-0.03310256451,-0.005911467131,-0.5325707793,9.179519653,-5.322277069,-0.0001295258844,10.61058331,0.07573243231,0.04824035615,0.0112317726,0.4402711689,0,1,0,0.04904723167,13.22175026,-1.96617353,0.7978867888,-0.03026788372,-0.0060466535,-0.5450813097,9.319062233,-5.536466599,0.0002599492145,10.83918095,0.09766822308,0.06455174088,0.00219499995,0.1880659759,0.0577949211,4.660765648,0.4472380877,-5.142088413
13.22175026,-1.96617353,0.7978867888,-0.03026788309,-0.006046653725,-0.5450813174,9.319062233,-5.536466599,0.0002599492145,10.83918095,0.09766822308,0.06455174088,0.00219499995,0.1880659759,-0.2134898156,1,0,0.04819297791,13.67625809,-2.235626221,0.7978022099,-0.02642495033,-0.005402563925,-0.5481254872,9.355151176,-5.596243858,0.0003165868984,10.90078449,0.09844942391,0.09102997184,0.02356272936,0.002390729496,0.07974050939,1.278268099,0.01620984823,-3.852744818
13.67625809,-2.235626221,0.7978022099,-0.02642494999,-0.005402564071,-0.5481255054,9.355151176,-5.596243858,0.0003165868984,10.90078449,0.09844942391,0.09102997184,0.02356272936,0.002390729496,-0.9553465843,1,0,0.04886889458,14.13149261,-2.503439188,0.797614634,-0.02188851692,-0.004376530299,-0.5432985856,9.380263329,-5.526790142,0.0003376020759,10.88672447,0.1182663292,0.1114743501,0.02369663864,-0.1655934304,0.09282863885,-0.2877089977,0.4055116475,-3.437445402
14.13149261,-2.503439188,0.797614634,-0.02188851684,-0.004376530182,-0.5432986021,9.380263329,-5.526790142,0.0003376020759,10.88672447,0.1182663292,0.1114743501,0.02369663864,-0.1655934304,-1,1,0,0.04861712456,14.59228325,-2.766979933,0.797426641,-0.01661759072,-0.003474115214,-0.5310660515,9.442070961,-5.380255222,0.0002250309917,10.86643791,0.1427436769,0.121106267,0.01674602926,-0.3099418879,0.1084170714,-0.4172719121,0.5034717321,-2.969086647
14.59228325,-2.766979933,0.797426641,-0.01661759056,-0.003474115161,-0.5310660601,9.442070961,-5.380255222,0.0002250309917,10.86643791,0.1427436769,0.121106267,0.01674602926,-0.3099418879,-1,1,0,0.06524801254,15.2141161,-3.102684259,0.797298193,-0.008611063841,-0.003615021273,-0.5034035094,9.785255432,-5.203447342,-0.0006897785934,11.08154583,0.1625635624,0.1210275516,-0.0151818702,-0.4727757275,0.1227091253,3.296773434,0.3037622869,-2.495613813
15.2141161,-3.102684259,0.797298193,-0.008611063473,-0.00361502124,-0.5034034848,9.785255432,-5.203447342,-0.0006897785934,11.08154583,0.1625635624,0.1210275516,-0.0151818702,-0.4727757275,-1,1,0,0.04820585251,15.69315624,-3.343224049,0.7973014116,-0.002527872344,-0.004114866453,-0.475637999,10.11267185,-5.020913124,-0.001692444668,11.28927803,0.167054534,0.1230885684,-0.01040009782,-0.5875843167,0.1261919588,4.309273243,0.09316237271,-2.381631851
15.69315624,-3.343224049,0.7973014116,-0.002527872333,-0.004114866257,-0.4756380022,10.11267185,-5.020913124,-0.001692444668,11.28927803,0.167054534,0.1230885684,-0.01040009782,-0.5875843167,-1,1,0,0.04803919792,16.19350243,-3.576048136,0.7972630858,0.003482461463,-0.004438042668,-0.4421725737,10.44769096,-4.760062695,-0.002340534003,11.47972584,0.168350175,0.1298311502,-0.003667532466,-0.720658958,0.1251131147,3.964425325,0.02697049826,-2.770126104
16.19350243,-3.576048136,0.7972630858,0.003482461441,-0.004438042641,-0.4421725869,10.44769096,-4.760062695,-0.002340534003,11.47972584,0.168350175,0.1298311502,-0.003667532466,-0.720658958,-1,1,0,0.04813170433,16.71118355,-3.793818235,0.7972015142,0.009577985849,-0.004624247094,-0.4033223309,10.7782774,-4.43269968,-0.002945579588,11.65318108,0.1531886905,0.1261522621,0.005252365023,-0.8283471465,0.1266425997,3.603762627,-0.314999938,-2.237365007
16.71118355,-3.793818235,0.7972015142,0.009577985853,-0.004624247085,-0.4033223391,10.7782774,-4.43269968,-0.002945579588,11.65318108,0.1531886905,0.1261522621,0.005252365023,-0.8283471465,-1,1,0,0.04788422585,17.23494911,-3.990294933,0.7971153855,0.01548631585,-0.004678727268,-0.3594442038,11.09920406,-4.033879757,-0.003501383588,11.808815,0.1281049699,0.1338516325,0.01507916115,-1.002724409,0.1233878136,3.250212908,-0.5238410234,-3.641643047
17.23494911,-3.990294933,0.7971153855,0.01548631582,-0.004678727128,-0.359444201,11.09920406,-4.033879757,-0.003501383588,11.808815,0.1281049699,0.1338516325,0.01507916115,-1.002724409,-1,1,0,0.04793095589,17.78479004,-4.171219826,0.7970072627,0.0207618157,-0.004681706713,-0.3126408177,11.39969444,-3.601410151,-0.003859329037,11.95478535,0.07940205187,0.1164864525,0.02062992379,-0.9909085631,0.1100645661,3.045429468,-1.016105652,0.2465180606
17.78479004,-4.171219826,0.7970072627,0.02076181583,-0.004681706894,-0.312640816,11.39969444,-3.601410151,-0.003859329037,11.95478535,0.07940205187,0.1164864525,0.02062992379,-0.9909085631,-1,1,0,0.0489859581,18.32953262,-4.323853493,0.7969009876,0.02582210913,-0.004688500947,-0.26348952,11.68647671,-3.141484022,-0.004268581048,12.10134506,0.01069520786,0.1027382612,0.02578067593,-1.00151217,0.1033008918,2.991872072,-1.402582407,-0.2164621651
18.32953262,-4.323853493,0.7969009876,0.02582210861,-0.004688500892,-0.2634895146,11.68647671,-3.141484022,-0.004268581048,12.10134506,0.01069520786,0.1027382612,0.02578067593,-1.00151217,-1,1,0,0.04792118073,18.9073143,-4.458884239,0.7967799306,0.03037783464,-0.004673361666,-0.2123657489,11.95676613,-2.638338327,-0.004413120914,12.24424839,-0.05890347436,0.0951365307,0.03297066689,-1.066043496,0.09506706893,2.982049465,-1.452357411,-1.346613884
18.9073143,-4.458884239,0.7967799306,0.03037783504,-0.004673361778,-0.2123657465,11.95676613,-2.638338327,-0.004413120914,12.24424839,-0.05890347436,0.0951365307,0.03297066689,-1.066043496,-1,1,0,0.04724359512,19.48554802,-4.566980839,0.7966527343,0.03431239821,-0.004626153966,-0.1617690858,12.19556332,-2.110345364,-0.004476311617,12.37623882,-0.1185208336,0.08624896407,0.03870081902,-1.092628837,0.0832824707,2.793827057,-1.261914134,-0.562729001
19.48554802,-4.566980839,0.7966527343,0.03431239724,-0.004626153968,-0.1617690921,12.19556332,-2.110345364,-0.004476311617,12.37623882,-0.1185208336,0.08624896407,0.03870081902,-1.092628837,-1,1,0,0.0601682663,20.247118,-4.668476105,0.7964791656,0.03865884703,-0.004534124055,-0.09695838009,12.45697117,-1.39775157,-0.004455588758,12.53377533,-0.1852704287,0.07055148482,0.04226031899,-1.049734831,0.07223824412,2.618265629,-1.109382033,0.7129008174
20.247118,-4.668476105,0.7964791656,0.03865884617,-0.004534123931,-0.09695837647,12.45697117,-1.39775157,-0.004455588758,12.53377533,-0.1852704287,0.07055148482,0.04226031899,-1.049734831,-1,1,0,0.04439496994,20.80632782,-4.71370554,0.7963497043,0.04146718017,-0.004449964122,-0.04908432201,12.61716938,-0.8483424783,-0.004405885469,12.6435976,-0.2282642126,0.0645500347,0.04616434127,-1.068006754,0.06325793266,2.473754883,-0.9684382081,-0.4115764201
20.80632782,-4.71370554,0.7963497043,0.04146717861,-0.004449964035,-0.04908432066,12.61716938,-0.8483424783,-0.004405885469,12.6435976,-0.2282642126,0.0645500347,0.04616434127,-1.068006754,-1,1,0,0.05825185776,21.53972626,-4.73579073,0.7961800694,0.04460943888,-0.004361630486,0.01303643602,12.78938675,-0.1218629405,-0.00428142678,12.78671074,-0.2885758877,0.05319375917,0.04737967998,-1.043037891,0.05394266173,2.456799507,-1.035360575,0.4286363423
21.53972626,-4.73579073,0.7961800694,0.04460943863,-0.004361630417,0.0130364364,12.78938675,-0.1218629405,-0.00428142678,12.78671074,-0.2885758877,0.05319375917,0.04737967998,-1.043037891,-0.8388301134,1,0,0.04380893707,22.10237312,-4.725472927,0.7960582376,0.04635654778,-0.004407046361,0.05802263126,12.91376781,0.392319113,-0.004013755359,12.91478729,-0.3572115004,0.03733970225,0.04321628436,-0.9723075628,0.03988020122,2.92352581,-1.566703439,1.614518285
22.10237312,-4.725472927,0.7960582376,0.04635654762,-0.004407046363,0.05802262947,12.91376781,0.392319113,-0.004013755359,12.91478729,-0.3572115004,0.03733970225,0.04321628436,-0.9723075628,-0.4380739331,1,0,0.05911612511,22.854702,-4.680271626,0.7959098816,0.04734935929,-0.004625440423,0.1109646093,13.08682442,1.005090117,-0.003277081065,13.11763763,-0.4502875507,0.00971572753,0.03545895964,-0.8485515714,0.01679426245,3.431387663,-1.574461341,2.093438864
22.854702,-4.680271626,0.7959098816,0.04734935984,-0.004625440575,0.1109646112,13.08682442,1.005090117,-0.003277081065,13.11763763,-0.4502875507,0.00971572753,0.03545895964,-0.8485515714,0,1,0,0.04390501976,23.43300819,-4.62559557,0.7958019972,0.04687381908,-0.004839661623,0.1413581579,13.22263241,1.383068562,-0.002536524087,13.28560162,-0.4936350882,-0.01623296551,0.02388861589,-0.6167541742,-0.01083112508,3.825621367,-0.9873025417,5.279519081
23.43300819,-4.62559557,0.7958019972,0.04687381908,-0.004839661531,0.141358152,13.22263241,1.383068562,-0.002536524087,13.28560162,-0.4936350882,-0.01623296551,0.02388861589,-0.6167541742,0,1,0,0.0447101593,24.02764511,-4.556200981,0.7956906557,0.04514797956,-0.005059002009,0.162039507,13.37228489,1.676280618,-0.001668040175,13.46754932,-0.5030465722,-0.04466498271,0.0119663775,-0.3625909686,-0.03860061243,4.069493771,-0.2104998976,5.684685707
24.02764511,-4.556200981,0.7956906557,0.04514797777,-0.005059001967,0.1620395035,13.37228489,1.676280618,-0.001668040175,13.46754932,-0.5030465722,-0.04466498271,0.0119663775,-0.3625909686,0.6400100589,1,0,0.05826473236,24.81702805,-4.451607704,0.7955412269,0.04103769247,-0.005305410767,0.1726070346,13.58681774,1.9397645,-0.0007013051654,13.71807957,-0.4226123393,-0.08303403109,-0.001129901269,-0.06916742027,-0.07054499537,4.299860954,1.380496025,5.036040306
24.81702805,-4.451607704,0.7955412269,0.04103769362,-0.005305410828,0.1726070344,13.58681774,1.9397645,-0.0007013051654,13.71807957,-0.4226123393,-0.08303403109,-0.001129901269,-0.06916742027,0.920362711,1,0,0.04372310638,25.41903687,-4.367093086,0.7954282165,0.03678747904,-0.005451559004,0.1697738593,13.76194763,2.024398088,-0.0002270945261,13.90613365,-0.3299180269,-0.1046158224,-0.007672609761,0.126973182,-0.09720751643,4.301023006,2.120030403,4.485971451
25.41903687,-4.367093086,0.7954282165,0.03678748012,-0.005451559089,0.1697738618,13.76194763,2.024398088,-0.0002270945261,13.90613365,-0.3299180269,-0.1046158224,-0.007672609761,0.126973182,1,1,0,0.05886006355,26.23151779,-4.255295277,0.7952742577,0.02953849123,-0.005582330705,0.1539672883,14.01356316,1.963671207,1.77263064e-05,14.14893723,-0.2086739391,-0.1284931749,-0.01134813298,0.3307233453,-0.123156324,4.125098705,2.059870243,3.461602926
26.23151779,-4.255295277,0.7952742577,0.02953849174,-0.005582330748,0.1539672911,14.01356316,1.963671207,1.77263064e-05,14.14893723,-0.2086739391,-0.1284931749,-0.01134813298,0.3307233453,1,1,0,0.04433107376,26.84695244,-4.178454876,0.7951549292,0.02295408819,-0.005620597489,0.1340843562,14.20857906,1.788124084,-0.0001598600502,14.32008648,-0.1273706555,-0.1528544873,-0.01145884022,0.4819587171,-0.14852795,3.860706329,1.834002137,3.41149807
26.84695244,-4.178454876,0.7951549292,0.0229540877,-0.005620597396,0.1340843588,14.20857906,1.788124084,-0.0001598600502,14.32008648,-0.1273706555,-0.1528544873,-0.01145884022,0.4819587171,1,1,0,0.04385781288,27.48889351,-4.110343933,0.7950230837,0.01537899642,-0.005590080615,0.1070989664,14.40283203,1.503926516,-0.0008524805889,14.48107052,-0.04427168891,-0.2041371018,-0.01003001165,0.7457630038,-0.1727193147,3.670589685,1.894735694,6.014989376
27.48889351,-4.110343933,0.7950230837,0.01537899673,-0.005590080749,0.1070989668,14.40283203,1.503926516,-0.0008524805889,14.48107052,-0.04427168891,-0.2041371018,-0.01003001165,0.7457630038,1,1,0,0.05927705765,28.34770393,-4.044009686,0.7948290706,0.005376034823,-0.005458354007,0.06476916982,14.6207819,1.017733097,-0.002006158698,14.65599728,0.0692852065,-0.1734067947,-0.001337646041,0.7657697797,-0.1687493026,2.951002598,1.915697217,0.33751297
28.34770393,-4.044009686,0.7948290706,0.005376034882,-0.005458354019,0.06476917118,14.6207819,1.017733097,-0.002006158698,14.65599728,0.0692852065,-0.1734067947,-0.001337646041,0.7657697797,1,1,0,0.04466891289,28.99064445,-4.016304016,0.7946739197,-0.002462359447,-0.005285381296,0.02647679301,14.75730419,0.5574097633,-0.00300144963,14.76688862,0.1665339768,-0.1830715686,0.006600193679,0.9067835808,-0.175477609,2.482517242,2.177101851,3.15686655
28.99064445,-4.016304016,0.7946739197,-0.002462359378,-0.005285381339,0.02647679299,14.75730419,0.5574097633,-0.00300144963,14.76688862,0.1665339768,-0.1830715686,0.006600193679,0.9067835808,1,1,0,0.04448318481,29.65161514,-4.010103226,0.794500649,-0.009996972789,-0.005077361595,-0.01545993965,14.85822487,0.04894580692,-0.004252282437,14.85569286,0.2786380649,-0.1593549997,0.01330101863,0.9046227336,-0.1693811566,1.996355414,2.520145178,-0.04857672006
29.65161514,-4.010103226,0.794500649,-0.009996972978,-0.005077361595,-0.01545993984,14.85822487,0.04894580692,-0.004252282437,14.85569286,0.2786380649,-0.1593549997,0.01330101863,0.9046227336,1,1,0,0.05902981758,30.52296638,-4.038572788,0.7942503691,-0.01969301136,-0.004806278884,-0.07749222255,14.95173168,-0.7020182014,-0.005490240175,14.96120739,0.4575722814,-0.1665570587,0.02608948015,1.091691494,-0.1642566174,1.787478447,3.031251431,3.169055462
30.52296638,-4.038572788,0.7942503691,-0.01969301142,-0.004806278739,-0.07749222219,14.95173168,-0.7020182014,-0.005490240175,14.96120739,0.4575722814,-0.1665570587,0.02608948015,1.091691494,1,1,0,0.04477119446,31.19807243,-4.090693951,0.7940490842,-0.02637328182,-0.004611014784,-0.1266872453,14.98307705,-1.30424571,-0.006151447073,15.02779102,0.5992978811,-0.1572512388,0.03523124382,1.16192472,-0.1492091119,1.487198114,3.165553331,1.568714619
31.19807243,-4.090693951,0.7940490842,-0.02637328207,-0.004611014854,-0.1266872436,14.98307705,-1.30424571,-0.006151447073,15.02779102,0.5992978811,-0.1572512388,0.03523124382,1.16192472,0.7014004588,1,0,0.05927610397,32.08056259,-4.198951244,0.7937859297,-0.03380563209,-0.004489659571,-0.1904438674,15.00612545,-2.076259375,-0.006554007996,15.12784386,0.8018596172,-0.1207595244,0.03665603697,1.061882496,-0.1253852695,1.687911749,3.417258024,-1.687732816
32.08056259,-4.198951244,0.7937859297,-0.0338056311,-0.004489659797,-0.1904438734,15.00612545,-2.076259375,-0.006554007996,15.12784386,0.8018596172,-0.1207595244,0.03665603697,1.061882496,0.2552841008,1,0,0.04703164101,32.75822067,-4.311372757,0.7935945988,-0.03838573033,-0.00452745007,-0.2366521532,15.02480698,-2.652145386,-0.006484482903,15.2278347,0.9443313479,-0.09706746787,0.03623984754,0.9839160442,-0.09738335758,2.126033545,3.029273987,-1.657744646
32.75822067,-4.311372757,0.7935945988,-0.03838573024,-0.004527450074,-0.2366521508,15.02480698,-2.652145386,-0.006484482903,15.2278347,0.9443313479,-0.09706746787,0.03623984754,0.9839160442,0,1,0,0.04888129234,33.47894669,-4.455434322,0.7933927774,-0.04159858113,-0.004632830598,-0.2774359113,15.04917431,-3.20111227,-0.005941490177,15.35046101,1.043121219,-0.06130931154,0.02847321518,0.7633504272,-0.06572761387,2.508655071,2.021015882,-4.512270451
33.47894669,-4.455434322,0.7933927774,-0.04159858078,-0.00463283062,-0.2774358988,15.04917431,-3.20111227,-0.005941490177,15.35046101,1.043121219,-0.06130931154,0.02847321518,0.7633504272,-0.1035268158,1,0,0.04863572121,34.21209717,-4.625934124,0.7931978703,-0.04326199329,-0.004795194683,-0.3071706123,15.09578323,-3.67496109,-0.005141801666,15.50036526,1.061457872,-0.02270705253,0.01849318296,0.4978110492,-0.0342014581,3.082184076,0.3770202994,-5.459760189
34.21209717,-4.625934124,0.7931978703,-0.04326199368,-0.004795194604,-0.3071705997,15.09578323,-3.67496109,-0.005141801666,15.50036526,1.061457872,-0.02270705253,0.01849318296,0.4978110492,-0.4287577569,1,0,0.04828596115,34.94329071,-4.814067364,0.7930010557,-0.04321032347,-0.004947782015,-0.3239983692,15.16221809,-4.077988625,-0.004108190071,15.67159557,0.9612239003,0.01026416197,0.007993018255,0.2488424629,0.001070087543,3.546171904,-2.07584095,-5.15612793
34.94329071,-4.814067364,0.7930010557,-0.0432103239,-0.004947782028,-0.3239983618,15.16221809,-4.077988625,-0.004108190071,15.67159557,0.9612239003,0.01026416197,0.007993018255,0.2488424629,-0.7447046041,1,0,0.04980421066,35.68287277,-5.018308163,0.7928067446,-0.04153041181,-0.005082487804,-0.3287561648,15.26424408,-4.385981083,-0.003227245761,15.86284733,0.7772177458,0.04879824072,-0.002922909334,0.005786504596,0.03373032063,3.840071917,-3.69459033,-4.880228996
35.68287277,-5.018308163,0.7928067446,-0.04153041169,-0.005082487594,-0.3287561536,15.26424408,-4.385981083,-0.003227245761,15.86284733,0.7772177458,0.04879824072,-0.002922909334,0.005786504596,-0.9627995491,1,0,0.04873013496,36.44281006,-5.236655235,0.7926088572,-0.03812901439,-0.0051878688,-0.3217428991,15.40964603,-4.545591831,-0.002313828096,16.05632019,0.560507834,0.08221964538,-0.01011347026,-0.2102737576,0.06980069727,3.970291853,-4.447143555,-4.433812141
36.44281006,-5.236655235,0.7926088572,-0.03812901303,-0.005187868606,-0.3217428923,15.40964603,-4.545591831,-0.002313828096,16.05632019,0.560507834,0.08221964538,-0.01011347026,-0.2102737576,-1,1,0,0.04943776131,37.20320129,-5.455237389,0.7924129963,-0.03271054349,-0.005251885126,-0.30384075,15.60404396,-4.53706646,-0.001565931831,16.24672508,0.3392873704,0.1258513033,-0.01461689547,-0.4180085063,0.1096018404,3.851406097,-4.474726677,-4.201944828
37.20320129,-5.455237389,0.7924129963,-0.03271054476,-0.005251884926,-0.3038407564,15.60404396,-4.53706646,-0.001565931831,16.24672508,0.3392873704,0.1258513033,-0.01461689547,-0.4180085063,-1,1,0,0.0489192009,37.97092056,-5.666656971,0.7922182083,-0.02529630268,-0.005261538284,-0.2765705724,15.83009148,-4.358198643,-0.001110718003,16.41855049,0.1299591959,0.1617341489,-0.01503764931,-0.6032361984,0.1515609771,3.512432814,-4.27905941,-3.786400557
37.97092056,-5.666656971,0.7922182083,-0.02529630251,-0.005261538085,-0.2765705585,15.83009148,-4.358198643,-0.001110718003,16.41855049,0.1299591959,0.1617341489,-0.01503764931,-0.6032361984,-1,1,0,0.04791092873,38.73907089,-5.861999512,0.7920379639,-0.01669002886,-0.005207299289,-0.2419717691,16.06539154,-4.032747269,-0.001521539059,16.56368065,-0.06571512669,0.1927667558,-0.01128096506,-0.7756510377,0.1796306968,3.029165983,-4.084127426,-3.598653555
38.73907089,-5.861999512,0.7920379639,-0.01669002883,-0.005207299255,-0.2419717759,16.06539154,-4.032747269,-0.001521539059,16.56368065,-0.06571512669,0.1927667558,-0.01128096506,-0.7756510377,-1,1,0,0.04834604263,39.53451157,-6.042561531,0.7918548584,-0.007517570282,-0.005077480264,-0.2007525536,16.29106522,-3.582880974,-0.002523715841,16.678339,-0.2623755932,0.2094500661,-0.002540519927,-0.9040600061,0.1897251159,2.371618271,-4.06776762,-2.656038761
39.53451157,-6.042561531,0.7918548584,-0.007517570164,-0.005077480339,-0.2007525563,16.29106522,-3.582880974,-0.002523715841,16.678339,-0.2623755932,0.2094500661,-0.002540519927,-0.9040600061,-1,1,0,0.04929089546,40.33240891,-6.196686268,0.7916625738,0.002134050729,-0.004875063462,-0.1535940458,16.49132538,-3.029538155,-0.003559559118,16.76067543,-0.4708513916,0.2189913094,0.008185963146,-1.028777957,0.195809409,1.670418501,-4.22949934,-2.530243158
40.33240891,-6.196686268,0.7916625738,0.002134050708,-0.004875063431,-0.1535940468,16.49132538,-3.029538155,-0.003559559118,16.76067543,-0.4708513916,0.2189913094,0.008185963146,-1.028777957,-1,1,0,0.0606648922,41.39034653,-6.35325098,0.7914249897,0.01433543207,-0.0046457056,-0.08749864555,16.70311165,-2.24245429,-0.005119172856,16.83517456,-0.7742401958,0.1988826394,0.01971883699,-1.125152469,0.2011275589,1.228043556,-5.001060486,-1.588637352
41.39034653,-6.35325098,0.7914249897,0.01433543209,-0.004645705689,-0.0874986425,16.70311165,-2.24245429,-0.005119172856,16.83517456,-0.7742401958,0.1988826394,0.01971883699,-1.125152469,-1,1,0,0.04476618767,42.14331818,-6.432093143,0.7912540436,0.02233292572,-0.004488466836,-0.03775321956,16.82085228,-1.627135396,-0.006177668925,16.87028122,-0.9910854101,0.1788510829,0.02837484516,-1.127795339,0.1786503196,0.7842226624,-4.843950748,-0.05903718993
42.14331818,-6.432093143,0.7912540436,0.02233292535,-0.004488466773,-0.03775322065,16.82085228,-1.627135396,-0.006177668925,16.87028122,-0.9910854101,0.1788510829,0.02837484516,-1.127795339,-0.6711068153,1,0,0.05961704254,43.13922882,-6.494017124,0.7910320163,0.0315915052,-0.004391550632,0.02772483081,16.95493126,-0.8108493686,-0.0064732912,16.92593765,-1.280550122,0.1483179927,0.03469681367,-1.076537967,0.1553008854,0.9335657954,-4.855401993,0.8597771525
43.13922882,-6.494017124,0.7910320163,0.03159150481,-0.004391550552,0.02772483043,16.95493126,-0.8108493686,-0.0064732912,16.92593765,-1.280550122,0.1483179927,0.03469681367,-1.076537967,0,1,0,0.0446228981,43.89847565,-6.51050663,0.7908802032,0.0371996894,-0.004374745725,0.07294177174,17.03351593,-0.2215611041,-0.006562857423,16.97207642,-1.462325335,0.1140714735,0.03607737273,-0.9270595312,0.1256795228,1.033970594,-4.073585987,3.349814653
43.89847565,-6.51050663,0.7908802032,0.03719969094,-0.004374745768,0.07294177264,17.03351593,-0.2215611041,-0.006562857423,16.97207642,-1.462325335,0.1140714735,0.03607737273,-0.9270595312,0.6175227761,1,0,0.04474210739,44.65151596,-6.502673626,0.7906916738,0.04164705101,-0.004051328002,0.1124341328,17.03181458,0.3470721841,-0.006302651484,16.96321487,-1.566044569,0.09289782494,0.0441544652,-0.8260163069,0.09939987957,-0.1980582178,-2.318157196,2.258347511
44.65151596,-6.502673626,0.7906916738,0.04164705053,-0.004051328171,0.1124341339,17.03181458,0.3470721841,-0.006302651484,16.96321487,-1.566044569,0.09289782494,0.0441544652,-0.8260163069,0.920362711,1,0,0.05946397781,45.66311264,-6.457977772,0.7903622985,0.0453385061,-0.003292916524,0.152211969,16.94364166,0.9959875345,-0.005400686059,16.89875793,-1.584605694,0.04618429765,0.0379736349,-0.5546582937,0.06207885221,-1.083966136,-0.3121406436,4.563401699
45.66311264,-6.457977772,0.7903622985,0.04533850774,-0.003292916575,0.1522119641,16.94364166,0.9959875345,-0.005400686059,16.89875793,-1.584605694,0.04618429765,0.0379736349,-0.5546582937,1,1,0,0.04386210442,46.41286087,-6.403196335,0.7901052833,0.04649908741,-0.002715348599,0.1718265969,16.86248016,1.430743217,-0.004476700909,16.85879707,-1.473511934,0.01999504119,0.03531860188,-0.4325626493,0.02645973489,-0.9110566378,2.532795906,2.783624887
46.41286087,-6.403196335,0.7901052833,0.04649908841,-0.002715348499,0.171826601,16.86248016,1.430743217,-0.004476700909,16.85879707,-1.473511934,0.01999504119,0.03531860188,-0.4325626493,1,1,0,0.04473781586,47.15816879,-6.333032608,0.7899290919,0.04623532008,-0.003105401252,0.1806083491,16.98080444,1.786893129,-0.00357569661,17.02558136,-1.29240036,-0.01569050737,-0.006445427425,-0.1243195757,-0.005895869341,3.728038311,4.048288345,6.889989376
47.15816879,-6.333032608,0.7899290919,0.04623531923,-0.003105401294,0.1806083471,16.98080444,1.786893129,-0.00357569661,17.02558136,-1.29240036,-0.01569050737,-0.006445427425,-0.1243195757,0.9131988883,1,0,0.05813598633,48.15740967,-6.221335411,0.7897870541,0.04361458785,-0.00379288005,0.176243687,17.17156982,2.111512661,-0.002285871422,17.27578545,-0.9319339395,-0.06325753778,-0.01892063767,0.1917485148,-0.04507933185,4.303772926,6.200400829,5.436703205
48.15740967,-6.221335411,0.7897870541,0.04361458868,-0.003792880103,0.1762436926,17.17156982,2.111512661,-0.002285871422,17.27578545,-0.9319339395,-0.06325753778,-0.01892063767,0.1917485148,0.005610587075,1,0,0.04403305054,48.9261055,-6.127905846,0.7896677852,0.0401879504,-0.004215240906,0.1640104318,17.32909584,2.298177242,-0.00151871948,17.47178459,-0.5620908737,-0.08194737136,-0.02020185441,0.2920382023,-0.07781969011,4.451182365,8.399214745,2.277600288
48.9261055,-6.127905846,0.7896677852,0.04018795118,-0.004215240944,0.1640104353,17.32909584,2.298177242,-0.00151871948,17.47178459,-0.5620908737,-0.08194737136,-0.02020185441,0.2920382023,0,1,0,0.05821800232,49.9328804,-5.995719433,0.7895097733,0.03503813343,-0.004604935895,0.1489922819,17.53623772,2.501710415,-0.001447573886,17.71331406,-0.1291138083,-0.09145062417,-0.01311044395,0.2155750543,-0.08845748007,4.14870739,7.437168121,-1.313393593
49.9328804,-5.995719433,0.7895097733,0.03503813222,-0.004604936112,0.1489922851,17.53623772,2.501710415,-0.001447573886,17.71331406,-0.1291138083,-0.09145062417,-0.01311044395,0.2155750543,0,1,0,0.04309010506,50.70319748,-5.889151096,0.7893750072,0.03059497885,-0.00482225486,0.1412612219,17.70758247,2.564485073,-0.00156557688,17.8922596,0.0458570309,-0.112865366,-0.009930848144,0.1651879847,-0.1031130776,4.152822018,4.060580254,-1.169342041
50.70319748,-5.889151096,0.7893750072,0.03059497848,-0.004822254647,0.14126122,17.70758247,2.564485073,-0.00156557688,17.8922596,0.0458570309,-0.112865366,-0.009930848144,0.1651879847,0,1,0,0.05861091614,51.73094559,-5.745769978,0.7891814113,0.02441169046,-0.005020974517,0.1347750411,17.9353981,2.57695365,-0.001932075131,18.11901093,0.1436520666,-0.1046830043,-0.004952276126,0.087973997,-0.1054972112,3.868755817,1.668546557,-1.317399383
51.73094559,-5.745769978,0.7891814113,0.02441169135,-0.00502097467,0.1347750425,17.9353981,2.57695365,-0.001932075131,18.11901093,0.1436520666,-0.1046830043,-0.004952276126,0.087973997,0,1,0,0.04348897934,52.52443314,-5.636031151,0.789024055,0.0197252693,-0.005117176295,0.1316924904,18.10792732,2.564822435,-0.002412624191,18.28792381,0.1648226976,-0.1021294519,-0.002927872352,0.05923194066,-0.1077611446,3.884038925,0.4868045151,-0.6609043479
52.52443314,-5.636031151,0.789024055,0.01972526871,-0.005117176101,0.131692484,18.10792732,2.564822435,-0.002412624191,18.28792381,0.1648226976,-0.1021294519,-0.002927872352,0.05923194066,0,1,0,0.0432100296,53.32585907,-5.526522636,0.7888702154,0.015246853,-0.005203485145,0.1296609535,18.28214455,2.546608448,-0.002046908718,18.4579525,0.1613880843,-0.1165931895,-0.003082522191,0.04626917467,-0.1036429703,3.93493557,-0.07948648185,-0.2999943793
53.32585907,-5.526522636,0.7888702154,0.01524685323,-0.005203485023,0.1296609491,18.28214455,2.546608448,-0.002046908718,18.4579525,0.1613880843,-0.1165931895,-0.003082522191,0.04626917467,0,1,0,0.05862998962,54.39507294,-5.382453918,0.7887014747,0.0104565555,-0.005286216586,0.1281743448,18.4958992,2.524709702,-0.002486868994,18.66689301,0.1397853643,-0.08008553088,-0.001423950191,0.02044694312,-0.08170387894,3.563713789,-0.3684585392,-0.4404270053
54.39507294,-5.382453918,0.7887014747,0.01045655552,-0.005286216736,0.1281743497,18.4958992,2.524709702,-0.002486868994,18.66689301,0.1397853643,-0.08008553088,-0.001423950191,0.02044694312,0,1,0,0.04383206367,55.21089554,-5.273877621,0.7885664701,0.007508293253,-0.00531625698,0.1275825567,18.65298653,2.512286663,-0.002392633585,18.82103729,0.118523106,-0.06195118278,-0.0003156500752,0.01082046796,-0.06726268679,3.51670146,-0.4850845933,-0.2196217626
55.21089554,-5.273877621,0.7885664701,0.00750829326,-0.005316257011,0.12758255,18.65298653,2.512286663,-0.002392633585,18.82103729,0.118523106,-0.06195118278,-0.0003156500752,0.01082046796,0,1,0,0.05793976784,56.28300095,-5.132567406,0.7884298563,0.004457397953,-0.005278229678,0.1272236737,18.85729599,2.502669573,-0.001799836289,19.02243042,0.08981505781,-0.05014690384,0.0009815817466,0.00412368495,-0.05265632644,3.475904942,-0.495480895,-0.115581803
56.28300095,-5.132567406,0.7884298563,0.004457397852,-0.005278229713,0.1272236705,18.85729599,2.502669573,-0.001799836289,19.02243042,0.08981505781,-0.05014690384,0.0009815817466,0.00412368495,0,1,0,0.04370999336,57.11492157,-5.023757458,0.7883344889,0.002803738152,-0.005231379925,0.1271482446,19.00413704,2.500783682,-0.001958739245,19.16784096,0.07075925171,-0.03410313651,0.001124416827,0.0008667826187,-0.03783253208,3.326711416,-0.4359599352,-0.07451161742
57.11492157,-5.023757458,0.7883344889,0.002803738229,-0.005231379997,0.1271482408,19.00413704,2.500783682,-0.001958739245,19.16784096,0.07075925171,-0.03410313651,0.001124416827,0.0008667826187,0,1,0,0.0586130619,58.22489166,-4.879393578,0.7882001996,0.001212972076,-0.005154608956,0.1270542864,19.19758606,2.496348619,-0.002162156859,19.35916328,0.04364832863,-0.02311518602,0.001326305792,0.006898500491,-0.02714013122,3.264158487,-0.4625406265,0.1029074043
58.22489166,-4.879393578,0.7882001996,0.0012129721,-0.005154608749,0.127054289,19.19758606,2.496348619,-0.002162156859,19.35916328,0.04364832863,-0.02311518602,0.001326305792,0.006898500491,0.3340539932,1,0,0.0430431366,59.05712128,-4.772948265,0.7880930901,0.0001125641572,-0.005079626221,0.1251357373,19.34201813,2.440618753,-0.002270180965,19.49538994,0.007469174452,-0.02676147781,0.001891464111,0.06720113754,-0.02556523681,3.164886713,-0.8405324817,1.400981426
59.05712128,-4.772948265,0.7880930901,0.0001125641575,-0.005079626106,0.1251357347,19.34201813,2.440618753,-0.002270180965,19.49538994,0.007469174452,-0.02676147781,0.001891464111,0.06720113754,0.9162828922,1,0,0.05845284462,60.18239212,-4.636717796,0.7879372835,-0.001848767019,-0.004936932534,0.1163177656,19.53250313,2.279154301,-0.002428867621,19.66502571,-0.003103785915,-0.0383047536,0.003058845177,0.200128451,-0.03355407715,2.902096033,-0.180880174,2.27409482
60.18239212,-4.636717796,0.7879372835,-0.001848767046,-0.004936932586,0.1163177639,19.53250313,2.279154301,-0.002428867621,19.66502571,-0.003103785915,-0.0383047536,0.003058845177,0.200128451,1,1,0,0.04362201691,61.0419426,-4.542233944,0.7878094912,-0.003929759187,-0.004794716984,0.1034221426,19.67202568,2.080837727,-0.002566548297,19.78173256,0.03882102296,-0.0525030531,0.004675338045,0.3317897022,-0.04770508781,2.675411463,0.9610928297,3.018229246
61.0419426,-4.542233944,0.7878094912,-0.003929759376,-0.004794716835,0.1034221426,19.67202568,2.080837727,-0.002566548297,19.78173256,0.03882102296,-0.0525030531,0.004675338045,0.3317897022,0.9173108935,1,0,0.04308009148,61.90982819,-4.458584309,0.7876741886,-0.006588661102,-0.00463020725,0.08495912252,19.80205536,1.812481999,-0.002779800212,19.88443375,0.1256026179,-0.06359470636,0.006488025188,0.4412555993,-0.06171996519,2.383959293,2.014424562,2.540985823
61.90982819,-4.458584309,0.7876741886,-0.006588661112,-0.004630207084,0.08495911956,19.80205536,1.812481999,-0.002779800212,19.88443375,0.1256026179,-0.06359470636,0.006488025188,0.4412555993,0.213329196,1,0,0.05912089348,63.06472397,-4.369869709,0.7874704599,-0.01098234324,-0.004136204985,0.05225547964,19.90245056,1.400139451,-0.003147574607,19.94841576,0.3586893678,-0.08043907583,0.0204612501,0.6011757851,-0.0743169114,1.082223296,3.94254446,2.704968929
63.06472397,-4.369869709,0.7874704599,-0.010982343,-0.004136205185,0.05225548148,19.90245056,1.400139451,-0.003147574607,19.94841576,0.3586893678,-0.08043907583,0.0204612501,0.6011757851,0.1805940866,1,0,0.04407191277,63.94288254,-4.317245483,0.7872590423,-0.01369876727,-0.003514767342,0.02996832858,19.90123177,1.163381457,-0.003287684638,19.92715454,0.5665417314,-0.05253368244,0.01855555177,0.4326882362,-0.06163617969,-0.4824209809,4.716209412,-3.823014259
63.94288254,-4.317245483,0.7872590423,-0.01369876694,-0.003514767392,0.02996832877,19.90123177,1.163381457,-0.003287684638,19.92715454,0.5665417314,-0.05253368244,0.01855555177,0.4326882362,0.05575731397,1,0,0.05788803101,65.09091949,-4.261648655,0.7869852185,-0.01630174052,-0.002735137468,0.008012450339,19.88634872,0.8748163581,-0.002762371907,19.89271927,0.7154515982,-0.03834588826,0.01688024588,0.3066125214,-0.04496566206,-0.5948599577,2.572377443,-2.177923679
65.09091949,-4.261648655,0.7869852185,-0.01630173996,-0.002735137474,0.0080124503,19.88634872,0.8748163581,-0.002762371907,19.89271927,0.7154515982,-0.03834588826,0.01688024588,0.3066125214,0,1,0,0.04342508316,65.96538544,-4.229404449,0.7868178487,-0.01772120394,-0.002395509856,-0.002653098985,19.90143204,0.6400396824,-0.002703359351,19.89966393,0.6928378344,-0.02959282324,0.008348664269,0.2095437944,-0.03268765286,0.1599226892,-0.5207535028,-2.235314608
65.96538544,-4.229404449,0.7868178487,-0.01772120409,-0.002395509742,-0.002653098898,19.90143204,0.6400396824,-0.002703359351,19.89966393,0.6928378344,-0.02959282324,0.008348664269,0.2095437944,0,1,0,0.0587310791,67.11956024,-4.201455116,0.786652863,-0.0190682314,-0.002255677272,-0.01192892768,19.95819473,0.3438738286,-0.002214431763,19.95267296,0.581923604,-0.01829985157,0.004029334523,0.1272078156,-0.02293551154,0.9025720954,-1.888509989,-1.401914954
67.11956024,-4.201455116,0.786652863,-0.01906823181,-0.002255677246,-0.01192892808,19.95819473,0.3438738286,-0.002214431763,19.95267296,0.581923604,-0.01829985157,0.004029334523,0.1272078156,0,1,0,0.04402589798,68.00073242,-4.190358639,0.7865619659,-0.01954973555,-0.002223253714,-0.01629883532,20.01278496,0.1514284164,-0.001924315467,20.00765991,0.4775789678,-0.007222924381,0.001958595356,0.08564627171,-0.01093682926,1.248968363,-2.370074034,-0.9440249205
68.00073242,-4.190358639,0.7865619659,-0.01954973489,-0.002223253716,-0.0162988361,20.01278496,0.1514284164,-0.001924315467,20.00765991,0.4775789678,-0.007222924381,0.001958595356,0.08564627171,0,1,0,0.04407906532,68.88298035,-4.186655998,0.7864797115,-0.01950232527,-0.002243638197,-0.01908896769,20.07571793,-0.00700497115,-0.001935742912,20.07219315,0.3761977553,0.004811801482,0.0002413605107,0.05266948044,0.001075558714,1.464033604,-2.299985647,-0.7481281757
68.88298035,-4.186655998,0.7864797115,-0.01950232498,-0.002243638271,-0.01908896677,20.07571793,-0.00700497115,-0.001935742912,20.07219315,0.3761977553,0.004811801482,0.0002413605107,0.05266948044,0,1,0,0.0583820343,70.07078552,-4.19092989,0.7863672972,-0.01864212842,-0.002330183478,-0.02122938394,20.17315674,-0.1724113673,-0.001974530518,20.17227173,0.2558590174,0.02061975375,-0.001345131081,0.02828076854,0.01473392546,1.714201689,-2.061228991,-0.4177434444
70.07078552,-4.19092989,0.7863672972,-0.01864212751,-0.002330183517,-0.02122938447,20.17315674,-0.1724113673,-0.001974530518,20.17227173,0.2558590174,0.02061975375,-0.001345131081,0.02828076854,0,0.8994816542,0,0.04421710968,70.96797943,-4.199493408,0.7862792015,-0.01752466429,-0.002413749391,-0.02203754425,20.25081635,-0.262426734,-0.002049583942,20.25168228,0.1838790923,0.02585681714,-0.001373590669,0.01375699509,0.02527219057,1.795923591,-1.62787497,-0.3284650147
70.96797943,-4.199493408,0.7862792015,-0.01752466522,-0.002413749462,-0.02203754336,20.25081635,-0.262426734,-0.002049583942,20.25168228,0.1838790923,0.02585681714,-0.001373590669,0.01375699509,0,0.373631686,0,0.05901288986,72.1377182,-4.215569019,0.7861497402,-0.01556830694,-0.002452373598,-0.02254363421,20.34225845,-0.3494824767,-0.002218583832,20.34496689,0.1091559008,0.03332717344,0.0005353707238,0.005380260292,0.03315137327,1.580749631,-1.266218185,-0.1419475377
72.1377182,-4.215569019,0.7861497402,-0.01556830667,-0.002452373505,-0.02254363336,20.34225845,-0.3494824767,-0.002218583832,20.34496689,0.1091559008,0.03332717344,0.0005353707238,0.005380260292,0,0.05399045348,0,0.0432779789,73.03340912,-4.230604172,0.7860261202,-0.01389371075,-0.002329230013,-0.02270092675,20.38127327,-0.3947184682,-0.002366791246,20.38498116,0.06801727414,0.03771988302,0.004061996471,0.002635144163,0.03869394958,0.9245872498,-0.9505671859,-0.06342986226
73.03340912,-4.230604172,0.7860261202,-0.01389371045,-0.002329230076,-0.02270092629,20.38127327,-0.3947184682,-0.002366791246,20.38498116,0.06801727414,0.03771988302,0.004061996471,0.002635144163,0,0,0,0.04386210442,73.93959045,-4.24751997,0.7858704925,-0.01215999525,-0.002034307217,-0.02278747444,20.3842907,-0.4263475835,-0.002528881188,20.38871193,0.03822939843,0.03800345585,0.007524074987,0.001550782239,0.03952649236,0.08505688608,-0.6791255474,-0.02472206764
73.93959045,-4.24751997,0.7858704925,-0.0121599948,-0.002034307225,-0.0227874741,20.3842907,-0.4263475835,-0.002528881188,20.38871193,0.03822939843,0.03800345585,0.007524074987,0.001550782239,0,0,0,0.05830693245,75.11845398,-4.271334648,0.7856283188,-0.009925067598,-0.001435518389,-0.02285874898,20.33759117,-0.4520479739,-0.002770819003,20.34261131,0.01292150281,0.03783519939,0.0114785973,0.0008891591569,0.03833038732,-0.7906541228,-0.4340460896,-0.01134724542
75.11845398,-4.271334648,0.7856283188,-0.009925067425,-0.001435518381,-0.02285874821,20.33759117,-0.4520479739,-0.002770819003,20.34261131,0.01292150281,0.03783519939,0.0114785973,0.0008891591569,0,0,0,0.04499578476,76.01950836,-4.29047966,0.7854207158,-0.008312789178,-0.0008951418561,-0.02276014576,20.2726059,-0.454533428,-0.002950053429,20.27770042,0.00695190765,0.03568166867,0.01194810588,-0.008258911781,0.03583176062,-1.442599297,-0.1326701045,-0.2033095062
76.01950836,-4.29047966,0.7854207158,-0.008312788792,-0.0008951418567,-0.02276014537,20.2726059,-0.454533428,-0.002950053429,20.27770042,0.00695190765,0.03568166867,0.01194810588,-0.008258911781,-0.09048416466,0,0,0.0586271286,77.19947815,-4.313928604,0.7851341963,-0.005930325506,-0.0001616481103,-0.01958176844,20.1595211,-0.373939991,-0.003114425112,20.16297913,0.0208655335,0.04276973754,0.01164372452,-0.08825542778,0.04063755646,-1.956795454,0.2373240143,-1.364496589
77.19947815,-4.313928604,0.7851341963,-0.005930325482,-0.0001616481168,-0.01958176866,20.1595211,-0.373939991,-0.003114425112,20.16297913,0.0208655335,0.04276973754,0.01164372452,-0.08825542778,-0.2321221679,0,0,0.04370689392,78.09333801,-4.326519489,0.7849105,-0.003630953688,0.0003935098079,-0.01241694011,20.05551529,-0.2418125719,-0.00323300017,20.0569725,0.007227791473,0.05436277017,0.0114192795,-0.1951427311,0.0526089035,-2.425398111,-0.3120272458,-2.445547819
78.09333801,-4.326519489,0.7849105,-0.003630953608,0.0003935098066,-0.01241694018,20.05551529,-0.2418125719,-0.00323300017,20.0569725,0.007227791473,0.05436277017,0.0114192795,-0.1951427311,-0.5210199952,0,0,0.0436463356,78.98445892,-4.331227779,0.7846859097,-0.0008058726374,0.0009304283688,8.560230114e-06,19.93643188,-0.04392092675,-0.003378985217,19.93643188,-0.04409158602,0.06823085248,0.01147052273,-0.3273460269,0.06472665071,-2.761758089,-1.175800323,-3.028966665
