x_pos,y_pos,z_pos,roll,pitch,yaw,u_x,u_y,u_z,comp_u_x,comp_u_y,roll_mder,pitch_mder,yaw_mder,steer,throttle,brake,time_step,act_x_pos,act_y_pos,act_z_pos,act_roll,act_pitch,act_yaw,act_u_x,act_u_y,act_u_z,act_comp_u_x,act_comp_u_y,act_roll_mder,act_pitch_mder,act_yaw_mder,accel_roll,accel_x,accel_y,accel_yaw
-0.02133010255608525,0.06466402440182022,0.10916050042508005,3.883250903015866e-05,-0.02081174868134536,2.340616905115612,-0.38096463640986955,0.3942633089183594,0.005352856873556782,0.5482489079643502,-0.0008636376874904816,-0.037296368341331675,0.10748330932948516,-0.021171474695963984,0.0,1.0,0.0,0.02500000000145519,-0.032161933829218725,0.07577271220570399,0.10932617873285377,-2.7209965900013967e-06,-0.021217059455815264,2.340727827188356,-0.4792187797179987,0.4921722161367254,0.007451270603647591,0.6869366660903993,0.0014649068061389214,0.0446818238019676,-0.05280546255451387,2.6781363469806336e-05,-0.001662140224709653,5.547510324719054,0.09314177973975456,0.00443688290949249
-0.032161933829218725,0.07577271220570399,0.10932617873285377,-2.7209965900013967e-06,-0.021217059455815264,2.340727827188356,-0.4792187797179987,0.4921722161367254,0.007451270603647591,0.6869366660903993,0.0014649068061389214,0.0446818238019676,-0.05280546255451387,2.6781363469806336e-05,0.0,1.0,0.0,0.024999999997817213,-0.045394570597789397,0.08938248783923544,0.10951012813649064,-2.621965081280983e-07,-0.021244723959776723,2.340761868765716,-0.5762432365461441,0.5920302734880816,0.0068202699521737065,0.8261680188730358,0.0015865002210133095,0.0008580980974548898,-0.017443113010443646,0.005896661442511621,9.835200328351919e-05,5.569254111791722,0.004863736595400181,0.0013616630945224423
-0.045394570597789397,0.08938248783923544,0.10951012813649064,-2.621965081280983e-07,-0.021244723959776723,2.340761868765716,-0.5762432365461441,0.5920302734880816,0.0068202699521737065,0.8261680188730358,0.0015865002210133095,0.0008580980974548898,-0.017443113010443646,0.005896661442511621,0.0,1.0,0.0,0.05500000000029104,-0.08286750365866347,0.12799310679462403,0.10972806571851121,-9.0636762478757e-06,-0.02088868607944826,2.340640591715936,-0.7836947580006918,0.8078733324271615,0.0008309852586017678,1.1255383723658579,0.00040901924854797045,0.03398891990339269,-0.03126121244191714,-0.00010491349463197363,-0.00016002690435820048,5.443097336204326,-0.02140874495380197,-0.0022050372687164076
-0.08286750365866347,0.12799310679462403,0.10972806571851121,-9.0636762478757e-06,-0.02088868607944826,2.340640591715936,-0.7836947580006918,0.8078733324271615,0.0008309852586017678,1.1255383723658579,0.00040901924854797045,0.03398891990339269,-0.03126121244191714,-0.00010491349463197363,0.01141608040779829,1.0,0.0,0.020000000000436557,-0.09933462693080308,0.1449567522407831,0.10972788299664096,-9.565081667911065e-06,-0.020809495679162335,2.3406266350026304,-0.8586639358892474,0.8860961886841879,-0.000948716585055142,1.2338841819736919,-0.0001894005568844337,0.03643450456947013,-0.03329892064242952,0.0026591136716172543,-2.5070271001221022e-05,5.417290480273453,-0.029920990270967094,-0.000697835665260138
-0.09933462693080308,0.1449567522407831,0.10972788299664096,-9.565081667911065e-06,-0.020809495679162335,2.3406266350026304,-0.8586639358892474,0.8860961886841879,-0.000948716585055142,1.2338841819736919,-0.0001894005568844337,0.03643450456947013,-0.03329892064242952,0.0026591136716172543,0.020263366401195526,1.0,0.0,0.020000000000436557,-0.11730753082283307,0.16347392861464627,0.1096989705681152,-4.24294577965077e-06,-0.020799365435236392,2.3406345879506922,-0.9355885952193669,0.9637071287857406,-0.001938909092685289,1.3431516734020286,0.0010157826217374044,0.007173646296443642,-0.005058607915671877,-0.0011666102663029916,0.0002661067944072062,5.463374571297581,0.060259158929776575,0.00039764740308554584
-0.11730753082283307,0.16347392861464627,0.1096989705681152,-4.24294577965077e-06,-0.020799365435236392,2.3406345879506922,-0.9355885952193669,0.9637071287857406,-0.001938909092685289,1.3431516734020286,0.0010157826217374044,0.007173646296443642,-0.005058607915671877,-0.0011666102663029916,0.07522750645875931,1.0,0.0,0.040000000000873115,-0.15764351098250984,0.2052739860834001,0.10961510717081074,-0.00020809268520187728,-0.02047916585334584,2.3402664564374374,-1.074285794731535,1.1257707697974673,-0.0018184361438463859,1.5560574223473416,-0.011622962191044195,-0.16758668183330167,0.11040500241767862,0.041279859203382736,-0.005096243485444422,5.322643723516643,-0.31596862031264306,-0.009203287831171032
-0.15764351098250984,0.2052739860834001,0.10961510717081074,-0.00020809268520187728,-0.02047916585334584,2.3402664564374374,-1.074285794731535,1.1257707697974673,-0.0018184361438463859,1.5560574223473416,-0.011622962191044195,-0.16758668183330167,0.11040500241767862,0.041279859203382736,0.10762645304203033,1.0,0.0,0.01999999999679858,-0.17984625417454048,0.2287046983448092,0.1095821197241569,-0.0002996884856451199,-0.020660560534871746,2.3396468564500235,-1.1420917848271774,1.2135218184523666,-0.0012398148874729759,1.6662780682092089,-0.02294010101664057,-0.06030379897214023,-0.07182081989835228,0.05467301916908287,-0.004579790022895224,5.511032293975522,-0.565856941370396,-0.030979999375653957
-0.17984625417454048,0.2287046983448092,0.1095821197241569,-0.0002996884856451199,-0.020660560534871746,2.3396468564500235,-1.1420917848271774,1.2135218184523666,-0.0012398148874729759,1.6662780682092089,-0.02294010101664057,-0.06030379897214023,-0.07182081989835228,0.05467301916908287,0.22843658924102783,1.0,0.0,0.020000000000436557,-0.20345224951175744,0.25378534702684535,0.10956551361375103,0.0009708434702340724,-0.020693479282059887,2.3389504608432854,-1.2261179301181777,1.2813584214302476,5.929544352138022e-05,1.7734634582112891,-0.008482046731520865,0.04997305525019543,-0.03844944876426564,0.03621509033746778,0.06352659779257297,5.3592694999870325,0.7229027142402058,-0.034819780336143205
-0.20345224951175744,0.25378534702684535,0.10956551361375103,0.0009708434702340724,-0.020693479282059887,2.3389504608432854,-1.2261179301181777,1.2813584214302476,5.929544352138022e-05,1.7734634582112891,-0.008482046731520865,0.04997305525019543,-0.03844944876426564,0.03621509033746778,0.23139595985412598,0.9917076230049133,0.0,0.02500000000145519,-0.23557851781636074,0.28688235875307655,0.10956627472351538,-0.000282856367772067,-0.02060084337454135,2.3382207610459274,-1.322890059373741,1.3771797892292974,0.00025223224166788516,1.909619263390189,-0.004068161823710503,-0.012173066267848625,0.029077298727716836,0.014808300780959785,-0.05014799351732658,5.44623220683898,0.17655539630213757,-0.029187991892622677
-0.23557851781636074,0.28688235875307655,0.10956627472351538,-0.000282856367772067,-0.02060084337454135,2.3382207610459274,-1.322890059373741,1.3771797892292974,0.00025223224166788516,1.909619263390189,-0.004068161823710503,-0.012173066267848625,0.029077298727716836,0.014808300780959785,0.18620391190052032,0.54758620262146,0.0,0.029999999998835847,-0.2769697543043321,0.32995143048398023,0.10959005715195066,-0.00014166593082862343,-0.018281738958058243,2.3376728735808583,-1.4202394580829494,1.4891471262162694,0.001666626947114079,2.057796539002518,-0.010615360718437605,-0.05654941177521378,0.14715470885550572,0.001019704422614536,0.004706347898297415,4.939242520602633,-0.21823996316603889,-0.01826291550301081
-0.2769697543043321,0.32995143048398023,0.10959005715195066,-0.00014166593082862343,-0.018281738958058243,2.3376728735808583,-1.4202394580829494,1.4891471262162694,0.001666626947114079,2.057796539002518,-0.010615360718437605,-0.05654941177521378,0.14715470885550572,0.001019704422614536,0.1744280755519867,0.4931461215019226,0.0,0.020000000000436557,-0.30575938305813644,0.36038200108612733,0.10964354480708516,-0.0007966450491087154,-0.012872217985136684,2.3354273445507636,-1.4512037157645377,1.5452054572630687,0.002485704237077887,2.119704651656879,-0.0224570601049896,-0.3571794353736508,0.22567524983033804,0.19414391686588892,-0.03274895591328976,3.0954056326504964,-0.5920849693146758,-0.11227645150228288
-0.30575938305813644,0.36038200108612733,0.10964354480708516,-0.0007966450491087154,-0.012872217985136684,2.3354273445507636,-1.4512037157645377,1.5452054572630687,0.002485704237077887,2.119704651656879,-0.0224570601049896,-0.3571794353736508,0.22567524983033804,0.19414391686588892,0.12140601873397827,0.4914506673812866,0.0,0.04500000000189175,-0.3708446736996258,0.43273608801056507,0.10979658286879254,0.0006501153748634278,-0.005604634257618312,2.324781625644691,-1.457503065653564,1.6550202119992405,0.0005921485415464681,2.204187101996905,-0.07047203634091126,-0.0062057799143223355,0.1726210133747225,0.18727652900626013,0.03215023164247384,1.8773877852549803,-1.0669994718645148,-0.23657153123611452
-0.3708446736996258,0.43273608801056507,0.10979658286879254,0.0006501153748634278,-0.005604634257618312,2.324781625644691,-1.457503065653564,1.6550202119992405,0.0005921485415464681,2.204187101996905,-0.07047203634091126,-0.0062057799143223355,0.1726210133747225,0.18727652900626013,0.11453165113925934,0.49086493253707886,0.0,0.03499999999985448,-0.4228206299662034,0.49142911268027306,0.10972371330477282,7.004032382625161e-05,-0.00419428910075732,2.316428346857013,-1.4971306973907177,1.7125320539800413,-0.004294956788772458,2.27383529705806,-0.06196291497017192,0.0512702510099713,0.13608953554370884,0.16779767175663227,-0.01657357288684537,1.9899484303269925,0.24311775345070613,-0.2386651082203605
-0.4228206299662034,0.49142911268027306,0.10972371330477282,7.004032382625161e-05,-0.00419428910075732,2.316428346857013,-1.4971306973907177,1.7125320539800413,-0.004294956788772458,2.27383529705806,-0.06196291497017192,0.0512702510099713,0.13608953554370884,0.16779767175663227,0.11354519426822662,0.4914506673812866,0.0,0.039999999997235136,-0.48396391209667655,0.5609693787793756,0.10954217071985209,-6.462890735962914e-06,-0.003897811902447938,2.307854396703347,-1.5535323782191885,1.770845253019434,-0.005242526375187876,2.3553692073284056,-0.03989558228663159,-0.05336832095223247,0.04866718402538659,0.19052747311674417,-0.0019125803641875637,2.0383477568995345,0.5516833171266415,-0.21434875385646943
-0.48396391209667655,0.5609693787793756,0.10954217071985209,-6.462890735962914e-06,-0.003897811902447938,2.307854396703347,-1.5535323782191885,1.770845253019434,-0.005242526375187876,2.3553692073284056,-0.03989558228663159,-0.05336832095223247,0.04866718402538659,0.19052747311674417,0.17344161868095398,0.6504243612289429,0.0,0.02500000000145519,-0.5230162646027923,0.6058744868978077,0.10945576023370954,-0.0005749533482135914,-0.003984061665815125,2.3021650606258524,-1.5644145230867674,1.826655134746236,-0.002155706921740516,2.4043632449141215,-0.05567017015983877,-0.037754176208009964,0.026096108149314023,0.2816047185352166,-0.02273961829778152,1.959761503314561,-0.6309835148915591,-0.2275734430865357
-0.5230162646027923,0.6058744868978077,0.10945576023370954,-0.0005749533482135914,-0.003984061665815125,2.3021650606258524,-1.5644145230867674,1.826655134746236,-0.002155706921740516,2.4043632449141215,-0.05567017015983877,-0.037754176208009964,0.026096108149314023,0.2816047185352166,0.1999526470899582,0.6469717621803284,0.0,0.02500000000145519,-0.5624483626731118,0.6523943576669181,0.10939952015934787,-1.7142526007200744e-05,-0.006239546627836821,2.295322257200378,-1.5977441402656392,1.8881774175018378,-0.001580711116815816,2.472846841349143,-0.05503450687217071,0.11764562318839228,-0.12399374433131644,0.24768067990912476,0.022312432886956873,2.739343857241407,0.025426531505242565,-0.2737121370030433
-0.5624483626731118,0.6523943576669181,0.10939952015934787,-1.7142526007200744e-05,-0.006239546627836821,2.295322257200378,-1.5977441402656392,1.8881774175018378,-0.001580711116815816,2.472846841349143,-0.05503450687217071,0.11764562318839228,-0.12399374433131644,0.24768067990912476,0.2726113498210907,0.6504243612289429,0.0,0.029999999998835847,-0.6109965458097033,0.7104438021800965,0.10937213882805391,-0.0004976461805927381,-0.008255888839438213,2.28679119918915,-1.6292689805525493,1.9861015991124893,-4.47255847974698e-05,2.5677962389256264,-0.07442747038115716,0.23889167515434426,-0.06815396489975635,0.22200512198515276,-0.01601678848680611,3.1649799193389327,-0.6464321169912999,-0.2843686003852979
-0.6109965458097033,0.7104438021800965,0.10937213882805391,-0.0004976461805927381,-0.008255888839438213,2.28679119918915,-1.6292689805525493,1.9861015991124893,-4.47255847974698e-05,2.5677962389256264,-0.07442747038115716,0.23889167515434426,-0.06815396489975635,0.22200512198515276,0.29616302251815796,0.6469717621803284,0.0,0.040000000000873115,-0.6777254448374403,0.7919412128708283,0.10942430791214719,-0.0006449045389560103,-0.00895213326113192,2.2755816024167865,-1.696958708467875,2.0919727159349013,0.0029871943469077164,2.6929707551588606,-0.06266749013740114,0.0679165602410902,-0.008720020459924694,0.24575900311797785,-0.003681458959001448,3.12936290576255,0.2939995060874831,-0.2802399193029717
-0.6777254448374403,0.7919412128708283,0.10942430791214719,-0.0006449045389560103,-0.00895213326113192,2.2755816024167865,-1.696958708467875,2.0919727159349013,0.0029871943469077164,2.6929707551588606,-0.06266749013740114,0.0679165602410902,-0.008720020459924694,0.24575900311797785,0.2942209243774414,0.5691958069801331,0.0,0.039999999997235136,-0.7458228529432072,0.8784514400888902,0.10961300467488297,-0.00659321780410469,-0.007500539554395394,2.25517595332416,-1.6926624806354749,2.2357500338100134,0.00684801706015605,2.8023730538413236,-0.10193014341482898,-0.17313505316120356,0.11612222012470891,0.5863877864041752,-0.14870783163899592,2.735057467250626,-0.9815663320035434,-0.5101412273509254
-0.7458228529432072,0.8784514400888902,0.10961300467488297,-0.00659321780410469,-0.007500539554395394,2.25517595332416,-1.6926624806354749,2.2357500338100134,0.00684801706015605,2.8023730538413236,-0.10193014341482898,-0.17313505316120356,0.11612222012470891,0.5863877864041752,0.23235158622264862,0.5566492676734924,0.0,0.04500000000189175,-0.8216594074304453,0.9825692229972065,0.10982392814389225,-0.002283758071148926,-0.006306564604642596,2.2328467430191377,-1.6849981997985555,2.3806053729295824,0.0006686527566940985,2.9134910341545512,-0.13442793179474566,0.10946054066169204,0.17052009187322073,0.40209946886945586,0.09576577183943553,2.469288451301252,-0.7221730750789003,-0.49620467342408076
-0.8216594074304453,0.9825692229972065,0.10982392814389225,-0.002283758071148926,-0.006306564604642596,2.2328467430191377,-1.6849981997985555,2.3806053729295824,0.0006686527566940985,2.9134910341545512,-0.13442793179474566,0.10946054066169204,0.17052009187322073,0.40209946886945586,0.21662993729114532,0.5078505277633667,0.0,0.0750000000007276,-0.9514820342743695,1.1663737181832146,0.109573177161738,-0.0003899379766684057,-0.0024453974147458125,2.2034328910110954,-1.751639684383595,2.5163778935112893,-0.00209500397365143,3.065084230152342,-0.07521933881124365,-0.24885881496698115,0.031173591634189406,0.261840780192442,0.025250934592828636,2.021242613284271,0.7894479064390347,-0.39218469343675866
-0.9514820342743695,1.1663737181832146,0.109573177161738,-0.0003899379766684057,-0.0024453974147458125,2.2034328910110954,-1.751639684383595,2.5163778935112893,-0.00209500397365143,3.065084230152342,-0.07521933881124365,-0.24885881496698115,0.031173591634189406,0.261840780192442,0.10864373296499252,0.4166957139968872,0.0,0.03499999999985448,-1.012865308162576,1.2555282888567652,0.10951632791820945,0.00017326997569008231,-0.0008270055156178654,2.1931228812649595,-1.7595482692040445,2.572087566474421,-0.0004809989810528911,3.115572426096691,-0.06966361329442594,0.01208241146339132,0.1419951831000056,0.20278734829311765,0.01609165578173799,1.44251988413025,0.1587350147668803,-0.29457170703368013
-1.012865308162576,1.2555282888567652,0.10951632791820945,0.00017326997569008231,-0.0008270055156178654,2.1931228812649595,-1.7595482692040445,2.572087566474421,-0.0004809989810528911,3.115572426096691,-0.06966361329442594,0.01208241146339132,0.1419951831000056,0.20278734829311765,0.03203919529914856,0.2520807385444641,0.0,0.024999999997817213,-1.057236267864142,1.3198121752523229,0.1095241838836685,0.00022668342573372243,0.0021084476995445705,2.1881483746822794,-1.7848154032561416,2.569114145312616,0.0016830638698368114,3.1280824370129743,-0.03183995283805929,-0.0682035881701325,-0.1809977468001521,0.29103957540908226,0.0021365380019321488,0.50040043669502,1.5129464183867636,-0.1989802633245757
-1.057236267864142,1.3198121752523229,0.1095241838836685,0.00022668342573372243,0.0021084476995445705,2.1881483746822794,-1.7848154032561416,2.569114145312616,0.0016830638698368114,3.1280824370129743,-0.03183995283805929,-0.0682035881701325,-0.1809977468001521,0.29103957540908226,0.025164823979139328,0.2555333375930786,0.0,0.02500000000145519,-1.1021039779448838,1.3840056599814412,0.10956220888928689,3.675764064330686e-05,0.004357614728497936,2.1855126846918655,-1.8039708501181126,2.5627289692825475,0.0014573888800913579,3.1339866651340174,-0.004263899390529069,0.06229162129249991,-0.08284721031253507,0.026959082319488334,-0.007597031403174418,0.23616912482797617,1.1030421378370034,-0.10542759961041766
-1.1021039779448838,1.3840056599814412,0.10956220888928689,3.675764064330686e-05,0.004357614728497936,2.1855126846918655,-1.8039708501181126,2.5627289692825475,0.0014573888800913579,3.1339866651340174,-0.004263899390529069,0.06229162129249991,-0.08284721031253507,0.026959082319488334,-0.028833210468292236,0.09483333677053452,0.0,0.029999999998835847,-1.1566009196345082,1.460772168485659,0.10958845741103151,-6.823995124731973e-05,0.0061945583014342874,2.186689582438073,-1.824256609286947,2.5510958705671065,-0.000713230517593786,3.136202706756961,0.015326430829244009,0.016068371260668835,0.11495698507182185,-0.1259261878625499,-0.0034999197298233677,0.0738680541009842,0.6530110073511094,0.03922992487511103
-1.1566009196345082,1.460772168485659,0.10958845741103151,-6.823995124731973e-05,0.0061945583014342874,2.186689582438073,-1.824256609286947,2.5510958705671065,-0.000713230517593786,3.136202706756961,0.015326430829244009,0.016068371260668835,0.11495698507182185,-0.1259261878625499,-0.1022009402513504,0.08965443819761276,0.0,0.02500000000145519,-1.2022965013639038,1.524242586666284,0.10961155594085861,0.0005717331676351958,0.008980968314789494,2.1900625844014545,-1.8343345256152421,2.5217375090351153,0.001149469102608821,3.118179518205116,0.029995142687306853,0.07441961718814159,0.1094020180306697,-0.22514188897756415,0.025598924753810568,-0.7209275420318246,0.5867484742883605,0.13492007852739885
-1.2022965013639038,1.524242586666284,0.10961155594085861,0.0005717331676351958,0.008980968314789494,2.1900625844014545,-1.8343345256152421,2.5217375090351153,0.001149469102608821,3.118179518205116,0.029995142687306853,0.07441961718814159,0.1094020180306697,-0.22514188897756415,-0.18626555800437927,0.04902474954724312,0.0,0.029999999998835847,-1.2573647917863902,1.5993937191340477,0.10962903440697783,6.815251278332632e-05,0.010887210876971413,2.193993590964215,-1.8282080575432138,2.492550249608336,0.0001801143650323883,3.0909971808837846,0.029797252507643313,-0.11834453518080308,0.0016660689795626124,-0.0208482775701345,-0.01678602182904703,-0.9060779107462129,-0.006596339322373977,0.13103355209710765
-1.2573647917863902,1.5993937191340477,0.10962903440697783,6.815251278332632e-05,0.010887210876971413,2.193993590964215,-1.8282080575432138,2.492550249608336,0.0001801143650323883,3.0909971808837846,0.029797252507643313,-0.11834453518080308,0.0016660689795626124,-0.0208482775701345,-0.36157745122909546,-0.0,0.0,0.02500000000145519,-1.3032014488122128,1.6611523014857186,0.1096307150247515,9.061171399005921e-06,0.012499615873074792,2.1963451118969695,-1.8297202140761932,2.4519690960872556,-0.0002877928131820584,3.0590473515393715,0.047516428800389976,-0.18543640528544164,-0.14568290906992135,0.00437170812386853,-0.002363653655235233,-1.277993173702137,0.7087670516686109,0.09406083730469528
-1.3032014488122128,1.6611523014857186,0.1096307150247515,9.061171399005921e-06,0.012499615873074792,2.1963451118969695,-1.8297202140761932,2.4519690960872556,-0.0002877928131820584,3.0590473515393715,0.047516428800389976,-0.18543640528544164,-0.14568290906992135,0.00437170812386853,-0.43935340642929077,-0.0,0.0,0.029999999998835847,-1.3576600077345864,1.734262280612661,0.10962512752430528,1.3213458135212942e-06,0.013923062757950943,2.2008649562072278,-1.7984804504850416,2.4229379345081603,-0.000513056258468543,3.0173675925022216,0.025553414114272588,0.13491966762207913,0.02328198008878787,-0.20674230979477143,-0.0002579941861928324,-1.3893253012922404,-0.7321004895656555,0.1506614770144569
-1.3576600077345864,1.734262280612661,0.10962512752430528,1.3213458135212942e-06,0.013923062757950943,2.2008649562072278,-1.7984804504850416,2.4229379345081603,-0.000513056258468543,3.0173675925022216,0.025553414114272588,0.13491966762207913,0.02328198008878787,-0.20674230979477143,-0.505569338798523,-0.009597300551831722,0.009597300551831722,0.03499999999985448,-1.4208068291056488,1.8176864572649,0.10960863708511262,0.0009149890604907418,0.015138261253387728,2.2081350910616213,-1.8099350922798592,2.343383801777606,-0.0013762967134186635,2.9603535717913925,0.06016153822595016,0.14720266311505872,0.181286990357258,-0.4509072890177947,0.026104791848029125,-1.6289720203161777,0.9888035460520418,0.2077181386978219
-1.4208068291056488,1.8176864572649,0.10960863708511262,0.0009149890604907418,0.015138261253387728,2.2081350910616213,-1.8099350922798592,2.343383801777606,-0.0013762967134186635,2.9603535717913925,0.06016153822595016,0.14720266311505872,0.181286990357258,-0.4509072890177947,-0.5180850028991699,-0.011385253630578518,0.011385253630578518,0.06000000000130967,-1.5314989312452152,1.953247128936706,0.1098079201761433,0.008509917431454931,0.01500045616331673,2.2407770106351546,-1.8864023360134432,2.168545679725533,0.00516435105640943,2.871179954176118,0.1320220023726244,-0.05027099528440309,-0.05795226219549443,-0.5062214560900263,0.12658213951330682,-1.4862269602221363,1.197674402418428,0.5440319928803456
-1.5314989312452152,1.953247128936706,0.1098079201761433,0.008509917431454931,0.01500045616331673,2.2407770106351546,-1.8864023360134432,2.168545679725533,0.00516435105640943,2.871179954176118,0.1320220023726244,-0.05027099528440309,-0.05795226219549443,-0.5062214560900263,-0.5297066569328308,-0.010522103868424892,0.010522103868424892,0.03499999999985448,-1.5980239754470897,2.0275138851827355,0.10991878133692073,0.0065562067687350385,0.015373967397958809,2.2624719309720605,-1.9144401691824688,2.0748764588067288,0.0014890277662318457,2.8191096000699196,0.15104483931391988,-0.11756151975306935,-0.03098718175916597,-0.6822414500531405,-0.05582030464937188,-1.4877244030404198,0.5435096268964161,0.6198548667713171
-1.5980239754470897,2.0275138851827355,0.10991878133692073,0.0065562067687350385,0.015373967397958809,2.2624719309720605,-1.9144401691824688,2.0748764588067288,0.0014890277662318457,2.8191096000699196,0.15104483931391988,-0.11756151975306935,-0.03098718175916597,-0.6822414500531405,-0.4590516984462738,0.4188535809516907,0.0,0.03499999999985448,-1.6656567359923304,2.0984346889481365,0.10993107029752724,0.007606151844899157,0.01333655007628527,2.2893273634987086,-1.954642261332834,1.9780093980638314,0.0006245937945229332,2.7756942144356627,0.16931974653171644,0.3343246807308003,-0.3002525461859721,-0.769362096219174,0.029998430747670966,-1.240439589555356,0.52214020622493,0.7672980721931366
-1.6656567359923304,2.0984346889481365,0.10993107029752724,0.007606151844899157,0.01333655007628527,2.2893273634987086,-1.954642261332834,1.9780093980638314,0.0006245937945229332,2.7756942144356627,0.16931974653171644,0.3343246807308003,-0.3002525461859721,-0.769362096219174,-0.3481369614601135,0.6763188242912292,0.0,0.024999999997817213,-1.7154292094396597,2.1477538696881178,0.10981462103411391,0.00716422511963835,0.003777839603848284,2.3083277970937037,-2.0311099658979024,1.9697037332741996,-0.006954240773499477,2.8236845669533537,0.17873431901442194,0.3385898664810802,-0.26303000521156356,-0.8415455191957708,-0.01767706901197568,1.919614100875245,0.3765828993410999,0.7600173438661642
-1.7154292094396597,2.1477538696881178,0.10981462103411391,0.00716422511963835,0.003777839603848284,2.3083277970937037,-2.0311099658979024,1.9697037332741996,-0.006954240773499477,2.8236845669533537,0.17873431901442194,0.3385898664810802,-0.26303000521156356,-0.8415455191957708,-0.3150598406791687,0.6962020993232727,0.0,0.030000000002473826,-1.7779841479734388,2.2073516168744702,0.10952113460358873,0.0028878316687967307,-0.004936087001627109,2.328000367800005,-2.1385257272053075,2.001897138790703,-0.010092240809715032,2.923834025821205,0.179106196619647,-0.12394968646787875,-0.25484269899967765,-0.5635168810280333,-0.14254644834963281,3.3383152953197635,0.012395920173146394,0.6557523568226341
-1.7779841479734388,2.2073516168744702,0.10952113460358873,0.0028878316687967307,-0.004936087001627109,2.328000367800005,-2.1385257272053075,2.001897138790703,-0.010092240809715032,2.923834025821205,0.179106196619647,-0.12394968646787875,-0.25484269899967765,-0.5635168810280333,-0.26943621039390564,0.7636202573776245,0.0,0.020000000000436557,-1.82138856720006,2.2477604839569145,0.10932002633148191,6.734702343902806e-07,-0.008251436159200725,2.340946294149433,-2.1955983882851955,2.042449052314801,-0.007603444892315354,2.9947524994475856,0.15397363733644975,0.21164981654641735,-0.19440332345382963,-0.6890524095506312,-0.144357909924966,3.54592368124163,-1.2566279641324325,0.6472963174572728
-1.82138856720006,2.2477604839569145,0.10932002633148191,6.734702343902806e-07,-0.008251436159200725,2.340946294149433,-2.1955983882851955,2.042449052314801,-0.007603444892315354,2.9947524994475856,0.15397363733644975,0.21164981654641735,-0.19440332345382963,-0.6890524095506312,-0.2095089554786682,0.778293788433075,0.0,0.04499999999825377,-1.9234445845352433,2.3418613219003475,0.10918214467682799,0.0005946584767928077,-0.012249008974155928,2.367498803782721,-2.351995708108216,2.128933495618822,0.002534470301967781,3.170075958942278,0.12190182223183976,0.12662701050087571,-0.26825754907496613,-0.43969593704039783,0.013199666812921491,3.896076877811014,-0.7127070023523231,0.5900557696515226
-1.9234445845352433,2.3418613219003475,0.10918214467682799,0.0005946584767928077,-0.012249008974155928,2.367498803782721,-2.351995708108216,2.128933495618822,0.002534470301967781,3.170075958942278,0.12190182223183976,0.12662701050087571,-0.26825754907496613,-0.43969593704039783,-0.038697779178619385,0.7627263069152832,0.0,0.049999999999272404,-2.0451460107536015,2.4511719319464444,0.1094286717735459,0.00048338262871980525,-0.012471115543827857,2.389693469596786,-2.5180178707244107,2.233003367624176,0.005906374394266868,3.3643445157233662,0.08890453661381859,-0.2949560873168695,-0.12421993232406535,-0.38720124196202826,-0.002225516961492434,3.8853711356783087,-0.659945712370027,0.4438933162877603
-2.0451460107536015,2.4511719319464444,0.1094286717735459,0.00048338262871980525,-0.012471115543827857,2.389693469596786,-2.5180178707244107,2.233003367624176,0.005906374394266868,3.3643445157233662,0.08890453661381859,-0.2949560873168695,-0.12421993232406535,-0.38720124196202826,-0.02793923392891884,0.7506421804428101,0.0,0.030000000002473826,-2.1221405233065775,2.5191327471500196,0.10959057945162329,0.0002815871250098637,-0.012627739309776776,2.4001669772996257,-2.610456369237784,2.2984630894314764,0.0051109516800502824,3.4774726820588073,0.06781426625518172,0.14717180815740988,0.0066015792237805095,-0.3796505493739616,-0.00672651678977671,3.770938877537082,-0.7030090118965914,0.3491169233991949
-2.1221405233065775,2.5191327471500196,0.10959057945162329,0.0002815871250098637,-0.012627739309776776,2.4001669772996257,-2.610456369237784,2.2984630894314764,0.0051109516800502824,3.4774726820588073,0.06781426625518172,0.14717180815740988,0.0066015792237805095,-0.3796505493739616,-0.013666435144841671,0.5847324728965759,0.0,0.03499999999985448,-2.215012455507307,2.600762296118475,0.10973376546621752,0.00035637886950370474,-0.009699390537350628,2.409227001845102,-2.711364844280974,2.3436477047159574,0.0023265958265389214,3.5831911780332684,0.07017737732151241,-0.49920530522443124,-0.19927166039434893,-0.0862858441272901,0.0021369069855472,3.0205284564257306,0.06751745903830049,0.2588578441575381
-2.215012455507307,2.600762296118475,0.10973376546621752,0.00035637886950370474,-0.009699390537350628,2.409227001845102,-2.711364844280974,2.3436477047159574,0.0023265958265389214,3.5831911780332684,0.07017737732151241,-0.49920530522443124,-0.19927166039434893,-0.0862858441272901,-0.006946197710931301,0.574806272983551,0.0,0.024999999997817213,-2.283139392051188,2.6601971475298867,0.10976107955449693,0.0005536791155129499,-0.007090246309132749,2.413759350947227,-2.7401311633280074,2.3987149532581498,-0.001104952955896861,3.6415835609520264,0.03195915877344713,-0.1354257607774477,-0.051955409457304404,-0.0172615166684102,0.007892009841058869,2.3356953169542543,-1.528728742056087,0.18129396410083656
-2.283139392051188,2.6601971475298867,0.10976107955449693,0.0005536791155129499,-0.007090246309132749,2.413759350947227,-2.7401311633280074,2.3987149532581498,-0.001104952955896861,3.6415835609520264,0.03195915877344713,-0.1354257607774477,-0.051955409457304404,-0.0172615166684102,-0.007377772592008114,0.5700897574424744,0.0,0.02500000000145519,-2.3523491848808735,2.7206503285972183,0.10973861748762506,-0.0006008433314407888,-0.006455211778777212,2.415287252691634,-2.7886543068299345,2.4385211389060517,-0.0007595437984378867,3.7043414146174896,0.028859519096957165,-0.042028721569043026,-0.1700799378537656,0.01929086172976607,-0.046180897875461466,2.510314146472407,-0.1239855870523816,0.06111606977272172
-2.3523491848808735,2.7206503285972183,0.10973861748762506,-0.0006008433314407888,-0.006455211778777212,2.415287252691634,-2.7886543068299345,2.4385211389060517,-0.0007595437984378867,3.7043414146174896,0.028859519096957165,-0.042028721569043026,-0.1700799378537656,0.01929086172976607,-0.007377772592008114,0.5674694776535034,0.0,0.029999999998835847,-2.436491121469224,2.79496039540977,0.10965968975620408,0.0006762184415149944,-0.00592010233371134,2.4172884826603798,-2.83145247342779,2.5005967234251525,-0.0049487693738626375,3.777578074407048,0.0033127396660699304,-0.2965534693710947,-0.11823654868994919,0.24706058670770745,0.04256872576684465,2.441221993080019,-0.8515593143959527,0.06670766562744672
-2.436491121469224,2.79496039540977,0.10965968975620408,0.0006762184415149944,-0.00592010233371134,2.4172884826603798,-2.83145247342779,2.5005967234251525,-0.0049487693738626375,3.777578074407048,0.0033127396660699304,-0.2965534693710947,-0.11823654868994919,0.24706058670770745,-0.007901827804744244,0.5726484060287476,0.0,0.03499999999985448,-2.5365311947546356,2.88361664477032,0.1095747201771243,0.00036035537339429164,-0.005677798056895317,2.416471822054982,-2.882633362242049,2.5704896878590784,-0.0024274076864956307,3.862233696586191,-0.011967015289125138,-0.0010335083384921651,0.044067387697096776,0.03852741885037433,-0.009024659089200457,2.4187320622712853,-0.43656442729310274,-0.0233331601543218
-2.5365311947546356,2.88361664477032,0.1095747201771243,0.00036035537339429164,-0.005677798056895317,2.416471822054982,-2.882633362242049,2.5704896878590784,-0.0024274076864956307,3.862233696586191,-0.011967015289125138,-0.0010335083384921651,0.044067387697096776,0.03852741885037433,-0.0029078898951411247,0.5691958069801331,0.0,0.030000000002473826,-2.623671878783381,2.9615111476362017,0.1095237047788841,0.0006421653630135432,-0.0050907245959910625,2.4145880153147408,-2.9243883953140872,2.6212195596986936,0.0002547530169313694,3.9271642626085432,-0.014843223538488326,0.11218205301390283,0.14406433377906774,-0.004958505649748193,0.009393666319867107,2.1643522005665936,-0.09587360830420044,-0.0627935580028598
-2.623671878783381,2.9615111476362017,0.1095237047788841,0.0006421653630135432,-0.0050907245959910625,2.4145880153147408,-2.9243883953140872,2.6212195596986936,0.0002547530169313694,3.9271642626085432,-0.014843223538488326,0.11218205301390283,0.14406433377906774,-0.004958505649748193,-0.0038018664345145226,0.5795536041259766,0.0,0.039999999997235136,-2.7418617833801306,3.0678973321229805,0.10952945389096633,0.0002837799920137776,-0.005540746482804461,2.4123823152180752,-2.982332102733827,2.700886898056781,0.0010837583662820956,4.023476949745231,-0.02698225269252852,0.10205964747753933,0.019161736416747812,0.07315339972157307,-0.008959634275613443,2.4078171785836364,-0.30347572887198154,-0.055142502420450074
-2.7418617833801306,3.0678973321229805,0.10952945389096633,0.0002837799920137776,-0.005540746482804461,2.4123823152180752,-2.982332102733827,2.700886898056781,0.0010837583662820956,4.023476949745231,-0.02698225269252852,0.10205964747753933,0.019161736416747812,0.07315339972157307,-0.001119936816394329,0.6936435103416443,0.0,0.03499999999985448,-2.8476983679981167,3.163447675603836,0.10954253586345325,-0.00030123170143343093,-0.008322312712896619,2.4069657717093027,-3.0636260837431726,2.7644612755740012,0.0015190518002813833,4.12650535008213,0.002126236892162403,0.17325286948119178,-0.44158263850867874,0.189795073035611,-0.016714619812846884,2.943668581066492,0.8316711309946271,-0.1547583859655726
-2.8476983679981167,3.163447675603836,0.10954253586345325,-0.00030123170143343093,-0.008322312712896619,2.4069657717093027,-3.0636260837431726,2.7644612755740012,0.0015190518002813833,4.12650535008213,0.002126236892162403,0.17325286948119178,-0.44158263850867874,0.189795073035611,-0.0029078898951411247,0.6871390342712402,0.0,0.020000000000436557,-2.909208267892067,3.2194382325357194,0.10955301553887486,-2.7983388724002128e-05,-0.008326428956875073,2.407107002700055,-3.0894094768424805,2.8232138901755564,0.0016297459308761697,4.185017739573171,-0.024781136822122463,-0.10994222033046745,-0.1345852288707052,0.0576676201881289,0.013662415635173219,2.9256194744881725,-1.3453686856848768,0.007061549537469474
-2.909208267892067,3.2194382325357194,0.10955301553887486,-2.7983388724002128e-05,-0.008326428956875073,2.407107002700055,-3.0894094768424805,2.8232138901755564,0.0016297459308761697,4.185017739573171,-0.024781136822122463,-0.10994222033046745,-0.1345852288707052,0.0576676201881289,-0.005589819513261318,0.7014118432998657,0.0,0.03499999999985448,-3.018893813360961,3.319808227701376,0.10955895758961773,-0.00022543131122175781,-0.009419816671732783,2.4045516225497137,-3.1636406101893964,2.9125036658082775,0.0018964256120190329,4.300044269790235,-0.03031157584739619,0.4135502490594439,-0.4096374153371388,0.17184298383767943,-0.005641369214245046,3.2864722919297877,-0.15801254357990627,-0.0730108614386325
-3.018893813360961,3.319808227701376,0.10955895758961773,-0.00022543131122175781,-0.009419816671732783,2.4045516225497137,-3.1636406101893964,2.9125036658082775,0.0018964256120190329,4.300044269790235,-0.03031157584739619,0.4135502490594439,-0.4096374153371388,0.17184298383767943,-0.0020447401329874992,0.7895147800445557,0.0,0.030000000002473826,-3.1149608867188823,3.408210818059944,0.10958464998881792,6.394428651396904e-05,-0.0106806589022668,2.401142755607654,-3.2295692968186325,2.9920747428101664,-0.0010338971121216026,4.402469117016919,-0.029912927445963966,-0.148741628076239,0.1563538337011583,0.11081307917256529,0.009645853257062156,3.41416157394125,0.013288280046644979,-0.11362889805928919
-3.1149608867188823,3.408210818059944,0.10958464998881792,6.394428651396904e-05,-0.0106806589022668,2.401142755607654,-3.2295692968186325,2.9920747428101664,-0.0010338971121216026,4.402469117016919,-0.029912927445963966,-0.148741628076239,0.1563538337011583,0.11081307917256529,-0.005312378518283367,0.8941100239753723,0.0,0.06999999999970896,-3.349803598411353,3.6253819746147995,0.1096155116722389,-0.00030491639890799726,-0.01585108856358879,2.396878585328203,-3.4632748061249847,3.211752174122634,0.0033289692758252387,4.723284962231741,-0.014268015875405826,0.4398912919382199,-0.1432005392206986,-0.08758214368507215,-0.0052694383631928556,4.583083503087944,0.22349873672318837,-0.06091671827812512
-3.349803598411353,3.6253819746147995,0.1096155116722389,-0.00030491639890799726,-0.01585108856358879,2.396878585328203,-3.4632748061249847,3.211752174122634,0.0033289692758252387,4.723284962231741,-0.014268015875405826,0.4398912919382199,-0.1432005392206986,-0.08758214368507215,-0.0029078898951411247,0.8958054780960083,0.0,0.06499999999869033,-3.5820789460702116,3.8408258613196757,0.10974243415030321,0.00026861220737546006,-0.01735177478854052,2.3942175475480565,-3.6884089177681494,3.4121145443414207,0.0026860669047456542,5.024626049390092,0.004367169380505409,-0.058899814718683774,0.01816822508595224,0.08258375942990463,0.00882351701992328,4.636016725606496,0.2866951577890263,-0.04093904277230748
-3.5820789460702116,3.8408258613196757,0.10974243415030321,0.00026861220737546006,-0.01735177478854052,2.3942175475480565,-3.6884089177681494,3.4121145443414207,0.0026860669047456542,5.024626049390092,0.004367169380505409,-0.058899814718683774,0.01816822508595224,0.08258375942990463,0.048716481775045395,0.8759530186653137,0.0,0.040000000000873115,-3.731652631307365,3.9801110004242544,0.10982050799968968,-1.5087914749634736e-05,-0.0158725948395556,2.392702661586743,-3.777732018089731,3.553698829848291,0.005275931478237517,5.186432215564226,-0.030910307714053786,0.5786943788583924,-0.20460110469056864,-0.057069886221687,-0.007092503052972555,4.045154154265061,-0.8819369273447291,-0.03787214903200931
-3.731652631307365,3.9801110004242544,0.10982050799968968,-1.5087914749634736e-05,-0.0158725948395556,2.392702661586743,-3.777732018089731,3.553698829848291,0.005275931478237517,5.186432215564226,-0.030910307714053786,0.5786943788583924,-0.20460110469056864,-0.057069886221687,0.11354519426822662,0.8577960729598999,0.0,0.03499999999985448,-3.866349616839873,4.106029215543409,0.10987290476880138,0.000288733144731453,-0.014760476517462899,2.388866875297752,-3.8993177952588938,3.642984376815951,-0.0004234631237300668,5.336287685890166,0.006940573805874095,-0.09287437295837088,0.2331023566176574,0.11472497058918915,0.00868060169949574,4.281584866473244,1.0814537577167216,-0.10959389397162249
-3.866349616839873,4.106029215543409,0.10987290476880138,0.000288733144731453,-0.014760476517462899,2.388866875297752,-3.8993177952588938,3.642984376815951,-0.0004234631237300668,5.336287685890166,0.006940573805874095,-0.09287437295837088,0.2331023566176574,0.11472497058918915,0.11844664812088013,0.7662097215652466,0.0,0.03499999999985448,-4.004025302734556,4.23564565556201,0.10989425739271966,-0.0007211838158419021,-0.012067955059868395,2.386254933153659,-3.963654823337392,3.7575617957383045,-0.0035708528774145293,5.461638071928239,-0.018433084978660474,-0.6882944898597828,-0.10483291534905878,0.04193864871347598,-0.028854770302215827,3.581439601102682,-0.7249616795611448,-0.07462691840297675
-4.004025302734556,4.23564565556201,0.10989425739271966,-0.0007211838158419021,-0.012067955059868395,2.386254933153659,-3.963654823337392,3.7575617957383045,-0.0035708528774145293,5.461638071928239,-0.018433084978660474,-0.6882944898597828,-0.10483291534905878,0.04193864871347598,0.052662309259176254,0.7523993253707886,0.0,0.03499999999985448,-4.144564789615246,4.368366503978248,0.10992560433042978,-0.0011870511007591549,-0.012203306449151036,2.382283517501842,-4.062413191959588,3.8257268016847266,0.004399475004164752,5.580225004044166,0.021803843156926295,-0.4670715952255475,-0.0591209735742155,0.33237965608825193,-0.013310493854833991,3.3881980604691497,1.1496265181644019,-0.1134690186238121
-4.144564789615246,4.368366503978248,0.10992560433042978,-0.0011870511007591549,-0.012203306449151036,2.382283517501842,-4.062413191959588,3.8257268016847266,0.004399475004164752,5.580225004044166,0.021803843156926295,-0.4670715952255475,-0.0591209735742155,0.33237965608825193,0.026151280850172043,0.7359686493873596,0.0,0.05500000000029104,-4.37026083186718,4.584132703486772,0.10994215934909016,9.945172309478433e-05,-0.012486138282793009,2.3755398301188144,-4.1701906281414,3.999163274128931,-0.00023936149043170263,5.777864026260501,0.009168545401811112,-0.11147090935745899,-0.046628947487921166,0.14697387105399104,0.02339096043358421,3.593436767550714,-0.22973268645542402,-0.12261249787257941
-4.37026083186718,4.584132703486772,0.10994215934909016,9.945172309478433e-05,-0.012486138282793009,2.3755398301188144,-4.1701906281414,3.999163274128931,-0.00023936149043170263,5.777864026260501,0.009168545401811112,-0.11147090935745899,-0.046628947487921166,0.14697387105399104,0.016317538917064667,0.6478348970413208,0.0,0.029999999998835847,-4.496274051337304,4.704958620745891,0.1098651573681661,-0.00017494980702427798,-0.008147644920640662,2.374363451921188,-4.221316487609706,4.064776269526405,-0.006182221121678863,5.860196342421904,0.004223521691486987,-0.6010995711514474,0.44973266506074877,0.0881469282871163,-0.00914671767099035,2.7444105388199276,-0.16483412368386727,-0.03921260658907549
-4.496274051337304,4.704958620745891,0.1098651573681661,-0.00017494980702427798,-0.008147644920640662,2.374363451921188,-4.221316487609706,4.064776269526405,-0.006182221121678863,5.860196342421904,0.004223521691486987,-0.6010995711514474,0.44973266506074877,0.0881469282871163,0.016317538917064667,0.6357199549674988,0.0,0.03499999999985448,-4.645382735903924,4.848239921136682,0.109791875727587,0.0010649767397905828,-0.006296485174266082,2.372691849264082,-4.295263123333158,4.102130863429844,-0.001368293721483331,5.93929908078001,0.03859207710299595,0.3806204298884666,0.6259941646426616,0.09829569081766645,0.03542647276628617,2.260078238812425,0.9819587260471958,-0.04776007591751214
-4.645382735903924,4.848239921136682,0.109791875727587,0.0010649767397905828,-0.006296485174266082,2.372691849264082,-4.295263123333158,4.102130863429844,-0.001368293721483331,5.93929908078001,0.03859207710299595,0.3806204298884666,0.6259941646426616,0.09829569081766645,0.01730399578809738,0.41799044609069824,0.0,0.040000000000873115,-4.818641271940853,5.014329537904424,0.10981098335112047,-0.0014667770499148251,-0.00554593730656128,2.376185267834621,-4.351670416292536,4.186637964657848,0.0038065270183000807,6.038622090127395,-0.004013947622838021,0.00620850422995872,-0.39422400990298384,0.283314402544711,-0.06329384474125363,2.483075233630406,-1.0651506181225991,0.08733546426157636
-4.818641271940853,5.014329537904424,0.10981098335112047,-0.0014667770499148251,-0.00554593730656128,2.376185267834621,-4.351670416292536,4.186637964657848,0.0038065270183000807,6.038622090127395,-0.004013947622838021,0.00620850422995872,-0.39422400990298384,0.283314402544711,0.022236280143260956,0.20889241993427277,0.0,0.03499999999985448,-4.971738527976467,5.1612879242348395,0.10992931679547219,-0.0003108612347559579,0.001324084459360697,2.3767019777839007,-4.3806661027652725,4.216106943917005,-0.0033877292726559143,6.07994441605679,-0.008316496962078368,-0.21392593663287077,0.6206010649563507,-0.04510370255287856,0.03302616614753352,1.1806378837019245,-0.12292998112166387,0.014763141408048465
-4.971738527976467,5.1612879242348395,0.10992931679547219,-0.0003108612347559579,0.001324084459360697,2.3767019777839007,-4.3806661027652725,4.216106943917005,-0.0033877292726559143,6.07994441605679,-0.008316496962078368,-0.21392593663287077,0.6206010649563507,-0.04510370255287856,0.01730399578809738,0.07581321895122528,0.0,0.029999999998835847,-5.102974824264969,5.287393679159147,0.11003201766435325,0.00010518042829047822,0.00707466644133895,2.377021888226755,-4.365797556133508,4.210447650151128,0.001381668149273943,6.065293600733041,-0.01646975140335316,0.030558533433257266,0.7597735718125176,-0.30399435794930907,0.013868055435419356,-0.4883605108105994,-0.2717751480530394,0.010663681428886358
-5.102974824264969,5.287393679159147,0.11003201766435325,0.00010518042829047822,0.00707466644133895,2.377021888226755,-4.365797556133508,4.210447650151128,0.001381668149273943,6.065293600733041,-0.01646975140335316,0.030558533433257266,0.7597735718125176,-0.30399435794930907,0.01730399578809738,0.03953010216355324,0.0,0.0650000000023283,-5.385050557792347,5.558399307236905,0.11009972330774895,-0.0006525367529824268,0.013853389509358811,2.376735492751277,-4.3139356586831665,4.1372018789115925,-0.010102063850647477,5.977162822447449,0.002201835559422438,0.33929968052510506,1.060238961946179,-0.26485489288006414,-0.011657187403780979,-1.3558581274220793,0.287255184032412,-0.004406084237960752
-5.385050557792347,5.558399307236905,0.11009972330774895,-0.0006525367529824268,0.013853389509358811,2.376735492751277,-4.3139356586831665,4.1372018789115925,-0.010102063850647477,5.977162822447449,0.002201835559422438,0.33929968052510506,1.060238961946179,-0.26485489288006414,0.01730399578809738,0.01964683085680008,0.0,0.039999999997235136,-5.556438537740331,5.722981217773302,0.10988779725791606,-0.0002115485825262202,0.015076284302653774,2.376179728766055,-4.249205040779732,4.0988103094113555,-0.003440902947943608,5.903884648631065,-0.011639879000270525,-0.015407103124853608,-0.19831935571606188,0.20485019445523736,0.011024704262167211,-1.8319543455362197,-0.3460428640162431,-0.01389409963151182
-5.556438537740331,5.722981217773302,0.10988779725791606,-0.0002115485825262202,0.015076284302653774,2.376179728766055,-4.249205040779732,4.0988103094113555,-0.003440902947943608,5.903884648631065,-0.011639879000270525,-0.015407103124853608,-0.19831935571606188,0.20485019445523736,0.01730399578809738,0.009258206002414227,0.0,0.06000000000130967,-5.809684435649308,5.966641503580559,0.10987372474012438,0.0020535504339282895,0.015973455461960242,2.3787638379689433,-4.173083054098378,4.040811728713271,0.006655091189031459,5.808732242480349,-0.037567785122361474,0.37993983516456215,0.5384064797485411,-0.5032414483381482,0.037751650273417786,-1.5858734358106554,-0.4321317686920833,0.04306848671386336
-5.809684435649308,5.966641503580559,0.10987372474012438,0.0020535504339282895,0.015973455461960242,2.3787638379689433,-4.173083054098378,4.040811728713271,0.006655091189031459,5.808732242480349,-0.037567785122361474,0.37993983516456215,0.5384064797485411,-0.5032414483381482,0.01730399578809738,0.007562733255326748,0.0,0.029999999998835847,-5.93459204877022,6.0869872949943975,0.10986844623397182,-0.00037609801093996064,0.01683004886545354,2.3774333864499297,-4.144549927932407,3.9874644269312616,0.002935638283069933,5.751264571323827,-0.01106760146210517,0.35800123034892434,0.231818000905635,-0.2890028246489031,-0.0809882814987511,-1.915589038625048,0.8833394553761549,-0.044348383968839764
-5.93459204877022,6.0869872949943975,0.10986844623397182,-0.00037609801093996064,0.01683004886545354,2.3774333864499297,-4.144549927932407,3.9874644269312616,0.002935638283069933,5.751264571323827,-0.01106760146210517,0.35800123034892434,0.231818000905635,-0.2890028246489031,0.01730399578809738,0.009258206002414227,0.0,0.040000000000873115,-6.099405068047994,6.245654365677406,0.10994762932959251,0.0012220923776071206,0.01609981632320815,2.375700801919522,-4.087315280077667,3.951435642557076,0.00028315752972971064,5.685047980336782,-0.01480868986425632,0.5935987009527197,0.023465725878883653,-0.28098739693003366,0.039954759712804905,-1.6554147746399885,-0.09352721005173723,-0.043314613259247015
-6.099405068047994,6.245654365677406,0.10994762932959251,0.0012220923776071206,0.01609981632320815,2.375700801919522,-4.087315280077667,3.951435642557076,0.00028315752972971064,5.685047980336782,-0.01480868986425632,0.5935987009527197,0.023465725878883653,-0.28098739693003366,0.01730399578809738,0.009258206002414227,0.0,0.02500000000145519,-6.201457939887813,6.34392277858345,0.10987840299910104,0.0003938558263130717,0.016488848487687405,2.3745605397185807,-4.06236999343926,3.9236928309256447,-0.006260624101013149,5.647847670728764,-0.005664211919826467,-0.7233034075856762,-0.1286845053550793,0.15717837425111952,-0.033129462049833566,-1.4880123842341333,0.36577911775590294,-0.045610488034998
-6.201457939887813,6.34392277858345,0.10987840299910104,0.0003938558263130717,0.016488848487687405,2.3745605397185807,-4.06236999343926,3.9236928309256447,-0.006260624101013149,5.647847670728764,-0.005664211919826467,-0.7233034075856762,-0.1286845053550793,0.15717837425111952,0.01730399578809738,0.009258206002414227,0.0,0.040000000000873115,-6.36282982453621,6.499689256753739,0.10985736719562214,-0.0006685076156777217,0.015549308903689288,2.3727646722775795,-4.010363708580432,3.876588033852306,9.573194661385842e-05,5.577718810705465,0.0021743983751050244,-0.050892078205773746,-0.25360844840363234,0.15273938871437193,-0.02655908604919011,-1.753221500544189,0.1959652573690098,-0.04489668602405105
-6.36282982453621,6.499689256753739,0.10985736719562214,-0.0006685076156777217,0.015549308903689288,2.3727646722775795,-4.010363708580432,3.876588033852306,9.573194661385842e-05,5.577718810705465,0.0021743983751050244,-0.050892078205773746,-0.25360844840363234,0.15273938871437193,0.01536190789192915,0.013573954813182354,0.0,0.05499999999665306,-6.581627214240823,6.711043338300961,0.1098160496635745,0.0015593445809158782,0.015915767236383146,2.372349221311291,-3.946872883236633,3.8050473180693993,-0.0029413884452523936,5.482340117369201,0.011725470567668594,-0.27949494018849425,-0.2580587532724347,0.2976329298127835,0.04050640357689404,-1.7341580607648777,0.17365585805717793,-0.007553653932979458
-6.581627214240823,6.711043338300961,0.1098160496635745,0.0015593445809158782,0.015915767236383146,2.372349221311291,-3.946872883236633,3.8050473180693993,-0.0029413884452523936,5.482340117369201,0.011725470567668594,-0.27949494018849425,-0.2580587532724347,0.2976329298127835,0.0,0.21407131850719452,0.0,0.03500000000349246,-6.719475032781751,6.8438418578079725,0.10976601848621831,0.00017865284401017017,0.011556742432237465,2.370064810953558,-3.9375792367291718,3.7901207927113685,-0.006906243272508578,5.465229670727432,0.02846954626025866,-0.695400940032379,-0.32511560981248494,-0.0952742047036505,-0.03944833533622675,-0.48886990400177627,0.4784021625976933,-0.06526886735728946
-6.719475032781751,6.8438418578079725,0.10976601848621831,0.00017865284401017017,0.011556742432237465,2.370064810953558,-3.9375792367291718,3.7901207927113685,-0.006906243272508578,5.465229670727432,0.02846954626025866,-0.695400940032379,-0.32511560981248494,-0.0952742047036505,-0.019893445074558258,0.33719345927238464,0.0,0.06499999999869033,-6.975807668201683,7.091148690500289,0.10955363587675099,-0.00024002285074190281,0.003885035147802868,2.372727619789734,-3.9568641506626534,3.833129837001814,-0.004723497658351259,5.509051225314057,-0.003584826151070253,0.3030185719185865,0.35444638913957643,-0.3653462672660867,-0.006441164534777059,0.6741777628847371,-0.493144190953458,0.04096628978815158
-6.975807668201683,7.091148690500289,0.10955363587675099,-0.00024002285074190281,0.003885035147802868,2.372727619789734,-3.9568641506626534,3.833129837001814,-0.004723497658351259,5.509051225314057,-0.003584826151070253,0.3030185719185865,0.35444638913957643,-0.3653462672660867,-0.028833210468292236,0.3354671597480774,0.0,0.03499999999985448,-7.114394780654561,7.225403170322691,0.10962394075696916,-0.0006820358617125942,0.004316056318439775,2.3710881225408507,-3.969878058500766,3.8432342374887343,0.0018534210258563007,5.525425638173575,0.0072608942676448684,-0.31134103723305667,-0.038944464966160414,0.32654866018639117,-0.012628943170643689,0.4678403674167456,0.30987772625029186,-0.04684277853971899
-7.114394780654561,7.225403170322691,0.10962394075696916,-0.0006820358617125942,0.004316056318439775,2.3710881225408507,-3.969878058500766,3.8432342374887343,0.0018534210258563007,5.525425638173575,0.0072608942676448684,-0.31134103723305667,-0.038944464966160414,0.32654866018639117,-0.050319474190473557,0.2615753710269928,0.0,0.03499999999985448,-7.25354109762264,7.3601444105522384,0.10971804245763109,-0.0007245584469856943,0.003280314970554871,2.3687390812734987,-3.9786113052141125,3.87638795669729,-9.20930685824016e-05,5.554792951776385,0.002602249169087578,-0.23332622513460352,0.16508021139707454,0.018133047478326444,-0.0012149310078079108,0.8390661029409195,-0.13310414567361883,-0.06711546478176232
-7.25354109762264,7.3601444105522384,0.10971804245763109,-0.0007245584469856943,0.003280314970554871,2.3687390812734987,-3.9786113052141125,3.87638795669729,-9.20930685824016e-05,5.554792951776385,0.002602249169087578,-0.23332622513460352,0.16508021139707454,0.018133047478326444,-0.09773105382919312,0.25596490502357483,0.0,0.040000000000873115,-7.412647040089725,7.515042253881204,0.10975705988491166,-0.00014882232475634362,0.006333055243658804,2.368397264173569,-3.978618131630527,3.865719338344174,0.0031659777765799674,5.547345386241892,0.012141084304619909,-0.0781688708924543,-0.21010119305900654,-0.019342409883961253,0.014393403055419588,-0.18618913835826076,0.23847087838310296,-0.008545427498054526
-7.412647040089725,7.515042253881204,0.10975705988491166,-0.00014882232475634362,0.006333055243658804,2.368397264173569,-3.978618131630527,3.865719338344174,0.0031659777765799674,5.547345386241892,0.012141084304619909,-0.0781688708924543,-0.21010119305900654,-0.019342409883961253,-0.12902022898197174,0.22704938054084778,0.0,0.05500000000029104,-7.631891729854696,7.727563503955824,0.10978468971299277,0.00048276800392811105,0.007587235284578728,2.3705776130315748,-4.003254037472489,3.8486527743165144,-0.003905151159548745,5.553134567840028,0.029453985369271685,-0.042807142810308625,0.7127847008269181,-0.4980197443642858,0.011483460521474774,0.10525784723828979,0.3147800193556393,0.03964270650898414
-7.631891729854696,7.727563503955824,0.10978468971299277,0.00048276800392811105,0.007587235284578728,2.3705776130315748,-4.003254037472489,3.8486527743165144,-0.003905151159548745,5.553134567840028,0.029453985369271685,-0.042807142810308625,0.7127847008269181,-0.4980197443642858,-0.23007041215896606,0.11900153011083603,0.0,0.03499999999985448,-7.771399030938588,7.862012284604202,0.10985250818907863,-0.0011610616192135688,0.009901428212127325,2.377029032288354,-3.982439314061932,3.829719811424579,0.000645890411823849,5.5250815447251,-0.007116764860815916,0.0770652476802853,0.39121250710360167,-0.21283581371523375,-0.046966560661386124,-0.8015149461441473,-1.0448785780068472,0.18432626448017433
-7.771399030938588,7.862012284604202,0.10985250818907863,-0.0011610616192135688,0.009901428212127325,2.377029032288354,-3.982439314061932,3.829719811424579,0.000645890411823849,5.5250815447251,-0.007116764860815916,0.0770652476802853,0.39121250710360167,-0.21283581371523375,-0.30254417657852173,0.01101533230394125,0.0,0.029999999998835847,-7.890932612368464,7.976093109539186,0.10985010240661633,0.0023450541151814387,0.01175770860766724,2.3813357668511523,-3.9930537853989425,3.7639095563685925,0.0012084257379181007,5.487341179251764,0.02409282257221257,0.03551655293925049,-0.10506201395573904,-0.17275381472943402,0.11687052448436874,-1.2580121824933332,1.0403195811413193,0.14355781876551366
-7.890932612368464,7.976093109539186,0.10985010240661633,0.0023450541151814387,0.01175770860766724,2.3813357668511523,-3.9930537853989425,3.7639095563685925,0.0012084257379181007,5.487341179251764,0.02409282257221257,0.03551655293925049,-0.10506201395573904,-0.17275381472943402,-0.34366708993911743,-0.0,0.0,0.02500000000145519,-7.991007504183488,8.06942875130542,0.10993565645793232,0.003742513080974457,0.013312454516111056,2.390929166867752,-4.012091616583199,3.6955471337836165,0.006700344364822738,5.454609302361176,0.03442552059758208,0.4611546525241171,0.34742706766555126,-0.6272360760064187,0.055898358628467024,-1.3092750755473361,0.41330792099072283,0.38373600064164703
-7.991007504183488,8.06942875130542,0.10993565645793232,0.003742513080974457,0.013312454516111056,2.390929166867752,-4.012091616583199,3.6955471337836165,0.006700344364822738,5.454609302361176,0.03442552059758208,0.4611546525241171,0.34742706766555126,-0.6272360760064187,-0.3633345663547516,-0.0,0.0,0.029999999998835847,-8.11167463791976,8.178819377146807,0.11009880115565773,0.01083549683223405,0.014430896440726667,2.406299185644025,-4.036403850456677,3.597342483313034,0.010519449936745764,5.406648747093962,0.03972797223059654,0.22949785014099455,0.14975393936206383,-0.5441021689031502,0.2364327917178279,-1.5986851756358145,0.1767483877740074,0.5123339592289766
-8.11167463791976,8.178819377146807,0.11009880115565773,0.01083549683223405,0.014430896440726667,2.406299185644025,-4.036403850456677,3.597342483313034,0.010519449936745764,5.406648747093962,0.03972797223059654,0.22949785014099455,0.14975393936206383,-0.5441021689031502,-0.3946545720100403,-0.0,0.0,0.03499999999985448,-8.253663867151417,8.302370976380052,0.11033983329508232,0.01486339640754557,0.014750422570321274,2.4261714436521076,-4.078732321219699,3.460088085036187,0.007541626034860582,5.3482908840839904,0.06365157967959867,0.1471858629525861,0.08312700347899293,-0.40502864908405783,0.11508284500937901,-1.6673675145775588,0.6835316414029027,0.5677788002332974
-8.253663867151417,8.302370976380052,0.11033983329508232,0.01486339640754557,0.014750422570321274,2.4261714436521076,-4.078732321219699,3.460088085036187,0.007541626034860582,5.3482908840839904,0.06365157967959867,0.1471858629525861,0.08312700347899293,-0.40502864908405783,-0.39647334814071655,-0.0,0.0,0.06999999999970896,-8.542650237117467,8.534204983969282,0.11096498559877918,0.0331831308559771,0.01588092949698145,2.481705656354252,-4.197877772288945,3.1301897505735266,0.008012956772949081,5.235474290620625,0.10037239622331295,0.36723831035670856,0.707768992680054,-1.1386653496301602,0.2617104921215386,-1.6116656209119171,0.5245830934838137,0.7933458957482205
-8.542650237117467,8.534204983969282,0.11096498559877918,0.0331831308559771,0.01588092949698145,2.481705656354252,-4.197877772288945,3.1301897505735266,0.008012956772949081,5.235474290620625,0.10037239622331295,0.36723831035670856,0.707768992680054,-1.1386653496301602,-0.3946545720100403,-0.0,0.0,0.03499999999985448,-8.690896276477902,8.640601109844045,0.11138972197870561,0.03735063381165458,0.014954658114272844,2.5148242061693704,-4.278937114230086,2.9463098449762914,0.007047280711742349,5.193727886471599,0.12343083661374044,-0.1345917668999004,0.13954753585649599,-0.8815129051447637,0.11907151301985158,-1.1927544042628473,0.6588125825863814,0.9462442804358857
-8.690896276477902,8.640601109844045,0.11138972197870561,0.03735063381165458,0.014954658114272844,2.5148242061693704,-4.278937114230086,2.9463098449762914,0.007047280711742349,5.193727886471599,0.12343083661374044,-0.1345917668999004,0.13954753585649599,-0.8815129051447637,-0.395548552274704,-0.0,0.0,0.03499999999985448,-8.841679039407218,8.740001160342521,0.11169505635862767,0.045229752486224246,0.016005608801087517,2.5537365668293717,-4.3469431627310975,2.728290458862224,0.008614530645490712,5.130279220402567,0.14042367549281787,0.12245862870627369,0.10485912821649684,-1.3141817745774325,0.2251176764172122,-1.8128190305513114,0.4855096822613738,1.1117817331475155
