x_pos,y_pos,z_pos,roll,pitch,yaw,u_x,u_y,u_z,comp_u_x,comp_u_y,roll_mder,pitch_mder,yaw_mder,steer,throttle,brake,time_step,act_x_pos,act_y_pos,act_z_pos,act_roll,act_pitch,act_yaw,act_u_x,act_u_y,act_u_z,act_comp_u_x,act_comp_u_y,act_roll_mder,act_pitch_mder,act_yaw_mder,accel_roll,accel_x,accel_y,accel_yaw
-0.00825622087908684,0.04732556378217736,0.10919006951696072,-3.884133010915877e-06,-0.019096555842991438,2.3555202750641295,-0.24789366256212492,0.2510951126161661,-0.002455243778346824,0.35283979273624877,-0.0020258775952137487,0.08569841203467503,-0.08561346759806403,0.010170273602249527,0.01141608040779829,1.0,0.0,0.030000000000001137,-0.01752079258512218,0.056762083936360536,0.10921308601041238,-6.6423278739493746e-06,-0.021041862376475467,2.3549850344951735,-0.36557672024417454,0.3744187212516386,0.0035126384429514284,0.5232629738280867,-0.005619379751077458,0.029653604170164886,-0.028716257504768805,0.026066746914816457,-9.193982876777976e-05,5.68077270306105,-0.11978340519545244,0.017841352298534036
-0.01752079258512218,0.056762083936360536,0.10921308601041238,-6.6423278739493746e-06,-0.021041862376475467,2.3549850344951735,-0.36557672024417454,0.3744187212516386,0.0035126384429514284,0.5232629738280867,-0.005619379751077458,0.029653604170164886,-0.028716257504768805,0.026066746914816457,0.008456709794700146,1.0,0.0,0.044999999999987494,-0.03790788709668824,0.07786650225598316,0.10946420472593218,-2.4988700175979088e-05,-0.021608245524536714,2.35288888015661,-0.535586646678021,0.5597526897303672,0.0058964332385840635,0.7745741269278918,-0.014527616944358612,0.05065466390584599,-0.04456829008079832,0.06378259035363051,-0.00040769716226744026,5.5846922911083325,-0.197960826517414,0.04658120752364812
-0.03790788709668824,0.07786650225598316,0.10946420472593218,-2.4988700175979088e-05,-0.021608245524536714,2.35288888015661,-0.535586646678021,0.5597526897303672,0.0058964332385840635,0.7745741269278918,-0.014527616944358612,0.05065466390584599,-0.04456829008079832,0.06378259035363051,0.01141608040779829,1.0,0.0,0.03499999999999659,-0.05900239846839561,0.10007809096687392,0.10964287109396606,-8.468289653428546e-06,-0.021699608952642897,2.349912006416578,-0.6662914718989023,0.7054733261080172,0.003907736942615904,0.9701391082915556,-0.021611338190399565,0.04344313996799213,-0.038406080616469565,0.09563715094557422,0.00047201172921577575,5.587570896105222,-0.2023920356011898,0.08505353542948683
-0.05900239846839561,0.10007809096687392,0.10964287109396606,-8.468289653428546e-06,-0.021699608952642897,2.349912006416578,-0.6662914718989023,0.7054733261080172,0.003907736942615904,0.9701391082915556,-0.021611338190399565,0.04344313996799213,-0.038406080616469565,0.09563715094557422,0.008456709794700146,1.0,0.0,0.020000000000010232,-0.07306947890737447,0.11506916762804661,0.10969760400923054,-1.4194082227098458e-05,-0.021676554771116775,2.3476573437164148,-0.7390965229842064,0.7888155032138476,0.0019672776972051824,1.0806577174425398,-0.025931951907618433,0.07083269411401925,-0.06444277494359642,0.11441753444796339,-0.00028628962868334915,5.525930457546384,-0.2160306858608329,0.11273313500811183
-0.07306947890737447,0.11506916762804661,0.10969760400923054,-1.4194082227098458e-05,-0.021676554771116775,2.3476573437164148,-0.7390965229842064,0.7888155032138476,0.0019672776972051824,1.0806577174425398,-0.025931951907618433,0.07083269411401925,-0.06444277494359642,0.11441753444796339,0.008456709794700146,1.0,0.0,0.01999999999998181,-0.08862848644617216,0.13170883326357444,0.10971669837356604,-4.096289714306673e-06,-0.021656604108194484,2.345183191942663,-0.8131166350569061,0.8717538215776479,0.0003105457672445966,1.191767648708514,-0.028341826569209694,0.0648280311290169,-0.06575044382061108,0.1297631256809655,0.0005048896256400485,5.555496563303764,-0.12049373307967261,0.1237075886876952
-0.08862848644617216,0.13170883326357444,0.10971669837356604,-4.096289714306673e-06,-0.021656604108194484,2.345183191942663,-0.8131166350569061,0.8717538215776479,0.0003105457672445966,1.191767648708514,-0.028341826569209694,0.0648280311290169,-0.06575044382061108,0.1297631256809655,0.01536190789192915,1.0,0.0,0.05000000000001137,-0.13389453781316796,0.18065059338866013,0.1096636191689895,-0.00015572414028449676,-0.02146920401838101,2.337698198369218,-0.9884779109459776,1.0855452049350451,-0.0016345407109611756,1.4675744094834213,-0.041500903785099186,-0.011034521436240001,-0.031241981321512548,0.21612296888348043,-0.0030325570114031124,5.516135215496892,-0.26318154431773,0.14969987146886837
-0.13389453781316796,0.18065059338866013,0.1096636191689895,-0.00015572414028449676,-0.02146920401838101,2.337698198369218,-0.9884779109459776,1.0855452049350451,-0.0016345407109611756,1.4675744094834213,-0.041500903785099186,-0.011034521436240001,-0.031241981321512548,0.21612296888348043,0.008456709794700146,1.0,0.0,0.020000000000010232,-0.15452233517801695,0.2031852432600946,0.10963023640217087,5.99406002640358e-06,-0.021553178404915805,2.334540817623174,-1.0678497823078417,1.164622421115901,-0.0013579982013886757,1.5797077754720963,-0.034232812530804124,-0.032357120673308745,0.06305283274910722,0.13198266735163094,0.008085910015540881,5.60666829943088,0.36340456271456717,0.15786903730211327
-0.15452233517801695,0.2031852432600946,0.10963023640217087,5.99406002640358e-06,-0.021553178404915805,2.334540817623174,-1.0678497823078417,1.164622421115901,-0.0013579982013886757,1.5797077754720963,-0.034232812530804124,-0.032357120673308745,0.06305283274910722,0.13198266735163094,0.026151280850172043,1.0,0.0,0.01999999999998181,-0.17663548584745214,0.22735976924222073,0.10960326178475824,-0.0001057944839144784,-0.021517459482501826,2.331294196648142,-1.1353653389595524,1.2520871401347458,-0.001006144784299036,1.6897154348104735,-0.040477262318468266,0.09127557275736232,-0.05678553037765064,0.1632282802704572,-0.005589427197049183,5.500382966923862,-0.312222489383491,0.16233104875175483
-0.17663548584745214,0.22735976924222073,0.10960326178475824,-0.0001057944839144784,-0.021517459482501826,2.331294196648142,-1.1353653389595524,1.2520871401347458,-0.001006144784299036,1.6897154348104735,-0.040477262318468266,0.09127557275736232,-0.05678553037765064,0.1632282802704572,0.0280933678150177,1.0,0.0,0.025000000000005684,-0.20612246961720615,0.2600715887016543,0.10958484073490263,0.00012564242045535098,-0.02157874775784616,2.3267943783546547,-1.225617222273979,1.3557181753367644,5.101566230308885e-05,1.827195247069708,-0.038299811473412326,0.1437728664897426,-0.2075968337332727,0.20984416897816227,0.009257476174791071,5.499192490368127,0.08709803380221777,0.179992731739448
-0.20612246961720615,0.2600715887016543,0.10958484073490263,0.00012564242045535098,-0.02157874775784616,2.3267943783546547,-1.225617222273979,1.3557181753367644,5.101566230308885e-05,1.827195247069708,-0.038299811473412326,0.1437728664897426,-0.2075968337332727,0.20984416897816227,0.027137737721204758,1.0,0.0,0.020000000000010232,-0.23142408364262756,0.28804852163383127,0.10958357801774862,-0.0003216548583267127,-0.021577232029176576,2.3224923880226314,-1.29241140882277,1.4456072046583481,0.0005742130848954557,1.9386222226102654,-0.04302694291970177,0.15586162526464806,-0.1628972374600736,0.1953823852560522,-0.02236486393909174,5.571348777025023,-0.23635657231435134,0.21509951660105928
-0.23142408364262756,0.28804852163383127,0.10958357801774862,-0.0003216548583267127,-0.021577232029176576,2.3224923880226314,-1.29241140882277,1.4456072046583481,0.0005742130848954557,1.9386222226102654,-0.04302694291970177,0.15586162526464806,-0.1628972374600736,0.1953823852560522,0.030097108334302902,1.0,0.0,0.044999999999987494,-0.2929413719936189,0.35788042851824875,0.10960905901027132,2.9954611413853393e-06,-0.021608357777158145,2.3122905208118336,-1.444060430292946,1.6482338813273576,0.0006647761267017591,2.1908117197086456,-0.048264507461902584,-0.1029553164705342,0.1270703067731116,0.21434532486041566,0.007214451543737517,5.604211046632229,-0.1163903231600504,0.22670816024001286
-0.2929413719936189,0.35788042851824875,0.10960905901027132,2.9954611413853393e-06,-0.021608357777158145,2.3122905208118336,-1.444060430292946,1.6482338813273576,0.0006647761267017591,2.1908117197086456,-0.048264507461902584,-0.1029553164705342,0.1270703067731116,0.21434532486041566,0.03694065287709236,1.0,0.0,0.025000000000005684,-0.3300147345879143,0.4006412036438605,0.10963051287770245,-0.0008137788185409483,-0.02142387727693983,2.3054225071698786,-1.515021903289658,1.769971724650296,0.0013311068372631046,2.328997086151636,-0.06215984400036745,0.08800271576853663,-0.22209553903336188,0.3565725705234735,-0.032670971187285916,5.52741465771835,-0.5558134615384682,0.27472054567813736
-0.3300147345879143,0.4006412036438605,0.10963051287770245,-0.0008137788185409483,-0.02142387727693983,2.3054225071698786,-1.515021903289658,1.769971724650296,0.0013311068372631046,2.328997086151636,-0.06215984400036745,0.08800271576853663,-0.22209553903336188,0.3565725705234735,0.03546096757054329,1.0,0.0,0.025000000000005684,-0.36876056690899794,0.4464271766314866,0.1096484204215806,-0.0014579914521428683,-0.021136346446952645,2.2963520107760864,-1.5774601919926345,1.8924492983644448,0.0010151731189886812,2.462525344361469,-0.07559055879504495,0.27493951901839053,-0.3584860124288341,0.3744745446988369,-0.025768505344070942,5.341130328392112,-0.5372285917869779,0.3628198557516057
-0.36876056690899794,0.4464271766314866,0.1096484204215806,-0.0014579914521428683,-0.021136346446952645,2.2963520107760864,-1.5774601919926345,1.8924492983644448,0.0010151731189886812,2.462525344361469,-0.07559055879504495,0.27493951901839053,-0.3584860124288341,0.3744745446988369,0.034998565912246704,0.7653465867042542,0.0,0.025000000000005684,-0.4091206984620648,0.4952888619931006,0.1096551882117657,-0.0006355442173012621,-0.019919618034913426,2.2887394466371207,-1.6420326220032997,2.010354900715293,0.0004069049500024374,2.5943093836670355,-0.08577167580380629,0.06834297422239317,0.11964899106402327,0.27880539947025473,0.03289788939365677,5.271361572221461,-0.4072446803503611,0.3045025655585594
-0.4091206984620648,0.4952888619931006,0.1096551882117657,-0.0006355442173012621,-0.019919618034913426,2.2887394466371207,-1.6420326220032997,2.010354900715293,0.0004069049500024374,2.5943093836670355,-0.08577167580380629,0.06834297422239317,0.11964899106402327,0.27880539947025473,0.03401210904121399,0.6063728928565979,0.0,0.030000000000001137,-0.45960256652877085,0.556699271204381,0.10970138737934076,-0.0007664420362548736,-0.013162592967373755,2.279751967465086,-1.706654455500065,2.0834606202147974,0.0016794298489085924,2.6925372845369497,-0.060996375650043344,-0.15126150632056723,0.24096915639125016,0.24516794852550547,-0.004363260631786883,3.2742633623303523,0.8258433384587336,0.2995826390678152
-0.45960256652877085,0.556699271204381,0.10970138737934076,-0.0007664420362548736,-0.013162592967373755,2.279751967465086,-1.706654455500065,2.0834606202147974,0.0016794298489085924,2.6925372845369497,-0.060996375650043344,-0.15126150632056723,0.24096915639125016,0.24516794852550547,0.05364876613020897,0.6763188242912292,0.0,0.01999999999998181,-0.49393138024799654,0.5989360982854485,0.10973789648858945,-0.000595493493456168,-0.00968118823023741,2.2738800937774513,-1.7261760163661284,2.1358710478417153,-1.6742509260238292e-05,2.745452542351738,-0.06418029433154082,-0.2051806315169532,0.3627897341164697,0.25536420377965324,0.008547427139943053,2.645762890741818,-0.15919593407501867,0.2935936843819992
-0.49393138024799654,0.5989360982854485,0.10973789648858945,-0.000595493493456168,-0.00968118823023741,2.2738800937774513,-1.7261760163661284,2.1358710478417153,-1.6742509260238292e-05,2.745452542351738,-0.06418029433154082,-0.2051806315169532,0.3627897341164697,0.25536420377965324,0.11453165113925934,0.6789391040802002,0.0,0.03499999999999659,-0.5551165878167614,0.6754554653892255,0.10970769523937088,-0.000695540428027096,-0.009816842314720952,2.2628949756363683,-1.7682500858875807,2.240967540643929,-0.001843581111062264,2.853756335677385,-0.06869251081681171,-0.014515741030759591,0.03457109924624049,0.3201585754116631,-0.002858483844883937,3.094394095018793,-0.12892047100775234,0.313860518316686
-0.5551165878167614,0.6754554653892255,0.10970769523937088,-0.000695540428027096,-0.009816842314720952,2.2628949756363683,-1.7682500858875807,2.240967540643929,-0.001843581111062264,2.853756335677385,-0.06869251081681171,-0.014515741030759591,0.03457109924624049,0.3201585754116631,0.3521444499492645,0.2520807385444641,0.0,0.030000000000001137,-0.6083268105641686,0.7439804454653983,0.10965212849993974,-0.0006225664345237817,-0.004431347803785069,2.2527980630841418,-1.7637017814036433,2.3160990582212566,-0.0006431556681604847,2.90976295975723,-0.0907652975790969,-0.015737333027386866,0.354581876651143,0.37726965879505936,0.0024324664501103837,1.8668874693280857,-0.7357595587428118,0.33656375174087244
-0.6083268105641686,0.7439804454653983,0.10965212849993974,-0.0006225664345237817,-0.004431347803785069,2.2527980630841418,-1.7637017814036433,2.3160990582212566,-0.0006431556681604847,2.90976295975723,-0.0907652975790969,-0.015737333027386866,0.354581876651143,0.37726965879505936,0.49844834208488464,0.25294387340545654,0.0,0.045000000000015916,-0.6869249204101422,0.8491866800281536,0.10968393720273537,-0.0025586661427059593,0.003371535332954662,2.2331210925442524,-1.7276257696479946,2.353716072464293,0.0015967488572835292,2.9184639881743024,-0.08507702074184587,-0.2424111745775177,-0.17018666088755457,0.6410669006490907,-0.04302443795958873,0.19335618704598811,0.12640615193886726,0.4372660119973869
-0.6869249204101422,0.8491866800281536,0.10968393720273537,-0.0025586661427059593,0.003371535332954662,2.2331210925442524,-1.7276257696479946,2.353716072464293,0.0015967488572835292,2.9184639881743024,-0.08507702074184587,-0.2424111745775177,-0.17018666088755457,0.6410669006490907,0.7183973789215088,0.0732237696647644,0.0,0.03499999999999659,-0.7457220011580361,0.9327238980832674,0.1098847163745327,-0.011305658736412942,0.007946376381298992,2.20762942952995,-1.6209458365947853,2.413345368991683,0.009248055059412837,2.9041877870582535,-0.13188848588582247,-0.1316780204295488,-0.007510145722737241,0.6881487253526936,-0.24991407410593816,-0.4078914604585792,-1.3374704326851763,0.7283332289801361
-0.7457220011580361,0.9327238980832674,0.1098847163745327,-0.011305658736412942,0.007946376381298992,2.20762942952995,-1.6209458365947853,2.413345368991683,0.009248055059412837,2.9041877870582535,-0.13188848588582247,-0.1316780204295488,-0.007510145722737241,0.6881487253526936,0.845064640045166,-0.00521989818662405,0.00521989818662405,0.030000000000001137,-0.7925508288026748,1.0054946720372728,0.11019008818735665,-0.013852433749452586,0.012491590524868224,2.182063903652119,-1.5004178334188383,2.4357238480745473,0.010762310554948348,2.855764657969008,-0.16915246736454992,0.1472287920376032,0.07248190281305708,0.9242465310794001,-0.08489250043465156,-1.6141043029747928,-1.2421327159575346,0.8521841959276643
-0.7925508288026748,1.0054946720372728,0.11019008818735665,-0.013852433749452586,0.012491590524868224,2.182063903652119,-1.5004178334188383,2.4357238480745473,0.010762310554948348,2.855764657969008,-0.16915246736454992,0.1472287920376032,0.07248190281305708,0.9242465310794001,0.7704330086708069,-0.05186081305146217,0.05186081305146217,0.06999999999999318,-0.8869379030798479,1.176949729978267,0.1108550856079436,-0.031066222564992457,0.017721178303039778,2.0983703331372623,-1.1567065236958989,2.476097306528104,0.0108973842680061,2.7217555288198674,-0.24713294943180975,-0.5243987902035594,-0.008049357135383683,1.4461054661383672,-0.2459112687934507,-1.9144161307021943,-1.1140068866752488,1.195622435926644
-0.8869379030798479,1.176949729978267,0.1108550856079436,-0.031066222564992457,0.017721178303039778,2.0983703331372623,-1.1567065236958989,2.476097306528104,0.0108973842680061,2.7217555288198674,-0.24713294943180975,-0.5243987902035594,-0.008049357135383683,1.4461054661383672,0.5858730673789978,-0.05013451352715492,0.05013451352715492,0.06999999999999318,-0.9550787746529581,1.3511751011081536,0.11108701680572705,-0.021210790468442903,0.01679979396254446,2.0118563295292735,-0.8249973671306907,2.488979807460849,-0.011205915156422289,2.6029735332094726,-0.31649632404091244,0.2638418816569442,0.13184215955411305,1.132077068844507,0.1407918870935788,-1.6968856515772341,-0.9909053515587064,1.2359143372571029
-0.9550787746529581,1.3511751011081536,0.11108701680572705,-0.021210790468442903,0.01679979396254446,2.0118563295292735,-0.8249973671306907,2.488979807460849,-0.011205915156422289,2.6029735332094726,-0.31649632404091244,0.2638418816569442,0.13184215955411305,1.132077068844507,0.5112414360046387,-0.03339557349681854,0.03339557349681854,0.03499999999999659,-0.9822077259060915,1.437927446238224,0.11047014603841979,-0.008512730957929038,0.015510818025786495,1.9751027596615618,-0.7285174192594402,2.4671068022304055,-0.021572101873485253,2.554782499012922,-0.3007324167981551,0.4503022780208197,0.06278047730063625,0.9507088133261905,0.3628017003004315,-1.3768866913301505,0.45039734979311064,1.0501019962204372
-0.9822077259060915,1.437927446238224,0.11047014603841979,-0.008512730957929038,0.015510818025786495,1.9751027596615618,-0.7285174192594402,2.4671068022304055,-0.021572101873485253,2.554782499012922,-0.3007324167981551,0.4503022780208197,0.06278047730063625,0.9507088133261905,0.5043670535087585,-0.0280933678150177,0.0280933678150177,0.03500000000002501,-1.007051822203218,1.5235943790148838,0.10963518399993374,0.003030777548607067,0.014490193476161877,1.9435031320220002,-0.7153056240492857,2.422455270318084,-0.020399783482202193,2.5166116353519747,-0.21591097540296567,0.24589132216123802,0.0520418437629244,0.8137858789921676,0.32981452875793876,-1.0905961045977133,2.4234697541465375,0.9028465039868288
-1.007051822203218,1.5235943790148838,0.10963518399993374,0.003030777548607067,0.014490193476161877,1.9435031320220002,-0.7153056240492857,2.422455270318084,-0.020399783482202193,2.5166116353519747,-0.21591097540296567,0.24589132216123802,0.0520418437629244,0.8137858789921676,0.41697317361831665,-0.03163844719529152,0.03163844719529152,0.03499999999999659,-1.03220477699164,1.6072806131427695,0.10916690744623361,-0.0010218727538142684,0.014624853813704595,1.9143962557887473,-0.6904251472181377,2.371258812688092,-0.00639728455596306,2.465243639407185,-0.14875832421933166,-0.04535347225132692,-0.007286215716474458,0.700284803700653,-0.11579000864062088,-1.4676570269941343,1.9186471766754443,0.8316250352358788
-1.03220477699164,1.6072806131427695,0.10916690744623361,-0.0010218727538142684,0.014624853813704595,1.9143962557887473,-0.6904251472181377,2.371258812688092,-0.00639728455596306,2.465243639407185,-0.14875832421933166,-0.04535347225132692,-0.007286215716474458,0.700284803700653,0.03595419600605965,0.05075104907155037,0.0,0.030000000000001137,-1.0518435748953303,1.6781085359181058,0.10915261833182613,-0.00010814764942141537,0.013970025166597313,1.894287490685938,-0.6228103070329614,2.3520485576993644,0.003596083438094068,2.42802921934174,-0.1571598114814804,0.17982885274874305,-0.07268061627627088,0.5688433574311491,0.030457503479760614,-1.2404806688481256,-0.2800495754049471,0.6702921700936194
-1.0518435748953303,1.6781085359181058,0.10915261833182613,-0.00010814764942141537,0.013970025166597313,1.894287490685938,-0.6228103070329614,2.3520485576993644,0.003596083438094068,2.42802921934174,-0.1571598114814804,0.17982885274874305,-0.07268061627627088,0.5688433574311491,0.0,0.059382546693086624,0.0,0.03499999999999659,-1.0738967943537414,1.7596578863285297,0.10931576958947523,5.460430672811461e-05,0.012838523979693322,1.87533634851867,-0.6244849403647366,2.31316747155753,0.005857876751776521,2.3939815777902616,-0.09786417840586015,0.12585414933024608,-0.08336879237436869,0.3572314892033664,0.004650055889987024,-0.9727897586137613,1.6941609450178865,0.5414612047791356
-1.0738967943537414,1.7596578863285297,0.10931576958947523,5.460430672811461e-05,0.012838523979693322,1.87533634851867,-0.6244849403647366,2.31316747155753,0.005857876751776521,2.3939815777902616,-0.09786417840586015,0.12585414933024608,-0.08336879237436869,0.3572314892033664,-0.19252339005470276,0.01964683085680008,0.0,0.025000000000005684,-1.0897341360191142,1.8171613028011344,0.1094528090001603,0.0014415721837094068,0.0127319657871442,1.867941109085587,-0.6449319582212691,2.2815179896686666,0.005963197577610848,2.3703640601481495,-0.051339948138389824,0.016139320613482017,-0.028774405573949155,0.22721508027417556,0.05547871507923907,-0.9447007056842677,1.8609692106983897,0.29580957732325097
-1.0897341360191142,1.8171613028011344,0.1094528090001603,0.0014415721837094068,0.0127319657871442,1.867941109085587,-0.6449319582212691,2.2815179896686666,0.005963197577610848,2.3703640601481495,-0.051339948138389824,0.016139320613482017,-0.028774405573949155,0.22721508027417556,-0.6799563765525818,0.01101533230394125,0.0,0.024999999999977263,-1.1064625032612634,1.8737070623941297,0.10958537509945585,0.0013419569533484393,0.012826457770362627,1.8658023978382918,-0.6901536399194497,2.242734511678328,0.004276477273183622,2.3465084015382547,0.00827393965891643,-0.0677017439654963,0.014691005375417277,0.02343464607294627,-0.003984609214442322,-0.95422634439666,2.384555511894419,0.08554844989188802
-1.1064625032612634,1.8737070623941297,0.10958537509945585,0.0013419569533484393,0.012826457770362627,1.8658023978382918,-0.6901536399194497,2.242734511678328,0.004276477273183622,2.3465084015382547,0.00827393965891643,-0.0677017439654963,0.014691005375417277,0.02343464607294627,-0.9366509914398193,0.005836433731019497,0.0,0.03499999999999659,-1.130969553325377,1.951302946408824,0.10965642219600011,0.00010870489231729907,0.013682767614127903,1.8683087918220758,-0.7043747888525185,2.1899408695955884,0.001060764509848787,2.3002162510871402,0.031465119270951414,-0.017261821288625204,0.004917141885621201,-0.11653904899772045,-0.035235773172321724,-1.3226328700319705,0.6626051317724927,-0.07161125667954808
-1.130969553325377,1.951302946408824,0.10965642219600011,0.00010870489231729907,0.013682767614127903,1.8683087918220758,-0.7043747888525185,2.1899408695955884,0.001060764509848787,2.3002162510871402,0.031465119270951414,-0.017261821288625204,0.004917141885621201,-0.11653904899772045,-1.0,0.007562733255326748,0.0,0.025000000000005684,-1.1489907904806644,2.005410892304157,0.10968013545239833,0.001464869028631931,0.014475376425434599,1.874311689366761,-0.7409739425188395,2.1382507567553892,0.0018197245147219335,2.261974876277665,0.06803191416936483,-0.00010866684031944629,-0.06674480131397817,-0.2912775554274035,0.05424656545257294,-1.5296549923786604,1.462671795936204,-0.24011590178735756
-1.1489907904806644,2.005410892304157,0.10968013545239833,0.001464869028631931,0.014475376425434599,1.874311689366761,-0.7409739425188395,2.1382507567553892,0.0018197245147219335,2.261974876277665,0.06803191416936483,-0.00010866684031944629,-0.06674480131397817,-0.2912775554274035,-1.0,0.010152182541787624,0.0,0.025000000000005684,-1.1681256476072654,2.0580603014810177,0.10971786901981098,0.004192916806873384,0.015384514378715882,1.8863321766452925,-0.7903309578919329,2.0742385223520614,0.0010853189375140543,2.217094012353991,0.10762253944097444,0.1863831527855515,0.2146773341341945,-0.6748281011303605,0.1091219111296333,-1.7952345569465504,1.5836250108640244,-0.48081949114114847
-1.1681256476072654,2.0580603014810177,0.10971786901981098,0.004192916806873384,0.015384514378715882,1.8863321766452925,-0.7903309578919329,2.0742385223520614,0.0010853189375140543,2.217094012353991,0.10762253944097444,0.1863831527855515,0.2146773341341945,-0.6748281011303605,-1.0,0.013573954813182354,0.0,0.030000000000001137,-1.193163085135991,2.1189170992196242,0.10994124256586144,0.018312923176314302,0.015510996368367896,1.9160613204044277,-0.8943368009087678,1.9789844591753087,0.012901125363503435,2.1648810263132976,0.17177876768041,0.3726948889417363,-0.005922508875359242,-1.0409300000737085,0.47066687898134607,-1.7404328680230496,2.138540941314438,-0.990971458637801
-1.193163085135991,2.1189170992196242,0.10994124256586144,0.018312923176314302,0.015510996368367896,1.9160613204044277,-0.8943368009087678,1.9789844591753087,0.012901125363503435,2.1648810263132976,0.17177876768041,0.3726948889417363,-0.005922508875359242,-1.0409300000737085,-1.0,0.04729845002293587,0.0,0.03499999999999659,-1.2268160417967282,2.1861909692243304,0.11045076113744787,0.02323439162774132,0.015324202747720693,1.9542523954342053,-1.015157108268585,1.8724474010413399,0.014106003731046035,2.116263434807713,0.24089893862481992,-0.24969209242530696,-0.2221178951180934,-1.1587207417123948,0.14061338432649997,-1.3890740430168396,1.974862026983333,-1.091173572279466
-1.2268160417967282,2.1861909692243304,0.11045076113744787,0.02323439162774132,0.015324202747720693,1.9542523954342053,-1.015157108268585,1.8724474010413399,0.014106003731046035,2.116263434807713,0.24089893862481992,-0.24969209242530696,-0.2221178951180934,-1.1587207417123948,-1.0,0.21058788895606995,0.0,0.03499999999999659,-1.2641050371890188,2.2503126754599587,0.11067478395895977,0.01699550378600503,0.011563549526869695,1.9939210527170004,-1.1115659850975517,1.8013385935438377,-0.0016125297475352018,2.0989010638107706,0.27388682361588057,-0.15827688522150551,-0.1837744444007757,-1.117257598113527,-0.17825393833533995,-0.49606774276983057,0.9425109997446817,-1.133390208079971
-1.2641050371890188,2.2503126754599587,0.11067478395895977,0.01699550378600503,0.011563549526869695,1.9939210527170004,-1.1115659850975517,1.8013385935438377,-0.0016125297475352018,2.0989010638107706,0.27388682361588057,-0.15827688522150551,-0.1837744444007757,-1.117257598113527,-1.0,0.4292113780975342,0.0,0.030000000000001137,-1.298643742457374,2.3042158491339397,0.11035907967623548,0.01058023911348199,0.003003245755142156,2.02555368475259,-1.196560004962577,1.801184968558287,-0.016044535946512502,2.143708493792708,0.2837904686161251,0.08600433292270478,-0.45370867593323744,-1.12777155509938,-0.21384215575075993,1.4935809993978504,0.33012150000813895,-1.0544210678529515
-1.298643742457374,2.3042158491339397,0.11035907967623548,0.01058023911348199,0.003003245755142156,2.02555368475259,-1.196560004962577,1.801184968558287,-0.016044535946512502,2.143708493792708,0.2837904686161251,0.08600433292270478,-0.45370867593323744,-1.12777155509938,-1.0,0.9139624834060669,0.0,0.03499999999999659,-1.3427525788601455,2.3684340102360757,0.1096801171471658,0.009761526347902495,-0.007321432596818526,2.068117769278638,-1.3328792719554052,1.8655000892294316,-0.017351973389927885,2.2754010232953954,0.2814390159691025,0.27852760428578094,-0.1776219175409791,-1.3756210298384017,-0.02339179330227356,3.7626437000771555,-0.06718436134351037,-1.2161167007443467
-1.3427525788601455,2.3684340102360757,0.1096801171471658,0.009761526347902495,-0.007321432596818526,2.068117769278638,-1.3328792719554052,1.8655000892294316,-0.017351973389927885,2.2754010232953954,0.2814390159691025,0.27852760428578094,-0.1776219175409791,-1.3756210298384017,-1.0,1.0,0.0,0.05000000000001137,-1.4155278433426801,2.4653245761262212,0.10925059218049468,0.010489657995247776,-0.016545775311199867,2.132157461767936,-1.5824328517953663,2.0031914019134187,-0.0005526085808836012,2.538154859751095,0.2732021798283557,-0.13490062971523228,0.4152942349385325,-1.2801056452394017,0.014562632946902318,5.255076729112793,-0.16473672281489798,-1.2807938497856703
-1.4155278433426801,2.4653245761262212,0.10925059218049468,0.010489657995247776,-0.016545775311199867,2.132157461767936,-1.5824328517953663,2.0031914019134187,-0.0005526085808836012,2.538154859751095,0.2732021798283557,-0.13490062971523228,0.4152942349385325,-1.2801056452394017,-1.0,1.0,0.0,0.030000000000001137,-1.4654874105329894,2.5266295440795274,0.1094084325202796,0.011181332278101508,-0.018525913486315475,2.1706231245070917,-1.7479784720815312,2.0786509020588477,0.00847084788975077,2.702520880849518,0.26944238727952996,-0.07932899261121386,0.1550881802698933,-1.3085426994878395,0.023055809428456843,5.478867369947234,-0.1253264182941868,-1.2821887579718023
-1.4654874105329894,2.5266295440795274,0.1094084325202796,0.011181332278101508,-0.018525913486315475,2.1706231245070917,-1.7479784720815312,2.0786509020588477,0.00847084788975077,2.702520880849518,0.26944238727952996,-0.07932899261121386,0.1550881802698933,-1.3085426994878395,-1.0,1.0,0.0,0.044999999999987494,-1.549893022334599,2.6224105846593035,0.10996793054770296,0.01863656232601612,-0.01872842788670813,2.230389401798675,-2.0099983719569563,2.1657993817557486,0.015462732763336755,2.9432225187033794,0.2611926926246839,-0.03402350641352716,0.15358241205815104,-1.3627504508696742,0.16567177884259296,5.348925285642849,-0.1833265478855185,-1.3281394953688854
-1.549893022334599,2.6224105846593035,0.10996793054770296,0.01863656232601612,-0.01872842788670813,2.230389401798675,-2.0099983719569563,2.1657993817557486,0.015462732763336755,2.9432225187033794,0.2611926926246839,-0.03402350641352716,0.15358241205815104,-1.3627504508696742,-1.0,1.0,0.0,0.03499999999999659,-1.6241723238485068,2.6989226798222568,0.11049785810865861,0.0244628176886819,-0.01894789739731536,2.2798682014236222,-2.2429385809171505,2.1994944356241097,0.01440482153939246,3.129786446152722,0.27015930779222996,0.29452517359804226,-0.06195166553434542,-1.3344568544427107,0.16646443893332427,5.330397927124596,0.2561890047870548,-1.4136799892843457
-1.6241723238485068,2.6989226798222568,0.11049785810865861,0.0244628176886819,-0.01894789739731536,2.2798682014236222,-2.2429385809171505,2.1994944356241097,0.01440482153939246,3.129786446152722,0.27015930779222996,0.29452517359804226,-0.06195166553434542,-1.3344568544427107,-1.0,1.0,0.0,0.0700000000000216,-1.7971532628094522,2.854667487317913,0.11092062740263683,0.028450876900013793,-0.018623368134538448,2.3736477309320625,-2.7003015010990032,2.2353128731852587,0.003348472556326615,3.495213126738916,0.26783770559284226,0.4677411189300851,-0.21132886840668402,-1.3065369290269904,0.05697227444758087,5.22038115122973,-0.03316574570552843,-1.339707564405876
-1.7971532628094522,2.854667487317913,0.11092062740263683,0.028450876900013793,-0.018623368134538448,2.3736477309320625,-2.7003015010990032,2.2353128731852587,0.003348472556326615,3.495213126738916,0.26783770559284226,0.4677411189300851,-0.21132886840668402,-1.3065369290269904,-1.0,1.0,0.0,0.044999999999987494,-1.9255027233870656,2.955484194787096,0.11072450837085906,0.027113587446727934,-0.018427025103320373,2.4317310215667667,-3.0009097029235425,2.23802844833564,-0.0056028067979745355,3.734633817141856,0.25834208430053396,-0.08495489389120851,0.05340240487930734,-1.316270439532138,-0.029717543406360673,5.3204597867334815,-0.2110138064957986,-1.290739791882674
-1.9255027233870656,2.955484194787096,0.11072450837085906,0.027113587446727934,-0.018427025103320373,2.4317310215667667,-3.0009097029235425,2.23802844833564,-0.0056028067979745355,3.734633817141856,0.25834208430053396,-0.08495489389120851,0.05340240487930734,-1.316270439532138,-1.0,1.0,0.0,0.03499999999999659,-2.034474747169268,3.0337881964511673,0.11059828540555647,0.026841036516853815,-0.01727221376233268,2.476400202254839,-3.221295148110998,2.2223384539957567,-0.0030238607988717636,3.906159405416618,0.23968590869510376,0.2922678499879942,0.16441718989498535,-1.343962544916473,-0.007787169424975575,4.900731093565111,-0.5330335887266292,-1.2762623053736202
-2.034474747169268,3.0337881964511673,0.11059828540555647,0.026841036516853815,-0.01727221376233268,2.476400202254839,-3.221295148110998,2.2223384539957567,-0.0030238607988717636,3.906159405416618,0.23968590869510376,0.2922678499879942,0.16441718989498535,-1.343962544916473,-1.0,1.0,0.0,0.030000000000001137,-2.134235044129632,3.1002505613800797,0.11061055486590199,0.0303532322039181,-0.017878511032453307,2.5174094867865855,-3.428464482147366,2.1949399214529404,0.002092526795765298,4.064794837567096,0.22264970833516262,-0.13138170757699297,0.2933014575544803,-1.3477111057548545,0.117073189568805,5.287847738349049,-0.5678733453313496,-1.3669761510581635
-2.134235044129632,3.1002505613800797,0.11061055486590199,0.0303532322039181,-0.017878511032453307,2.5174094867865855,-3.428464482147366,2.1949399214529404,0.002092526795765298,4.064794837567096,0.22264970833516262,-0.13138170757699297,0.2933014575544803,-1.3477111057548545,-1.0,1.0,0.0,0.03499999999999659,-2.2584354260914266,3.176558839144708,0.11063880994828931,0.026804584334352812,-0.017041379055776584,2.5575025786354364,-3.654067922345882,2.163625193167924,-0.00310942764988921,4.24138599248955,0.21007432099501733,-0.32738200802207046,0.18652431495170746,-1.267229251576858,-0.10138993913044664,5.045461569213479,-0.35929678114704344,-1.1455169099672804
-2.2584354260914266,3.176558839144708,0.11063880994828931,0.026804584334352812,-0.017041379055776584,2.5575025786354364,-3.654067922345882,2.163625193167924,-0.00310942764988921,4.24138599248955,0.21007432099501733,-0.32738200802207046,0.18652431495170746,-1.267229251576858,-1.0,1.0,0.0,0.03499999999999659,-2.3904390996943015,3.2515796593508672,0.11070207259050724,0.03142760654806392,-0.018578807691242743,2.6011222970148933,-3.897207099165664,2.110506787307218,0.004782470558947413,4.42766436084184,0.19557704565747192,0.022231636116704125,-0.04625977375928688,-1.11295230573334,0.1320863489631873,5.322239095780225,-0.4142078667870521,-1.246277667984604
-2.3904390996943015,3.2515796593508672,0.11070207259050724,0.03142760654806392,-0.018578807691242743,2.6011222970148933,-3.897207099165664,2.110506787307218,0.004782470558947413,4.42766436084184,0.19557704565747192,0.022231636116704125,-0.04625977375928688,-1.11295230573334,-1.0,1.0,0.0,0.040000000000020464,-2.5512752048855685,3.334888950443588,0.11070409902649003,0.026320886711705984,-0.018122308990306604,2.643936336647287,-4.148361748193967,2.059270926748176,-0.001895604822208713,4.6282100242881326,0.17080373154014716,-0.15663663167459368,0.09998048134312457,-1.0651186680246578,-0.12766799590888303,5.0136415861547485,-0.6193328529328019,-1.0703509908092954
-2.5512752048855685,3.334888950443588,0.11070409902649003,0.026320886711705984,-0.018122308990306604,2.643936336647287,-4.148361748193967,2.059270926748176,-0.001895604822208713,4.6282100242881326,0.17080373154014716,-0.15663663167459368,0.09998048134312457,-1.0651186680246578,-1.0,0.6288147568702698,0.0,0.044999999999987494,-2.74418298265926,3.425190538484274,0.1107667302181061,0.030612748896201667,-0.015828793311238976,2.6929628772190086,-4.417149379365833,1.9438308974095102,0.004421459149721529,4.82313857190279,0.16438221795359542,-0.13002502168324168,0.1000065320944338,-1.1181220729197645,0.09537471521104168,4.3317455025491505,-0.14270030192341168,-1.0894786793718945
-2.74418298265926,3.425190538484274,0.1107667302181061,0.030612748896201667,-0.015828793311238976,2.6929628772190086,-4.417149379365833,1.9438308974095102,0.004421459149721529,4.82313857190279,0.16438221795359542,-0.13002502168324168,0.1000065320944338,-1.1181220729197645,-1.0,0.20802927017211914,0.0,0.025000000000005684,-2.8561559849083666,3.472821235643712,0.11095077648523269,0.03541551306114168,-0.009781273784554444,2.720635344797536,-4.533577511820219,1.8492579914418008,0.008144267996485752,4.893458277440525,0.16476122584574293,0.1454252265600775,0.44936225897486537,-1.1022621933851708,0.19211056659755674,2.8127882215087396,0.015160315685896925,-1.1068987031408433
-2.8561559849083666,3.472821235643712,0.11095077648523269,0.03541551306114168,-0.009781273784554444,2.720635344797536,-4.533577511820219,1.8492579914418008,0.008144267996485752,4.893458277440525,0.16476122584574293,0.1454252265600775,0.44936225897486537,-1.1022621933851708,-1.0,-0.0,0.0,0.03499999999999659,-3.016215821939644,3.5339153732600272,0.11155949590802586,0.044536221458444845,0.003098754294628348,2.766836632603229,-4.609038601936707,1.6315092347004136,0.018652910552970692,4.886363901328443,0.16884028207058277,-0.067427031166636,0.10829518210435363,-1.125224433143832,0.26059166849440163,-0.20269646034520297,0.11654446356686389,-1.3200367944484999
-3.016215821939644,3.5339153732600272,0.11155949590802586,0.044536221458444845,0.003098754294628348,2.766836632603229,-4.609038601936707,1.6315092347004136,0.018652910552970692,4.886363901328443,0.16884028207058277,-0.067427031166636,0.10829518210435363,-1.125224433143832,-0.9617131352424622,-0.03074447065591812,0.03074447065591812,0.03999999999999204,-3.201011909878426,3.5928508927987397,0.11246288790094905,0.05990649677740934,0.014461176369094324,2.8260471640613702,-4.6280930428893905,1.2999139356522842,0.020602596203174534,4.803000184655261,0.20052600815285326,-0.09466979501601346,0.2621299667255361,-1.5390118027460051,0.38425688297418886,-2.0840929168299756,0.79214315205692,-1.4802632864538259
-3.201011909878426,3.5928508927987397,0.11246288790094905,0.05990649677740934,0.014461176369094324,2.8260471640613702,-4.6280930428893905,1.2999139356522842,0.020602596203174534,4.803000184655261,0.20052600815285326,-0.09466979501601346,0.2621299667255361,-1.5390118027460051,-0.33115142583847046,-0.05364876613020897,0.05364876613020897,0.045000000000015916,-3.4088272220850957,3.6432648050988843,0.11284754848617728,0.05782999425293754,0.018417015949236355,2.8964316038469957,-4.606204411374097,0.9372223587491535,-0.0066657916210739465,4.69594647275878,0.20878590490236282,-0.42598391586359124,0.20942361566565826,-1.7113033713302832,-0.04614450054380146,-2.378971375476513,0.18355326110014739,-1.564098661902235
-3.4088272220850957,3.6432648050988843,0.11284754848617728,0.05782999425293754,0.018417015949236355,2.8964316038469957,-4.606204411374097,0.9372223587491535,-0.0066657916210739465,4.69594647275878,0.20878590490236282,-0.42598391586359124,0.20942361566565826,-1.7113033713302832,-0.07359369099140167,-0.053217191249132156,0.053217191249132156,0.06499999999999773,-3.7056996456821967,3.6865957927033195,0.11215292742231411,0.055814048519187816,0.017954290289088914,3.012467211708244,-4.534394157899533,0.411862746204232,-0.010408985446223831,4.549679109659436,0.17544600318283954,0.012664927850206606,-0.7409025081632931,-1.5696721666299258,-0.031014549749996866,-2.2502671246053754,-0.5129215649157607,-1.785163197865418
-3.7056996456821967,3.6865957927033195,0.11215292742231411,0.055814048519187816,0.017954290289088914,3.012467211708244,-4.534394157899533,0.411862746204232,-0.010408985446223831,4.549679109659436,0.17544600318283954,0.012664927850206606,-0.7409025081632931,-1.5696721666299258,0.24119888246059418,-0.035152699798345566,0.035152699798345566,0.05000000000001137,-3.9308498457556738,3.6996936966155127,0.11146855796458505,0.02467564381225143,0.017878762677749155,3.050371330221251,-4.468272211809854,0.16043978746462273,-0.02532715466562168,4.4643093569370516,0.24726392740976477,-0.22680370091958654,-0.463012136962163,-0.10034009747895095,-0.6227680941385861,-1.707395054447292,1.436358484538178,-0.75808237025997
-3.9308498457556738,3.6996936966155127,0.11146855796458505,0.02467564381225143,0.017878762677749155,3.050371330221251,-4.468272211809854,0.16043978746462273,-0.02532715466562168,4.4643093569370516,0.24726392740976477,-0.22680370091958654,-0.463012136962163,-0.10034009747895095,0.5308781266212463,-0.01755061000585556,0.01755061000585556,0.03499999999999659,-4.085948949984064,3.7065850766979658,0.11022496857102887,-0.009683401241430507,0.017169707863134615,3.0501909971212187,-4.390949255712379,0.2643944858661596,-0.034447867423018724,4.396752909031698,0.13749060811136427,-0.2909664284698354,-0.6656077717307821,-0.0007754054108962977,-0.9816870015338653,-1.9301842258674287,-3.1363805513831773,0.005152374286637438
-4.085948949984064,3.7065850766979658,0.11022496857102887,-0.009683401241430507,0.017169707863134615,3.0501909971212187,-4.390949255712379,0.2643944858661596,-0.034447867423018724,4.396752909031698,0.13749060811136427,-0.2909664284698354,-0.6656077717307821,-0.0007754054108962977,1.0,-0.004325921647250652,0.004325921647250652,0.030000000000001137,-4.216241707458541,3.7167812854423166,0.10989192509184817,-0.03454380327950107,0.017572229467262553,3.0354671358864453,-4.307595135744088,0.43354227397815415,0.009377629041571037,4.329284060139481,0.025184984305831104,-0.08804160886086251,0.06175403720745413,0.5614030612406291,-0.8286800679356541,-2.2489616297404758,-3.74352079351763,0.4907953744924253
-4.216241707458541,3.7167812854423166,0.10989192509184817,-0.03454380327950107,0.017572229467262553,3.0354671358864453,-4.307595135744088,0.43354227397815415,0.009377629041571037,4.329284060139481,0.025184984305831104,-0.08804160886086251,0.06175403720745413,0.5614030612406291,1.0,-0.0,0.0,0.03499999999999659,-4.364697225715349,3.7363879716556867,0.11074419561501192,-0.05096406760173668,0.01964665261185334,2.994793100059414,-4.1729758288805785,0.696459776914935,0.031035864883382544,4.229965643397298,-0.0785757275526604,-0.6478643060532645,-1.297648571959843,1.5214422946304569,-0.4691504092067774,-2.83766904977694,-2.9645917673857607,1.1621153093438623
-4.364697225715349,3.7363879716556867,0.11074419561501192,-0.05096406760173668,0.01964665261185334,2.994793100059414,-4.1729758288805785,0.696459776914935,0.031035864883382544,4.229965643397298,-0.0785757275526604,-0.6478643060532645,-1.297648571959843,1.5214422946304569,1.0,-0.0,0.0,0.030000000000001137,-4.487954209915166,3.760767415740987,0.11199312472739589,-0.06646294670596392,0.020160134935381362,2.9455984024553787,-4.043464946460406,0.9382644514931205,0.039399673485352005,4.148770270117463,-0.1328691084459035,-0.15073791537460074,-0.6309917213224575,1.5389552490722378,-0.5166293034742216,-2.706512442661055,-1.8097793631080346,1.6398232534677841
-4.487954209915166,3.760767415740987,0.11199312472739589,-0.06646294670596392,0.020160134935381362,2.9455984024553787,-4.043464946460406,0.9382644514931205,0.039399673485352005,4.148770270117463,-0.1328691084459035,-0.15073791537460074,-0.6309917213224575,1.5389552490722378,1.0,-0.0,0.0,0.03999999999999204,-4.645967538901962,3.804346287915388,0.11274635708993955,-0.06467376671663637,0.01739768005350696,2.863762917883377,-3.8535267288898987,1.247258191039958,-0.0002107699552370973,4.047839880563665,-0.14252560016883464,0.10971714625007462,-0.37418420178080997,2.1089390170171587,0.0447294997331977,-2.5232597388454536,-0.24141229307332673,2.0458871143004562
-4.645967538901962,3.804346287915388,0.11274635708993955,-0.06467376671663637,0.01739768005350696,2.863762917883377,-3.8535267288898987,1.247258191039958,-0.0002107699552370973,4.047839880563665,-0.14252560016883464,0.10971714625007462,-0.37418420178080997,2.1089390170171587,1.0,0.01792053133249283,0.0,0.03999999999999204,-4.795733988786836,3.86067689997993,0.11251003119784772,-0.07303527412315569,0.017422631903884333,2.7643257066473867,-3.6207310877317473,1.5855298252981236,-0.0038228033370958925,3.9501819114053434,-0.14021876972448366,-0.19871959139155992,-0.6158741325157201,2.566722315134903,-0.20903768516302465,-2.441449228958534,0.05767076110878604,2.4859302809002455
-4.795733988786836,3.86067689997993,0.11251003119784772,-0.07303527412315569,0.017422631903884333,2.7643257066473867,-3.6207310877317473,1.5855298252981236,-0.0038228033370958925,3.9501819114053434,-0.14021876972448366,-0.19871959139155992,-0.6158741325157201,2.566722315134903,1.0,0.015331081114709377,0.0,0.040000000000020464,-4.935676417054202,3.9304784619786823,0.11306922307718828,-0.07965818728375545,0.019532108708203523,2.657893576883655,-3.3685274695188436,1.9060838634438217,0.020536440329721864,3.868530140357113,-0.12086174139290828,-0.34994795054640326,-0.2305721818663784,2.4966635861517235,-0.16557282901490938,-2.0412942762047184,0.48392570828913684,2.6608032440919294
-4.935676417054202,3.9304784619786823,0.11306922307718828,-0.07965818728375545,0.019532108708203523,2.657893576883655,-3.3685274695188436,1.9060838634438217,0.020536440329721864,3.868530140357113,-0.12086174139290828,-0.34994795054640326,-0.2305721818663784,2.4966635861517235,1.0,0.017057381570339203,0.0,0.044999999999987494,-5.080864440869492,4.022064451118062,0.11276627682816001,-0.07291976497267372,0.015694811339375905,2.5405791719600317,-3.065835851392985,2.189049184243962,-0.023943445359395486,3.7664483473932355,-0.07178192770097769,-0.5001238636098144,-0.20780117152375752,2.7700897665796336,0.14974271802408023,-2.268484288086793,1.0906625264876497,2.6069867760812455
-5.080864440869492,4.022064451118062,0.11276627682816001,-0.07291976497267372,0.015694811339375905,2.5405791719600317,-3.065835851392985,2.189049184243962,-0.023943445359395486,3.7664483473932355,-0.07178192770097769,-0.5001238636098144,-0.20780117152375752,2.7700897665796336,1.0,0.03259407728910446,0.0,0.03499999999999659,-5.183102734958631,4.102977836912901,0.1126944047277462,-0.08166555400846867,0.018007124971796528,2.4604717006214165,-2.7712410847921665,2.434470009001845,0.012081725064289311,3.6857855444825445,-0.14630890216599357,-0.04789756863367692,0.0803498971577909,2.1829387528073063,-0.24987968673702304,-2.3046515117342548,-2.12934212757209,2.2887848953892282
-5.183102734958631,4.102977836912901,0.1126944047277462,-0.08166555400846867,0.018007124971796528,2.4604717006214165,-2.7712410847921665,2.434470009001845,0.012081725064289311,3.6857855444825445,-0.14630890216599357,-0.04789756863367692,0.0803498971577909,2.1829387528073063,1.0,0.22960801422595978,0.0,0.03499999999999659,-5.275145663251592,4.191865800865772,0.11305558721678355,-0.08143866962424143,0.0174009196737608,2.3965510627276334,-2.477806526341856,2.645264383878283,0.007713894567088889,3.614831288027923,-0.2644685268451348,-0.371570698470388,-0.3419649834460038,1.6179704098358043,0.006482410977921886,-2.0272644701322404,-3.375989276547221,1.8263039398225525
-5.275145663251592,4.191865800865772,0.11305558721678355,-0.08143866962424143,0.0174009196737608,2.3965510627276334,-2.477806526341856,2.645264383878283,0.007713894567088889,3.614831288027923,-0.2644685268451348,-0.371570698470388,-0.3419649834460038,1.6179704098358043,1.0,0.35491886734962463,0.0,0.03999999999999204,-5.368712028576849,4.301494123044334,0.11329467587184996,-0.06381729592130046,0.012420554322247614,2.3368101363819176,-2.2100151906366197,2.8340646965536975,-0.024250683896711988,3.5745862051659563,-0.37205283083705143,0.2373118253893559,0.19649980367333114,1.405406524004511,0.4405343425736118,-1.0061270715493678,-2.6896075997984514,1.4935231586431925
-5.368712028576849,4.301494123044334,0.11329467587184996,-0.06381729592130046,0.012420554322247614,2.3368101363819176,-2.2100151906366197,2.8340646965536975,-0.024250683896711988,3.5745862051659563,-0.37205283083705143,0.2373118253893559,0.19649980367333114,1.405406524004511,1.0,0.5640168786048889,0.0,0.045000000000015916,-5.4630428839011556,4.43232832477283,0.11185949148751828,-0.04909232281048724,0.005628156296856708,2.2620369188682967,-2.0026612118905054,3.000246164817513,-0.03151989207372749,3.5882403681769497,-0.36967558655974475,0.29476096288104947,0.10353767004134713,1.8827126428559076,0.3272216246846225,0.3034258446886355,0.05282765060679639,1.6616270558576538
-5.4630428839011556,4.43232832477283,0.11185949148751828,-0.04909232281048724,0.005628156296856708,2.2620369188682967,-2.0026612118905054,3.000246164817513,-0.03151989207372749,3.5882403681769497,-0.36967558655974475,0.29476096288104947,0.10353767004134713,1.8827126428559076,1.0,0.8128506541252136,0.0,0.03499999999999659,-5.531126085141386,4.540757991582186,0.11092542419882195,-0.04670525160220905,-0.0026260826093250783,2.200507435838128,-1.8769807406313892,3.201047367460749,-0.019122485120220748,3.692454205030174,-0.36816150421185334,-0.12417466604072236,-0.16281447712628755,1.808089183157362,0.06820203452224068,2.977538195806695,0.0432594956540445,1.757985229433569
-5.531126085141386,4.540757991582186,0.11092542419882195,-0.04670525160220905,-0.0026260826093250783,2.200507435838128,-1.8769807406313892,3.201047367460749,-0.019122485120220748,3.692454205030174,-0.36816150421185334,-0.12417466604072236,-0.16281447712628755,1.808089183157362,1.0,0.9476561546325684,0.0,0.03499999999999659,-5.595560196358149,4.656398777314757,0.11051207071928096,-0.03910277708209741,-0.009940254347286579,2.143233743630616,-1.8001867683898634,3.4115675584790806,-0.005064097425224956,3.8428359463376194,-0.3347797734157607,0.08889205313020584,0.03137899686795932,1.6959228104090653,0.21721355771749656,4.296621180213148,0.9537637370313111,1.6363912059290642
-5.595560196358149,4.656398777314757,0.11051207071928096,-0.03910277708209741,-0.009940254347286579,2.143233743630616,-1.8001867683898634,3.4115675584790806,-0.005064097425224956,3.8428359463376194,-0.3347797734157607,0.08889205313020584,0.03137899686795932,1.6959228104090653,1.0,1.0,0.0,0.0800000000000125,-5.732951707268273,4.950228394503719,0.11070023888503153,-0.03046726992077162,-0.016647666765728892,2.0235008959816128,-1.6314157856570408,3.9315053975548166,0.0026736212962210903,4.24905476083178,-0.2525585004437989,0.06369400734349163,0.3693752464731909,1.4577203584464955,0.1079438395165555,5.077735181176213,1.0277659121493619,1.4966605956123082
-5.732951707268273,4.950228394503719,0.11070023888503153,-0.03046726992077162,-0.016647666765728892,2.0235008959816128,-1.6314157856570408,3.9315053975548166,0.0026736212962210903,4.24905476083178,-0.2525585004437989,0.06369400734349163,0.3693752464731909,1.4577203584464955,1.0,1.0,0.0,0.03999999999999204,-5.796453132319103,5.112733711022915,0.11079415878800192,-0.031845079468035845,-0.015328151611304828,1.9716110174036827,-1.5281237790531907,4.1853293807424325,-0.00034493736970392375,4.449840446273517,-0.2259741403832456,0.17404502291150242,0.19032559399589388,1.2921938780298996,-0.03444523868161246,5.019642136044421,0.6646090015139651,1.297246964448509
-5.796453132319103,5.112733711022915,0.11079415878800192,-0.031845079468035845,-0.015328151611304828,1.9716110174036827,-1.5281237790531907,4.1853293807424325,-0.00034493736970392375,4.449840446273517,-0.2259741403832456,0.17404502291150242,0.19032559399589388,1.2921938780298996,1.0,1.0,0.0,0.03499999999999659,-5.848647433073326,5.263067334901938,0.1107652015439343,-0.028850394311780492,-0.01734260610283495,1.929524839634264,-1.4476303400267065,4.4022308909711985,-0.0024271460682321194,4.6302421938429115,-0.19007273645554879,0.001657320546632618,0.3052487786792445,1.164108244673387,0.08556243303587556,5.15433564484035,1.0257543979342945,1.2024622219835117
-5.848647433073326,5.263067334901938,0.1107652015439343,-0.028850394311780492,-0.01734260610283495,1.929524839634264,-1.4476303400267065,4.4022308909711985,-0.0024271460682321194,4.6302421938429115,-0.19007273645554879,0.001657320546632618,0.3052487786792445,1.164108244673387,0.5799543261528015,1.0,0.0,0.03999999999999204,-5.904315622449471,5.444159700521306,0.110756989866262,-0.030263712149125155,-0.015289734798126134,1.8833758112568562,-1.3205327838248295,4.629615429545584,-0.0005186507206487029,4.811363023190118,-0.1671278484320986,-0.35168789013042856,-0.610615620022405,1.1921720147004797,-0.035332945933623607,4.528020733681072,0.5736222005863687,1.1537257094354234
-5.904315622449471,5.444159700521306,0.110756989866262,-0.030263712149125155,-0.015289734798126134,1.8833758112568562,-1.3205327838248295,4.629615429545584,-0.0005186507206487029,4.811363023190118,-0.1671278484320986,-0.35168789013042856,-0.610615620022405,1.1921720147004797,0.3256642520427704,1.0,0.0,0.025000000000005684,-5.93636140332467,5.561953162334356,0.11081987060053194,-0.03302177575768678,-0.017313082192277326,1.8531140818158476,-1.2312842109301596,4.779642219669663,0.008544261583858792,4.933441438996897,-0.14898363709774554,-0.30506795168399076,-1.010138243217089,1.1387027530062692,-0.11032254434243982,4.883136632270029,0.7257684533739577,1.2104691776400678
-5.93636140332467,5.561953162334356,0.11081987060053194,-0.03302177575768678,-0.017313082192277326,1.8531140818158476,-1.2312842109301596,4.779642219669663,0.008544261583858792,4.933441438996897,-0.14898363709774554,-0.30506795168399076,-1.010138243217089,1.1387027530062692,-0.02793923392891884,1.0,0.0,0.03999999999999204,-5.982953483931678,5.758483046745385,0.11089740479069096,-0.03135529597380526,-0.015938183573528737,1.809773666849806,-1.0831445770420847,5.032484681620151,-0.0037153917717504537,5.1458545005448695,-0.1388729805947111,-0.062249705901781555,0.49276596816428314,1.0771716862784502,0.04166199459704631,5.310326538700374,0.25276641257591137,1.0835103741512577
-5.982953483931678,5.758483046745385,0.11089740479069096,-0.03135529597380526,-0.015938183573528737,1.809773666849806,-1.0831445770420847,5.032484681620151,-0.0037153917717504537,5.1458545005448695,-0.1388729805947111,-0.062249705901781555,0.49276596816428314,1.0771716862784502,-0.4679914712905884,1.0,0.0,0.045000000000015916,-6.027960298246786,5.990736844185094,0.1108505686997808,-0.027356511280451936,-0.018592366161168918,1.7625723512704532,-0.9004334076629518,5.298289414039124,-0.000533738800152242,5.372782299369407,-0.12594205071123188,0.5076372976971315,-1.0088579997802734,0.28938487809714575,0.08886188207448681,5.042839973876838,0.28735399741054757,1.0489181239852445
-6.027960298246786,5.990736844185094,0.1108505686997808,-0.027356511280451936,-0.018592366161168918,1.7625723512704532,-0.9004334076629518,5.298289414039124,-0.000533738800152242,5.372782299369407,-0.12594205071123188,0.5076372976971315,-1.0088579997802734,0.28938487809714575,-1.0,1.0,0.0,0.03999999999999204,-6.0639756432264775,6.207647641850816,0.11037155563038487,0.005703390691666779,-0.01876476260524202,1.7654222137372644,-0.9635775233623882,5.509903489261746,-0.022749523781225037,5.592232425402472,-0.12022730465726916,1.2707825590611295,1.3666749116796906,-0.6316588048683818,0.8264975493031324,5.486253150827695,0.14286865134909632,-0.07124656167029371
-6.0639756432264775,6.207647641850816,0.11037155563038487,0.005703390691666779,-0.01876476260524202,1.7654222137372644,-0.9635775233623882,5.509903489261746,-0.022749523781225037,5.592232425402472,-0.12022730465726916,1.2707825590611295,1.3666749116796906,-0.6316588048683818,-1.0,1.0,0.0,0.030000000000001137,-6.095568569845299,6.374344000821294,0.11043700051184538,0.038260385701183806,-0.017402828492168444,1.7866867799805672,-1.1631631529223587,5.598852692625282,0.01711812263242425,5.718050764499597,-0.06320956129599598,1.1097923239298126,0.11299582804839362,-0.7781097676563837,1.0852331669838597,4.1939446365706825,1.900591445375701,-0.7088188747767352
-6.095568569845299,6.374344000821294,0.11043700051184538,0.038260385701183806,-0.017402828492168444,1.7866867799805672,-1.1631631529223587,5.598852692625282,0.01711812263242425,5.718050764499597,-0.06320956129599598,1.1097923239298126,0.11299582804839362,-0.7781097676563837,-1.0,0.9234570860862732,0.0,0.03999999999999204,-6.148680151469611,6.600960677399132,0.1111174648877837,0.04106401189689013,-0.012736139422927648,1.8069444510354202,-1.4605983217601788,5.723531203532405,0.008131336360622743,5.906403128933714,0.08098749199582134,-0.05203482303477343,0.5806953250534785,-0.6278895518140893,0.07009065489267201,4.708809110853878,3.60492633229615,-0.5064417763714255
-6.148680151469611,6.600960677399132,0.1111174648877837,0.04106401189689013,-0.012736139422927648,1.8069444510354202,-1.4605983217601788,5.723531203532405,0.008131336360622743,5.906403128933714,0.08098749199582134,-0.05203482303477343,0.5806953250534785,-0.6278895518140893,-1.0,0.5631537437438965,0.0,0.045000000000015916,-6.220629334233383,6.8619845388959115,0.11119676749836693,0.038378986322316275,-0.00825311884941805,1.8400479115965866,-1.7235054872571423,5.8218470106732685,-0.003589955981613803,6.0705571319460425,0.11273813937525179,0.7252954579094997,0.9904808638764556,-1.580229767656285,-0.059667234990508994,3.6478667336060004,0.7055699417648716,-0.7356324569145491
-6.220629334233383,6.8619845388959115,0.11119676749836693,0.038378986322316275,-0.00825311884941805,1.8400479115965866,-1.7235054872571423,5.8218470106732685,-0.003589955981613803,6.0705571319460425,0.11273813937525179,0.7252954579094997,0.9904808638764556,-1.580229767656285,-1.0,-0.012248403392732143,0.012248403392732143,0.03499999999999659,-6.285742598628031,7.066207326988831,0.11158212696158268,0.05601986125484352,-0.0005541659320848361,1.8890897173941106,-1.9994634867728265,5.798599663814298,0.014568059426010103,6.133065451076254,0.08438287112840759,1.2967200114156778,1.4080462911500198,-1.7699373272780614,0.5040249980722561,1.7859519751490704,-0.8101505213384846,-1.401194451357963
-6.285742598628031,7.066207326988831,0.11158212696158268,0.05601986125484352,-0.0005541659320848361,1.8890897173941106,-1.9994634867728265,5.798599663814298,0.014568059426010103,6.133065451076254,0.08438287112840759,1.2967200114156778,1.4080462911500198,-1.7699373272780614,-1.0,-0.06021486967802048,0.06021486967802048,0.03999999999999204,-6.371912821638572,7.29341437258502,0.1128483698558235,0.07748718303104658,0.015693594374763056,1.9672266964040348,-2.326526992961119,5.553514716873077,0.040484052897894474,6.021150270535626,0.0017260160247443146,0.25584100902830953,0.33246850094861796,-2.0303217597348917,0.5366830444051834,-2.797879513516245,-2.066421377591993,-1.9534244752484942
-6.371912821638572,7.29341437258502,0.1128483698558235,0.07748718303104658,0.015693594374763056,1.9672266964040348,-2.326526992961119,5.553514716873077,0.040484052897894474,6.021150270535626,0.0017260160247443146,0.25584100902830953,0.33246850094861796,-2.0303217597348917,-1.0,-0.05892014503479004,0.05892014503479004,0.0700000000000216,-6.555896578855106,7.663173110195643,0.11809016385826274,0.10135471927351625,0.03208395336422005,2.137279086777058,-2.9040147496637387,5.022306496587042,0.08025641795604538,5.796281457073411,-0.24491933837874535,0.3583438920805067,0.25452066530401884,-2.2668063674672707,0.34096480346374713,-3.2124116208878037,-3.523505062905908,-2.4293198624710093
-6.555896578855106,7.663173110195643,0.11809016385826274,0.10135471927351625,0.03208395336422005,2.137279086777058,-2.9040147496637387,5.022306496587042,0.08025641795604538,5.796281457073411,-0.24491933837874535,0.3583438920805067,0.25452066530401884,-2.2668063674672707,-1.0,-0.04393833130598068,0.04393833130598068,0.03999999999999204,-6.67601440149171,7.858950575382752,0.11959698274875821,0.09121295288776451,0.03390887928188286,2.23305728982849,-3.124935414878178,4.751240124046371,0.003681042685841268,5.668374111275434,-0.45720782815963545,-0.8863769884319898,-0.8602803742944478,-2.2470607257599924,-0.25354415964384375,-3.197683644950048,-5.307212244523308,-2.394455076286283
-6.67601440149171,7.858950575382752,0.11959698274875821,0.09121295288776451,0.03390887928188286,2.23305728982849,-3.124935414878178,4.751240124046371,0.003681042685841268,5.668374111275434,-0.45720782815963545,-0.8863769884319898,-0.8602803742944478,-2.2470607257599924,-1.0,-0.04307518154382706,0.04307518154382706,0.03999999999999204,-6.803475783565727,8.04406733540043,0.11762626646844962,0.07280781485927179,0.02604078391606605,2.3159257440317624,-3.271301069008703,4.482887286224057,-0.09259758948929474,5.513083948725058,-0.6352908620442315,0.702488117197878,0.6614316022941416,-1.5864250869573933,-0.46012845071240965,-3.8822540637601883,-4.452075847115786,-2.071711355082219
