x_pos,y_pos,z_pos,roll,pitch,yaw,u_x,u_y,u_z,comp_u_x,comp_u_y,roll_mder,pitch_mder,yaw_mder,steer,throttle,brake,time_step,act_x_pos,act_y_pos,act_z_pos,act_roll,act_pitch,act_yaw,act_u_x,act_u_y,act_u_z,act_comp_u_x,act_comp_u_y,act_roll_mder,act_pitch_mder,act_yaw_mder,accel_roll,accel_x,accel_y,accel_yaw
-0.009697029331404039,0.048669003143823567,0.1097479353563521,6.892039726248197e-06,-0.019163846892258984,2.3555676390970595,-0.26847525001217426,0.2671832372672749,-3.154457630174211e-05,0.37876710165302985,0.0011510217564202063,-0.07504197426961748,0.08994941078981979,-0.001129198688060502,0.0,1.0,0.0,0.03999999999996362,-0.02384037181045784,0.062622953113769,0.10964839465539658,-6.021293496488501e-06,-0.021470682507006372,2.356090576037926,-0.43326579852812386,0.42591071884015136,-0.003144030301281688,0.6075289979477406,0.005263957613946546,0.01869081098843971,-0.01518256712898056,-0.023387001531968262,-0.0003228333305687111,15.18822494870733,0.13159894034878333,-0.6129050055012766
-0.02384037181045784,0.062622953113769,0.10964839465539658,-6.021293496488501e-06,-0.021470682507006372,2.356090576037926,-0.43326579852812386,0.42591071884015136,-0.003144030301281688,0.6075289979477406,0.005263957613946546,0.01869081098843971,-0.01518256712898056,-0.023387001531968262,0.0,1.0,0.0,0.025000000000034106,-0.03600738231835088,0.07449352100084858,0.10957786039935924,-2.094393169089537e-06,-0.021783315841482742,2.3569442661124187,-0.5362037538928982,0.5214364493782946,-0.002657262304762948,0.7478721787826303,0.009881327441179033,0.0026490121423809066,-0.003195625995950745,-0.04103184925800394,0.00015707601309574427,5.61372723338793,0.18469479308904752,-2.5767540315953728
-0.03600738231835088,0.07449352100084858,0.10957786039935924,-2.094393169089537e-06,-0.021783315841482742,2.3569442661124187,-0.5362037538928982,0.5214364493782946,-0.002657262304762948,0.7478721787826303,0.009881327441179033,0.0026490121423809066,-0.003195625995950745,-0.04103184925800394,0.0006267083808779716,1.0,0.0,0.014999999999986358,-0.044552475158708305,0.08274784548176625,0.10955108058096638,2.278074340490208e-05,-0.02181199291083325,2.357769787225504,-0.5993282391179864,0.5754146318832477,-0.0016373571888422776,0.8306942569913358,0.015600903538329713,0.06279604526675057,-0.04637017753635391,-0.07677749252636246,0.001658342438267616,5.521471880585386,0.38130507314372547,-7.853956118964902
-0.044552475158708305,0.08274784548176625,0.10955108058096638,2.278074340490208e-05,-0.02181199291083325,2.357769787225504,-0.5993282391179864,0.5754146318832477,-0.0016373571888422776,0.8306942569913358,0.015600903538329713,0.06279604526675057,-0.04637017753635391,-0.07677749252636246,0.0,1.0,0.0,0.014999999999986358,-0.05403248668989313,0.09183988646191274,0.10953652438245257,4.061101028281374e-05,-0.021799012535002892,2.3588448251620533,-0.6612558543843252,0.6317689231815284,-0.0008180288829248497,0.9143586377936972,0.01842711989287743,0.055957194120385245,-0.021587157250397556,-0.09930771885116925,0.001188684458528525,5.5776253868291645,0.18841442363668584,-11.739014091846123
-0.05403248668989313,0.09183988646191274,0.10953652438245257,4.061101028281374e-05,-0.021799012535002892,2.3588448251620533,-0.6612558543843252,0.6317689231815284,-0.0008180288829248497,0.9143586377936972,0.01842711989287743,0.055957194120385245,-0.021587157250397556,-0.09930771885116925,0.0,1.0,0.0,0.020000000000038654,-0.06815759403128574,0.10522618142274343,0.10953676791407183,-3.7274832209014836e-06,-0.02171872808070005,2.3607423817245694,-0.7456605440570394,0.7045816801424563,0.0006575971931551475,1.02559760879024,0.02438310479714001,-0.07574387484622737,0.05127268695302982,-0.08958705040492995,-0.0022169246751814766,5.561948549816395,0.2977992452125534,-9.444738462786708
-0.06815759403128574,0.10522618142274343,0.10953676791407183,-3.7274832209014836e-06,-0.02171872808070005,2.3607423817245694,-0.7456605440570394,0.7045816801424563,0.0006575971931551475,1.02559760879024,0.02438310479714001,-0.07574387484622737,0.05127268695302982,-0.08958705040492995,0.0,1.0,0.0,0.024999999999977263,-0.08817468894848446,0.12399998288269798,0.10955802418465388,8.850041898805899e-05,-0.021583373033789818,2.363894775331027,-0.8516069594925503,0.7927269220936849,0.0009743382941409563,1.163005761149194,0.03268005511099559,-0.0006924914198850052,0.0503347101703486,-0.17285219760859494,0.003689116088361774,5.496326094363154,0.3318780125545249,-10.497569920550545
-0.08817468894848446,0.12399998288269798,0.10955802418465388,8.850041898805899e-05,-0.021583373033789818,2.363894775331027,-0.8516069594925503,0.7927269220936849,0.0009743382941409563,1.163005761149194,0.03268005511099559,-0.0006924914198850052,0.0503347101703486,-0.17285219760859494,0.003555252216756344,1.0,0.0,0.045000000000015916,-0.13081983778227446,0.16351498833073094,0.10960863437275445,4.011309285831065e-05,-0.02153196019643954,2.3706238915198843,-1.037331210404305,0.9597052430172403,0.0009412618116063885,1.4127630143345622,0.034508823248009746,-0.01437230728735034,-0.019541130836427223,-0.1279175125285756,-0.0010752739139940275,5.550161181895109,0.04063929193363359,-6.683771336379205
-0.13081983778227446,0.16351498833073094,0.10960863437275445,4.011309285831065e-05,-0.02153196019643954,2.3706238915198843,-1.037331210404305,0.9597052430172403,0.0009412618116063885,1.4127630143345622,0.034508823248009746,-0.01437230728735034,-0.019541130836427223,-0.1279175125285756,0.0,1.0,0.0,0.03499999999996817,-0.1696265514401567,0.1995977275594254,0.10962823240809752,5.575459069666814e-06,-0.02151912499900429,2.3755430571301255,-1.1787616250196218,1.093619788508278,0.0005109627760189542,1.6076803423986366,0.02910544795726333,-0.07440799952820756,0.02803412645277082,-0.17897370119915534,-0.0009867895368192926,5.569066516121476,-0.1543821511643237,-8.76832039222886
-0.1696265514401567,0.1995977275594254,0.10962823240809752,5.575459069666814e-06,-0.02151912499900429,2.3755430571301255,-1.1787616250196218,1.093619788508278,0.0005109627760189542,1.6076803423986366,0.02910544795726333,-0.07440799952820756,0.02803412645277082,-0.17897370119915534,0.0,1.0,0.0,0.015000000000043201,-0.18779474904927973,0.216451473174964,0.10963003532039209,0.00014661959484802548,-0.021504462773480573,2.377615466625787,-1.2419017689457232,1.1467889651572876,0.0002104131512263227,1.690112467287749,0.031060943893516657,0.0415541333667879,0.02405420525837547,-0.17222288084826584,0.00940294238519683,5.495474992591669,0.1303663957498463,-23.413105469760648
-0.18779474904927973,0.216451473174964,0.10963003532039209,0.00014661959484802548,-0.021504462773480573,2.377615466625787,-1.2419017689457232,1.1467889651572876,0.0002104131512263227,1.690112467287749,0.031060943893516657,0.0415541333667879,0.02405420525837547,-0.17222288084826584,0.0,1.0,0.0,0.03999999999996362,-0.2411483200014395,0.26503392629384287,0.10962494027506278,8.616324546652117e-05,-0.02155201568162489,2.3843525742950105,-1.4182867159601202,1.2832944220929834,-0.0004431396518130709,1.9122365186752988,0.04163266852462244,0.014059725573506128,0.07758844996267325,-0.23539288390095534,-0.0015114087345389823,5.553101284693795,0.26429311577788495,-10.190394118739798
-0.2411483200014395,0.26503392629384287,0.10962494027506278,8.616324546652117e-05,-0.02155201568162489,2.3843525742950105,-1.4182867159601202,1.2832944220929834,-0.0004431396518130709,1.9122365186752988,0.04163266852462244,0.014059725573506128,0.07758844996267325,-0.23539288390095534,0.0,1.0,0.0,0.025000000000034106,-0.2779987057104023,0.2982756341523146,0.10962041014797855,-5.374233734377112e-05,-0.021674566406342452,2.388705035895927,-1.5250072025904595,1.373194541345835,6.0932650409385725e-05,2.0517445121780917,0.040677673014344995,-0.021323052777261715,-0.06772840651817616,-0.11764519858238212,-0.005596223312404057,5.580319740104106,-0.03819982041104571,-14.121523299314234
-0.2779987057104023,0.2982756341523146,0.10962041014797855,-5.374233734377112e-05,-0.021674566406342452,2.388705035895927,-1.5250072025904595,1.373194541345835,6.0932650409385725e-05,2.0517445121780917,0.040677673014344995,-0.021323052777261715,-0.06772840651817616,-0.11764519858238212,0.0006267083808779716,1.0,0.0,0.0049999999999954525,-0.28568189751927875,0.30520363439365955,0.10961983950745191,0.00010441684221650891,-0.021653102726050904,2.389662880695261,-1.5457768812326307,1.3914459173697002,0.00020853246561860356,2.0794187206194463,0.039568824287210314,0.07636741884046432,0.03295295241054523,-0.23413417344132056,0.03163183591208477,5.534841688275954,-0.22176974542713798,-70.35587440480452
-0.28568189751927875,0.30520363439365955,0.10961983950745191,0.00010441684221650891,-0.021653102726050904,2.389662880695261,-1.5457768812326307,1.3914459173697002,0.00020853246561860356,2.0794187206194463,0.039568824287210314,0.07636741884046432,0.03295295241054523,-0.23413417344132056,0.0,1.0,0.0,0.05500000000000682,-0.37786779827309047,0.38665056251833996,0.10962707174207928,0.00035099159307486275,-0.021288842245625002,2.401820079304114,-1.8019583645212047,1.561100526573025,9.257858113330408e-05,2.383334897918001,0.06167305652147781,-0.04543709848184669,-0.05571258863468622,-0.20334582476472074,0.00448317728833315,5.525748678154852,0.40189513153208645,-7.954181785563401
-0.37786779827309047,0.38665056251833996,0.10962707174207928,0.00035099159307486275,-0.021288842245625002,2.401820079304114,-1.8019583645212047,1.561100526573025,9.257858113330408e-05,2.383334897918001,0.06167305652147781,-0.04543709848184669,-0.05571258863468622,-0.20334582476472074,0.0,1.0,0.0,0.029999999999972715,-0.4338285068248613,0.4351655400463788,0.10962777922803382,0.0004476498500107277,-0.021143041595833197,2.4084382800886,-1.9271976467230423,1.663596927536137,0.0005668758151348569,2.5453443804701807,0.0535489649888623,-0.08153722291414259,0.09636377448904582,-0.2348860536529389,0.0032219418978650955,5.400316085077573,-0.27080305108742986,-14.60772928060194
-0.4338285068248613,0.4351655400463788,0.10962777922803382,0.0004476498500107277,-0.021143041595833197,2.4084382800886,-1.9271976467230423,1.663596927536137,0.0005668758151348569,2.5453443804701807,0.0535489649888623,-0.08153722291414259,0.09636377448904582,-0.2348860536529389,0.0,1.0,0.0,0.0049999999999954525,-0.44354577785184546,0.4435261715256001,0.10962766697544493,0.0004854175364371513,-0.021257852507325797,2.409719094647848,-1.9538626604890867,1.676500601350528,0.000508153292708334,2.573870682312678,0.058508743905892224,0.11823943054400898,-0.1307564487791915,-0.23591520197820842,0.007553537285291587,5.705260368504598,0.9919557834068866,-94.1602511263151
-0.44354577785184546,0.4435261715256001,0.10962766697544493,0.0004854175364371513,-0.021257852507325797,2.409719094647848,-1.9538626604890867,1.676500601350528,0.000508153292708334,2.573870682312678,0.058508743905892224,0.11823943054400898,-0.1307564487791915,-0.23591520197820842,0.0015823384746909142,1.0,0.0,0.03000000000002956,-0.5042649350243158,0.4952772115656367,0.10962614319683706,0.00027410050151366284,-0.02121646402511402,2.4166720168268734,-2.089657573258691,1.7699714454876987,-3.617494135331467e-05,2.737843108564806,0.0606861121131943,0.026662765831347388,-0.11644952607365876,-0.20026943933629648,-0.0070439011641093415,5.465747541732216,0.07257894024333106,-14.539488043802505
-0.5042649350243158,0.4952772115656367,0.10962614319683706,0.00027410050151366284,-0.02121646402511402,2.4166720168268734,-2.089657573258691,1.7699714454876987,-3.617494135331467e-05,2.737843108564806,0.0606861121131943,0.026662765831347388,-0.11644952607365876,-0.20026943933629648,0.0,1.0,0.0,0.029999999999972715,-0.5691786902334117,0.5496811242668265,0.10963265424475993,0.0011994706683977683,-0.02150431496483418,2.4257912412579965,-2.23796765583855,1.8521246069193056,0.0012507872488500757,2.904103392452831,0.07105120744538018,0.128733977575424,-0.06210583767546954,-0.3380237009480777,0.030845672229498237,5.542009462939205,0.34550317773984357,-17.94310467616213
-0.5691786902334117,0.5496811242668265,0.10963265424475993,0.0011994706683977683,-0.02150431496483418,2.4257912412579965,-2.23796765583855,1.8521246069193056,0.0012507872488500757,2.904103392452831,0.07105120744538018,0.128733977575424,-0.06210583767546954,-0.3380237009480777,0.0,1.0,0.0,0.009999999999990905,-0.5918102400150103,0.5683458846407115,0.1096364258510423,0.0009170313601594674,-0.02125482060858621,2.4287393070458787,-2.287838414807285,1.8770365875594182,0.00024024072563685883,2.958319719745286,0.07625876389496344,-0.13600962601296335,-0.0051012961681991716,-0.24861537322328703,-0.028243930823855786,5.421632729250449,0.5207556449587998,-58.663907417189826
-0.5918102400150103,0.5683458846407115,0.1096364258510423,0.0009170313601594674,-0.02125482060858621,2.4287393070458787,-2.287838414807285,1.8770365875594182,0.00024024072563685883,2.958319719745286,0.07625876389496344,-0.13600962601296335,-0.0051012961681991716,-0.24861537322328703,0.0,1.0,0.0,0.040000000000020464,-0.6869407598617432,0.6458944609772537,0.1096428635564182,0.0003430927779520799,-0.021018108995210526,2.439361209613174,-2.4553343638006595,2.0112477788226415,-0.0010813878168500352,3.173519767508175,0.05056432649859621,-0.30826370373500767,0.17134921551937554,-0.23605933014408922,-0.014348464555177347,5.380001194069473,-0.6423609349088522,-12.116867584178209
-0.6869407598617432,0.6458944609772537,0.1096428635564182,0.0003430927779520799,-0.021018108995210526,2.439361209613174,-2.4553343638006595,2.0112477788226415,-0.0010813878168500352,3.173519767508175,0.05056432649859621,-0.30826370373500767,0.17134921551937554,-0.23605933014408922,0.0,1.0,0.0,0.01999999999998181,-0.7371542758693312,0.6865686945628129,0.10965348864968597,0.0008836720394991086,-0.021298072964650663,2.4451053967567233,-2.560955374916635,2.05587022774132,0.000565944832641066,3.2834062912166,0.06586313404933453,-0.10482630263859646,-0.08743829472228834,-0.18034877046893757,0.027028963077376015,5.494326185426247,0.7649403775376113,-20.820405030670276
-0.7371542758693312,0.6865686945628129,0.10965348864968597,0.0008836720394991086,-0.021298072964650663,2.4451053967567233,-2.560955374916635,2.05587022774132,0.000565944832641066,3.2834062912166,0.06586313404933453,-0.10482630263859646,-0.08743829472228834,-0.18034877046893757,0.0,1.0,0.0,0.009999999999990905,-0.7630466628184944,0.7072722631611034,0.10965465656112708,0.00033790195866007015,-0.020739903855944396,2.4475710577318,-2.606569586064045,2.079371761216763,-0.00015105500680563655,3.3336538053268434,0.06887840423272351,-0.27493618605264386,0.17921895642488808,-0.21129158710685078,-0.054577008083953486,5.0247514110289115,0.3015270183391727,-39.16403575761446
-0.7630466628184944,0.7072722631611034,0.10965465656112708,0.00033790195866007015,-0.020739903855944396,2.4475710577318,-2.606569586064045,2.079371761216763,-0.00015105500680563655,3.3336538053268434,0.06887840423272351,-0.27493618605264386,0.17921895642488808,-0.21129158710685078,0.0,1.0,0.0,0.03000000000002956,-0.8434217142010363,0.7711689809040637,0.10966046209218053,0.0002289502412844172,-0.02124751327399114,2.4550169491349134,-2.7363581443500515,2.192316087335038,-0.0015280300545642278,3.506050030155504,0.03897315724261463,-0.043235171573217435,0.35227421543782145,-0.19200594625933326,-0.0036317239125181868,5.746540827616357,-0.9968415663359805,-13.443251112192888
-0.8434217142010363,0.7711689809040637,0.10966046209218053,0.0002289502412844172,-0.02124751327399114,2.4550169491349134,-2.7363581443500515,2.192316087335038,-0.0015280300545642278,3.506050030155504,0.03897315724261463,-0.043235171573217435,0.35227421543782145,-0.19200594625933326,0.0006267083808779716,1.0,0.0,0.03499999999996817,-0.942067584007618,0.8495532380451812,0.1096626814234867,0.00019301376134614392,-0.020817989937148142,2.460622837869944,-2.89270678638376,2.2926750045510498,-0.0013476231997000682,3.6908710940461424,0.03977179425730193,-0.47877357042008434,-0.015229586176317172,-0.17517554313653438,-0.001026756569665885,5.280601825451615,0.022818200419657837,-10.490899697034331
-0.942067584007618,0.8495532380451812,0.1096626814234867,0.00019301376134614392,-0.020817989937148142,2.460622837869944,-2.89270678638376,2.2926750045510498,-0.0013476231997000682,3.6908710940461424,0.03977179425730193,-0.47877357042008434,-0.015229586176317172,-0.17517554313653438,0.0,1.0,0.0,0.03000000000002956,-1.0310084666786024,0.9197770533117315,0.1096801295678019,0.0007195941804543647,-0.020833897992982294,2.465716019865072,-3.025899805281539,2.3885080920764,-0.0011734652302865661,3.8548889023641157,0.02953113521833961,0.06739445632287457,0.327144100784479,-0.38006852454999923,0.0175526806369234,5.46726027726039,-0.34135530129840763,-18.508135589532884
-1.0310084666786024,0.9197770533117315,0.1096801295678019,0.0007195941804543647,-0.020833897992982294,2.465716019865072,-3.025899805281539,2.3885080920764,-0.0011734652302865661,3.8548889023641157,0.02953113521833961,0.06739445632287457,0.327144100784479,-0.38006852454999923,0.0,1.0,0.0,0.0049999999999954525,-1.0461727790329434,0.9317615410776409,0.10968497484150472,-0.0001814213568510503,-0.02045057396234954,2.4659823597072883,-3.037844247452155,2.4059212491666973,0.001548056215679966,3.8751069127837967,0.02238623383291949,0.3165576770094769,-0.07511004600155527,-0.2066052939064647,-0.1802031074612469,4.043602083939871,-1.428980277085324,-117.3347636913995
-1.0461727790329434,0.9317615410776409,0.10968497484150472,-0.0001814213568510503,-0.02045057396234954,2.4659823597072883,-3.037844247452155,2.4059212491666973,0.001548056215679966,3.8751069127837967,0.02238623383291949,0.3165576770094769,-0.07511004600155527,-0.2066052939064647,0.003555252216756344,1.0,0.0,0.024999999999977263,-1.1234050963379367,0.9932803822376999,0.10969150525024426,3.066709099164179e-05,-0.02075298677835077,2.4674881718715462,-3.1307507772227443,2.5084258706340874,0.0007708795753404024,4.011704136961685,-0.005540309711828728,-0.14110835370316252,0.24999853921033463,0.014701928799019832,0.0084835379137154,5.463888967120485,-1.1170617417909445,-7.676134604304776
-1.1234050963379367,0.9932803822376999,0.10969150525024426,3.066709099164179e-05,-0.02075298677835077,2.4674881718715462,-3.1307507772227443,2.5084258706340874,0.0007708795753404024,4.011704136961685,-0.005540309711828728,-0.14110835370316252,0.24999853921033463,0.014701928799019832,0.0231919102370739,1.0,0.0,0.03500000000002501,-1.2358331272667415,1.0831094625915092,0.1096918670048668,-0.00016514525779350394,-0.020599884191265138,2.467135704401039,-3.269596972562351,2.638091576715506,0.001281834995207995,4.2011238983202155,-0.018695483116209832,-0.12385069513882781,0.09554031026535179,0.07620781965252821,-0.005594638536714452,5.411993181668444,-0.37586209726776293,2.597421384328088
-1.2358331272667415,1.0831094625915092,0.1096918670048668,-0.00016514525779350394,-0.020599884191265138,2.467135704401039,-3.269596972562351,2.638091576715506,0.001281834995207995,4.2011238983202155,-0.018695483116209832,-0.12385069513882781,0.09554031026535179,0.07620781965252821,0.07818687707185745,1.0,0.0,0.029999999999972715,-1.335727557867755,1.1640180960717919,0.1097054894849708,-0.0011856989423301189,-0.02000879060989372,2.464086101308815,-3.3765796873892815,2.7597346469369843,0.0008070989306547816,4.360767922873168,-0.03359805998469234,0.03981799353750873,0.07718713871633415,0.16460785246359225,-0.03401845615125144,5.321467485103263,-0.4967525622832021,8.02718907054465
-1.335727557867755,1.1640180960717919,0.1097054894849708,-0.0011856989423301189,-0.02000879060989372,2.464086101308815,-3.3765796873892815,2.7597346469369843,0.0008070989306547816,4.360767922873168,-0.03359805998469234,0.03981799353750873,0.07718713871633415,0.16460785246359225,0.11844664812088013,1.0,0.0,0.040000000000020464,-1.4734735745501828,1.2776952130591441,0.10973295062580771,3.499459463017518e-05,-0.020459977983150596,2.459673214379817,-3.5297326617175866,2.9006001996376614,0.0015662064301424777,4.568561593401025,-0.027187288114913777,0.2047426957572216,-0.3488092826071976,0.2635049775708967,0.03051733842399174,5.194841763193765,0.16026929674438212,10.702820750856748
-1.4734735745501828,1.2776952130591441,0.10973295062580771,3.499459463017518e-05,-0.020459977983150596,2.459673214379817,-3.5297326617175866,2.9006001996376614,0.0015662064301424777,4.568561593401025,-0.027187288114913777,0.2047426957572216,-0.3488092826071976,0.2635049775708967,0.2726113498210907,1.0,0.0,0.01999999999998181,-1.5447803290122462,1.3365087510196396,0.10974875327590072,-0.0028725460391619845,-0.020401997485748797,2.4539449897446413,-3.5942376013418813,2.99402652096616,-0.0008336898895728168,4.677787667007669,-0.03226895628189874,-0.1934220398445198,-0.27593527965579634,0.45260772038700225,-0.14537703168974023,5.4613036803371635,-0.25408340834947934,35.80563489792751
-1.5447803290122462,1.3365087510196396,0.10974875327590072,-0.0028725460391619845,-0.020401997485748797,2.4539449897446413,-3.5942376013418813,2.99402652096616,-0.0008336898895728168,4.677787667007669,-0.03226895628189874,-0.1934220398445198,-0.27593527965579634,0.45260772038700225,0.4916047751903534,1.0,0.0,0.03000000000002956,-1.6538838608204394,1.4283269373445473,0.10978159807697407,-2.6233533469008396e-05,-0.02012323958191992,2.4485468843679543,-3.689624814691198,3.1228570526995902,-0.0017899422454532576,4.8335831095257715,-0.04518592798431653,-0.23434172946023235,0.1631545510262579,0.21114782214738056,0.09487708352300574,5.193181417264967,-0.4305657234135021,22.125184751124294
-1.6538838608204394,1.4283269373445473,0.10978159807697407,-2.6233533469008396e-05,-0.02012323958191992,2.4485468843679543,-3.689624814691198,3.1228570526995902,-0.0017899422454532576,4.8335831095257715,-0.04518592798431653,-0.23434172946023235,0.1631545510262579,0.21114782214738056,0.4940092861652374,1.0,0.0,0.029999999999972715,-1.7667339026312705,1.5229280989783274,0.10979456514934025,-0.0042979662146442246,-0.01868125557283246,2.4427337991051807,-3.806104321432965,3.197294671560507,0.003550961426477914,4.9708271525315,0.0008614380286786627,-0.022437014221894487,-0.5210268137771972,0.37107429317888735,-0.14239108937263673,4.57480143352845,1.5349122004345692,19.40740384422658
-1.7667339026312705,1.5229280989783274,0.10979456514934025,-0.0042979662146442246,-0.01868125557283246,2.4427337991051807,-3.806104321432965,3.197294671560507,0.003550961426477914,4.9708271525315,0.0008614380286786627,-0.022437014221894487,-0.5210268137771972,0.37107429317888735,0.45230063796043396,1.0,0.0,0.06499999999999773,-2.017576828243776,1.7448324770309422,0.1104141964632934,-0.022932391857169866,-0.019459700185491653,2.406659112255764,-3.8895704389298857,3.631374532840954,0.013292558634087848,5.320550389583322,-0.08592292515877986,-0.45669116052527103,0.1638767663859408,0.862745632262006,-0.28668347142348144,5.380357493105138,-1.33514404903787,18.981845006783637
-2.017576828243776,1.7448324770309422,0.1104141964632934,-0.022932391857169866,-0.019459700185491653,2.406659112255764,-3.8895704389298857,3.631374532840954,0.013292558634087848,5.320550389583322,-0.08592292515877986,-0.45669116052527103,0.1638767663859408,0.862745632262006,0.09193561971187592,1.0,0.0,0.009999999999990905,-2.0564798054078235,1.7813633598262406,0.1105622264485411,-0.02423991321418549,-0.01779075928786631,2.398272551254434,-3.879733469619149,3.6786266398439755,0.014641475485423425,5.3458188417627746,-0.08274455696256044,-0.1858896984239977,0.16790939675346125,0.9373525564227484,-0.13075213570168134,2.52684521794756,0.3178368196222307,180.00981886863914
-2.0564798054078235,1.7813633598262406,0.1105622264485411,-0.02423991321418549,-0.01779075928786631,2.398272551254434,-3.879733469619149,3.6786266398439755,0.014641475485423425,5.3458188417627746,-0.08274455696256044,-0.1858896984239977,0.16790939675346125,0.9373525564227484,0.025164823979139328,1.0,0.0,0.03000000000002956,-2.1734893059848712,1.8952253725379273,0.110986270298253,-0.028323521538493553,-0.019807296328889924,2.3739583243652786,-3.912501634980899,3.9164768881418746,0.003588560100580049,5.535000455281862,-0.10114454561297714,-0.2796251019811339,-0.1559544393632946,0.7257132361033919,-0.13612027747680128,6.306053783963373,-0.6133329550132857,55.43552641748339
-2.1734893059848712,1.8952253725379273,0.110986270298253,-0.028323521538493553,-0.019807296328889924,2.3739583243652786,-3.912501634980899,3.9164768881418746,0.003588560100580049,5.535000455281862,-0.10114454561297714,-0.2796251019811339,-0.1559544393632946,0.7257132361033919,0.01141608040779829,1.0,0.0,0.040000000000020464,-2.3302588695761743,2.056794540440706,0.11105364685921779,-0.018376587406195445,-0.020324811422846346,2.35284721276536,-3.950796664028201,4.158047818319065,-0.006020309255375014,5.734277337696261,-0.1273552288183759,0.6037562038165358,-0.2399326315180794,0.3432100494996992,0.24867335330732546,4.981922060357418,-0.655267080134634,26.723082140063603
-2.3302588695761743,2.056794540440706,0.11105364685921779,-0.018376587406195445,-0.020324811422846346,2.35284721276536,-3.950796664028201,4.158047818319065,-0.006020309255375014,5.734277337696261,-0.1273552288183759,0.6037562038165358,-0.2399326315180794,0.3432100494996992,0.0,1.0,0.0,0.029999999999972715,-2.450138074944485,2.1837928688654036,0.11054586693167803,0.0006084320870701132,-0.020699707378411727,2.350486288844643,-4.041147147335387,4.298287270449092,-0.02560489879510107,5.897812448879195,-0.14816222044513294,0.3955587481915523,0.6144125748414321,-0.12213218490147923,0.6328339831094275,5.451170372769438,-0.6935663875591985,7.369262153280701
-2.450138074944485,2.1837928688654036,0.11054586693167803,0.0006084320870701132,-0.020699707378411727,2.350486288844643,-4.041147147335387,4.298287270449092,-0.02560489879510107,5.897812448879195,-0.14816222044513294,0.3955587481915523,0.6144125748414321,-0.12213218490147923,0.0,1.0,0.0,0.060000000000002274,-2.7040631898031613,2.443028985140452,0.1100974544482575,0.007264765013561681,-0.021543906894373667,2.3514994282224553,-4.400157805705227,4.377495543743655,-0.0019247080617771084,6.206594560579951,0.04516537593733405,-0.5645808356908417,0.2705234332977142,0.217902122261317,0.11093888210818859,5.146368528345739,3.222126606374328,1.5961656226639023
-2.7040631898031613,2.443028985140452,0.1100974544482575,0.007264765013561681,-0.021543906894373667,2.3514994282224553,-4.400157805705227,4.377495543743655,-0.0019247080617771084,6.206594560579951,0.04516537593733405,-0.5645808356908417,0.2705234332977142,0.217902122261317,0.0,1.0,0.0,0.014999999999986358,-2.7706002084683217,2.508914684623716,0.1100705678921588,-0.0008749560762993325,-0.02131463846358458,2.348430546933676,-4.458723769897911,4.415566194198505,-0.00617046401359686,6.27464455588012,0.07923489739549261,-0.4821566366617755,-0.13972087904465771,0.33845952228484627,-0.5426480726578944,4.53666635334871,2.27130143054597,37.090776303111284
-2.7706002084683217,2.508914684623716,0.1100705678921588,-0.0008749560762993325,-0.02131463846358458,2.348430546933676,-4.458723769897911,4.415566194198505,-0.00617046401359686,6.27464455588012,0.07923489739549261,-0.4821566366617755,-0.13972087904465771,0.33845952228484627,0.0,1.0,0.0,0.03000000000002956,-2.9047716105910517,2.6444422053560337,0.11008363776386196,-0.008699859940739407,-0.02205963709091954,2.3415176866303766,-4.486146677973157,4.607322835844383,0.013474207003645933,6.430618955000549,0.008693996225715761,-0.056846723932599215,-0.21619653930258867,0.07578798805086943,-0.26083012881441214,5.199146637342503,-2.3513633723235783,13.808250344510252
-2.9047716105910517,2.6444422053560337,0.11008363776386196,-0.008699859940739407,-0.02205963709091954,2.3415176866303766,-4.486146677973157,4.607322835844383,0.013474207003645933,6.430618955000549,0.008693996225715761,-0.056846723932599215,-0.21619653930258867,0.07578798805086943,0.0025996221229434013,1.0,0.0,0.029999999999972715,-3.0405220480778565,2.785243424471664,0.11026791088114082,-0.004432271899014281,-0.021330962890230575,2.340035689446916,-4.559915702045476,4.7783931093459975,-0.0006993316981885878,6.60481564987033,-0.047771837249249494,0.313118329151564,0.4138180643427384,-0.17760148352052058,0.14225293472430026,5.8065564956646645,-1.8821944491672202,-3.3937831823247913
-3.0405220480778565,2.785243424471664,0.11026791088114082,-0.004432271899014281,-0.021330962890230575,2.340035689446916,-4.559915702045476,4.7783931093459975,-0.0006993316981885878,6.60481564987033,-0.047771837249249494,0.313118329151564,0.4138180643427384,-0.17760148352052058,-0.04853152111172676,1.0,0.0,0.03500000000002501,-3.202828995274597,2.953805820362455,0.11032853316754163,0.008718025591046268,-0.02329122248524138,2.347394572776994,-4.749560914563964,4.843940957362445,0.0107323265214945,6.783954843897186,-0.007039568948821184,0.356594467448009,-0.3508677072756247,0.05857155504639208,0.3757227854300329,5.118262686477944,1.16377909429712,-3.4008550992583837
-3.202828995274597,2.953805820362455,0.11032853316754163,0.008718025591046268,-0.02329122248524138,2.347394572776994,-4.749560914563964,4.843940957362445,0.0107323265214945,6.783954843897186,-0.007039568948821184,0.356594467448009,-0.3508677072756247,0.05857155504639208,-0.4510059356689453,1.0,0.0,0.03999999999996362,-3.396616209605831,3.1494204752445136,0.11023429973755458,0.0001710789877211886,-0.01879852278339847,2.343986479563388,-4.916186795810733,4.950279023647829,-0.002690956844236647,6.976419299095495,0.06106379024770714,0.15614955969404654,-0.09758923805650481,0.021361973173109963,-0.2136736650833213,4.81161137996209,1.7025839799147566,1.9983382054893686
-3.396616209605831,3.1494204752445136,0.11023429973755458,0.0001710789877211886,-0.01879852278339847,2.343986479563388,-4.916186795810733,4.950279023647829,-0.002690956844236647,6.976419299095495,0.06106379024770714,0.15614955969404654,-0.09758923805650481,0.021361973173109963,-0.4599456787109375,1.0,0.0,0.045000000000015916,-3.6210417605456033,3.377037262242707,0.11015866738487604,0.0003177211923622212,-0.021374298885104448,2.3476430215745445,-5.086226932450768,5.127357076411201,-0.0006411067677250804,7.222079150001485,0.03267642155136974,-0.4857960292248163,0.007508554871561844,-0.5352243911610165,0.0032587156586884602,5.459107797908957,-0.6308304154739414,-11.419164844171663
-3.6210417605456033,3.377037262242707,0.11015866738487604,0.0003177211923622212,-0.021374298885104448,2.3476430215745445,-5.086226932450768,5.127357076411201,-0.0006411067677250804,7.222079150001485,0.03267642155136974,-0.4857960292248163,0.007508554871561844,-0.5352243911610165,-0.44739919900894165,1.0,0.0,0.060000000000002274,-3.9349809479708426,3.6884928751382655,0.11071343888103788,0.027503893167257848,-0.02169832651353002,2.3834794177750154,-5.4388956988645205,5.199746053667602,0.028765016198756682,7.524469141131607,-0.036188256616862535,-0.06415462847283374,0.44800747674426705,-0.6734350094629064,0.4531028662482433,5.039833185501839,-1.147744636137161,-20.144323343731283
-3.9349809479708426,3.6884928751382655,0.11071343888103788,0.027503893167257848,-0.02169832651353002,2.3834794177750154,-5.4388956988645205,5.199746053667602,0.028765016198756682,7.524469141131607,-0.036188256616862535,-0.06415462847283374,0.44800747674426705,-0.6734350094629064,-0.011847655288875103,1.0,0.0,0.0049999999999954525,-3.9622378439538366,3.714507560155152,0.11086271854142773,0.029979067643735126,-0.020768892641359817,2.3871814377179295,-5.47468428060488,5.196757674896803,0.02392483759434752,7.5483152316171145,-0.03735596388875173,0.1966203341103605,1.1750012971990427,-0.9679026066575976,0.49503489529590583,4.769218097105895,-0.23354145437805154,-328.2675232243994
-3.9622378439538366,3.714507560155152,0.11086271854142773,0.029979067643735126,-0.020768892641359817,2.3871814377179295,-5.47468428060488,5.196757674896803,0.02392483759434752,7.5483152316171145,-0.03735596388875173,0.1966203341103605,1.1750012971990427,-0.9679026066575976,-0.013666435144841671,1.0,0.0,0.06499999999999773,-4.334697234856768,4.050873909719222,0.1114529900978106,0.024774481776593044,-0.015167775764904533,2.4159426849508185,-5.951637964642815,5.169176908175082,-0.004916869099904214,7.882609880384457,0.08273961477735048,-0.7834327168503974,-0.0781966529860108,-0.3010105814094888,-0.08007055180218867,5.142994596420839,1.847624287170868,-19.521741354878934
-4.334697234856768,4.050873909719222,0.1114529900978106,0.024774481776593044,-0.015167775764904533,2.4159426849508185,-5.951637964642815,5.169176908175082,-0.004916869099904214,7.882609880384457,0.08273961477735048,-0.7834327168503974,-0.0781966529860108,-0.3010105814094888,-0.00916572567075491,0.028278328478336334,0.0,0.040000000000020464,-4.576153976740452,4.258420991587025,0.11079853893399036,0.0017188426900203518,-0.008974996554904371,2.42109733561692,-6.0873607158812355,5.209111667114983,-0.026268279467024994,8.011271687811526,0.10164049290017818,-1.0761119928553093,-0.3122221366422999,0.3970711368441728,-0.5763909771640224,3.216545185675066,0.4725219530704508,2.4015138858658713
-4.576153976740452,4.258420991587025,0.11079853893399036,0.0017188426900203518,-0.008974996554904371,2.42109733561692,-6.0873607158812355,5.209111667114983,-0.026268279467024994,8.011271687811526,0.10164049290017818,-1.0761119928553093,-0.3122221366422999,0.3970711368441728,-0.0127416318282485,-0.0,0.0,0.040000000000020464,-4.816744799410807,4.4678148683171655,0.11040478057688058,-0.011264953116811905,0.007629136081055558,2.4159739974668146,-5.938245641568907,5.2639042095645845,0.012578113033009035,7.935454701076766,0.0027412118720073764,-0.058708322930703605,-0.18609743239224608,0.29798643497063226,-0.32459489517064033,-1.8954246683680138,-2.4724820257030053,17.376439295361237
-4.816744799410807,4.4678148683171655,0.11040478057688058,-0.011264953116811905,0.007629136081055558,2.4159739974668146,-5.938245641568907,5.2639042095645845,0.012578113033009035,7.935454701076766,0.0027412118720073764,-0.058708322930703605,-0.18609743239224608,0.29798643497063226,-0.0127416318282485,-0.0025996221229434013,0.0025996221229434013,0.0049999999999954525,-4.846419022069255,4.4941592673596,0.11047803102292461,-0.010955589392279162,0.009868657970911777,2.415099473953079,-5.933997620584185,5.2726239833052455,0.010279602538398824,7.938065968111021,0.00034108957463185874,-0.2813505978926308,0.5294786891056665,0.1853874802686772,0.06187274490660484,0.5222534068513116,-0.4800244594755401,96.67478304794983
-4.846419022069255,4.4941592673596,0.11047803102292461,-0.010955589392279162,0.009868657970911777,2.415099473953079,-5.933997620584185,5.2726239833052455,0.010279602538398824,7.938065968111021,0.00034108957463185874,-0.2813505978926308,0.5294786891056665,0.1853874802686772,-0.0127416318282485,-0.006113874725997448,0.006113874725997448,0.029999999999972715,-5.02332326156408,4.651789123936598,0.1105921114991201,-0.001500700292794999,0.013853137627416521,2.4177878282323,-5.871223956397582,5.249170006152494,-0.004099669035313752,7.875470259274964,-0.04499661035424829,-0.0063285321660816575,0.31694117355917956,0.06860380665087026,0.31516296998309207,-2.086523627870447,-1.5112566642973795,8.466376230659282
-5.02332326156408,4.651789123936598,0.1105921114991201,-0.001500700292794999,0.013853137627416521,2.4177878282323,-5.871223956397582,5.249170006152494,-0.004099669035313752,7.875470259274964,-0.04499661035424829,-0.0063285321660816575,0.31694117355917956,0.06860380665087026,-0.0127416318282485,-0.004325921647250652,0.004325921647250652,0.03500000000002501,-5.2283643096551335,4.834454715952503,0.11058583632563398,0.0018731325084981058,0.016929064545188353,2.4207171736757274,-5.830469478232159,5.203054552693329,0.004819858174648667,7.814250582880584,-0.0603228219664671,0.3116356279067783,0.11782355851799137,-0.11538074894827925,0.09639522289401983,-1.7491336112667493,-0.43789176034879596,-1.3364840656393018
-5.2283643096551335,4.834454715952503,0.11058583632563398,0.0018731325084981058,0.016929064545188353,2.4207171736757274,-5.830469478232159,5.203054552693329,0.004819858174648667,7.814250582880584,-0.0603228219664671,0.3116356279067783,0.11782355851799137,-0.11538074894827925,-0.0127416318282485,-0.0069770244881510735,0.0069770244881510735,0.03499999999996817,-5.432156703083532,5.014825723354298,0.11042692906415064,-0.00451997144942261,0.01620450678116123,2.411179280395195,-5.785874975901034,5.159021829562281,0.006739550803591204,7.751874460087277,0.01725774332085006,0.12191050395433413,-0.27148512666821084,0.3017449500089787,-0.18266011308361516,-1.782174936953264,2.2165875796396493,5.32469145888197
-5.432156703083532,5.014825723354298,0.11042692906415064,-0.00451997144942261,0.01620450678116123,2.411179280395195,-5.785874975901034,5.159021829562281,0.006739550803591204,7.751874460087277,0.01725774332085006,0.12191050395433413,-0.27148512666821084,0.3017449500089787,-0.0127416318282485,-0.0069770244881510735,0.0069770244881510735,0.06999999999999318,-5.831639536502067,5.374836219929847,0.10995907278143899,-0.000793173120283843,0.017455169165662192,2.408108288481918,-5.640834667504076,5.117127524534841,-0.006238627730133978,7.61599560936783,-0.024914384556723235,0.42922238846692135,0.42019333994660807,0.13970781589109624,0.053239976130558996,-1.9411264388494296,-0.6024589696796773,6.3064680842874
-5.831639536502067,5.374836219929847,0.10995907278143899,-0.000793173120283843,0.017455169165662192,2.408108288481918,-5.640834667504076,5.117127524534841,-0.006238627730133978,7.61599560936783,-0.024914384556723235,0.42922238846692135,0.42019333994660807,0.13970781589109624,-0.0127416318282485,-0.0069770244881510735,0.0069770244881510735,0.0049999999999954525,-5.859823492038111,5.400389620299044,0.10993555548107736,0.0016083787526824168,0.017432853085148626,2.4084523067125723,-5.640122224940727,5.0993308049319,-0.00019457056101182535,7.603547508817656,-0.014786870884899272,0.14536574722560355,-0.003934540395361974,-0.1734054335175821,0.48031037459368875,-2.4896201100369715,2.0255027343666345,-6.739523525303305
-5.859823492038111,5.400389620299044,0.10993555548107736,0.0016083787526824168,0.017432853085148626,2.4084523067125723,-5.640122224940727,5.0993308049319,-0.00019457056101182535,7.603547508817656,-0.014786870884899272,0.14536574722560355,-0.003934540395361974,-0.1734054335175821,-0.0127416318282485,-0.003462771885097027,0.003462771885097027,0.03500000000002501,-6.056250630746223,5.578237526525799,0.11007502171836117,-0.008263699540086097,0.017637021962680573,2.3994192123136533,-5.557885501533514,5.087795730935996,0.014617633821165765,7.53496583991053,0.00681463633534829,0.1388828360601363,-0.5531794061213137,0.168785104301869,-0.2820593797931846,-1.9594762544879178,0.6171859205780608,-0.13200940616313767
-6.056250630746223,5.578237526525799,0.11007502171836117,-0.008263699540086097,0.017637021962680573,2.3994192123136533,-5.557885501533514,5.087795730935996,0.014617633821165765,7.53496583991053,0.00681463633534829,0.1388828360601363,-0.5531794061213137,0.168785104301869,-0.0127416318282485,-0.003462771885097027,0.003462771885097027,0.024999999999977263,-6.1942928660471015,5.705751588085886,0.11024350980917735,-0.0027671475650274317,0.01882252545926983,2.3987489252214518,-5.486903563850982,5.098828828058651,0.013385317261395552,7.490140592749311,-0.044272312923120616,0.2518612090716377,-0.19407698308276078,0.15918552279719309,0.21986207900254653,-1.7930098864503883,-2.0434779703406147,13.118825083974416
-6.1942928660471015,5.705751588085886,0.11024350980917735,-0.0027671475650274317,0.01882252545926983,2.3987489252214518,-5.486903563850982,5.098828828058651,0.013385317261395552,7.490140592749311,-0.044272312923120616,0.2518612090716377,-0.19407698308276078,0.15918552279719309,-0.0127416318282485,-0.003462771885097027,0.003462771885097027,0.0049999999999954525,-6.221733280588588,5.731196311867285,0.11027998079426402,0.0008596854288658552,0.01670299501512212,2.400272381390253,-5.487852836884963,5.087966168098908,0.008624480288841996,7.483429471656484,-0.047030094286397706,0.7814615613229972,0.21433339318888436,-0.33544682177106233,0.7253665987793171,-1.3422242185667117,-0.5515562726559196,-35.25225979480591
-6.221733280588588,5.731196311867285,0.11027998079426402,0.0008596854288658552,0.01670299501512212,2.400272381390253,-5.487852836884963,5.087966168098908,0.008624480288841996,7.483429471656484,-0.047030094286397706,0.7814615613229972,0.21433339318888436,-0.33544682177106233,-0.0127416318282485,-0.003462771885097027,0.003462771885097027,0.020000000000038654,-6.331604061261915,5.8322579800515655,0.11026163388286295,0.002299839274414622,0.017276019879806672,2.402454701450275,-5.502149634558555,5.02579105722714,-0.012479842827882878,7.451990729245639,-0.007779666714003763,0.288456690833846,1.3134308864673763,0.20459704954270813,0.07200769227729917,-1.5719371205391837,1.9625213786159041,-6.542488611405066
-6.331604061261915,5.8322579800515655,0.11026163388286295,0.002299839274414622,0.017276019879806672,2.402454701450275,-5.502149634558555,5.02579105722714,-0.012479842827882878,7.451990729245639,-0.007779666714003763,0.288456690833846,1.3134308864673763,0.20459704954270813,-0.0127416318282485,-0.003462771885097027,0.003462771885097027,0.06999999999999318,-6.71358901991851,6.18012928150238,0.11027406771211798,0.002302050661555372,0.01730622103487778,2.392350096848703,-5.404505905614687,4.935993197206094,-0.0027895822025241906,7.31903376608553,0.06676569170403601,0.17521641991421164,0.7077478559113208,-0.16789712097368553,3.159124486786365e-05,-1.8993851880017434,1.0649336916863863,0.5242846938432311
-6.71358901991851,6.18012928150238,0.11027406771211798,0.002302050661555372,0.01730622103487778,2.392350096848703,-5.404505905614687,4.935993197206094,-0.0027895822025241906,7.31903376608553,0.06676569170403601,0.17521641991421164,0.7077478559113208,-0.16789712097368553,-0.0127416318282485,-0.014036356471478939,0.014036356471478939,0.03499999999996817,-6.901120568339573,6.35287291253776,0.11017625285493024,-0.0009756864082900599,0.01774612122730821,2.3949344636810497,-5.32397632151692,4.941065303608433,-0.008295002365805604,7.263521084237366,-0.01056718671995549,-0.005623097205006597,0.5508472044932459,-0.31964780292119654,-0.0936496305670975,-1.5860766242346978,-2.2095108121160525,-13.929854968437871
-6.901120568339573,6.35287291253776,0.11017625285493024,-0.0009756864082900599,0.01774612122730821,2.3949344636810497,-5.32397632151692,4.941065303608433,-0.008295002365805604,7.263521084237366,-0.01056718671995549,-0.005623097205006597,0.5508472044932459,-0.31964780292119654,-0.011847655288875103,-0.8538194298744202,0.8538194298744202,0.03000000000002956,-7.059547275483078,6.499867116432796,0.11018120677507787,0.003467015859017742,0.0280524319240303,2.3970334552101447,-5.238217842601837,4.83107430845398,0.005385272488817289,7.125882113154228,-0.003041345915294258,0.15582883265751685,0.42883120605557573,0.10909262296639646,0.1480900755767808,-4.5879657027667555,0.2508613601551272,-7.018505998486421
-7.059547275483078,6.499867116432796,0.11018120677507787,0.003467015859017742,0.0280524319240303,2.3970334552101447,-5.238217842601837,4.83107430845398,0.005385272488817289,7.125882113154228,-0.003041345915294258,0.15582883265751685,0.42883120605557573,0.10909262296639646,-0.01009052898734808,-1.0,1.0,0.009999999999990905,-7.111691990444269,6.548020140697075,0.11024579317815794,-0.0030126100226696225,0.031538312663096466,2.394719071687563,-5.1852497324799085,4.803732684674555,-0.006526885682878264,7.0684267270876475,-0.002469369672702282,-1.1060907437101033,0.30008510172020453,0.12493663891953519,-0.6479625881693258,-5.745538606663277,0.05719762425924963,23.40292618861445
-7.111691990444269,6.548020140697075,0.11024579317815794,-0.0030126100226696225,0.031538312663096466,2.394719071687563,-5.1852497324799085,4.803732684674555,-0.006526885682878264,7.0684267270876475,-0.002469369672702282,-1.1060907437101033,0.30008510172020453,0.12493663891953519,-0.008271749131381512,-1.0,1.0,0.024999999999977263,-7.239514782091705,6.6663683843741985,0.11044479989971515,-0.0016598319535519107,0.03788600010176041,2.3899532253685196,-5.047680909698612,4.682628035435652,0.0015261133222277956,6.885159730752674,0.025755900402232523,-0.7981556748245944,0.49756428865143004,0.06967339419453951,0.054111122764757685,-7.330679853405601,1.129010802998419,7.7844013245700685
-7.239514782091705,6.6663683843741985,0.11044479989971515,-0.0016598319535519107,0.03788600010176041,2.3899532253685196,-5.047680909698612,4.682628035435652,0.0015261133222277956,6.885159730752674,0.025755900402232523,-0.7981556748245944,0.49756428865143004,0.06967339419453951,-0.010984505526721478,-1.0,1.0,0.040000000000020464,-7.437690261552417,6.850115928947253,0.11077522962965844,-0.001326388176470371,0.043004061431690194,2.389198446273261,-4.863177247756188,4.500422954844353,-0.0035373642686704065,6.625923669076103,0.03788465600351554,-1.0501074298373998,-0.45303294554058654,0.06387452552715636,0.008336094427034226,-6.480901541910959,0.30321889003192026,3.338697993040689
-7.437690261552417,6.850115928947253,0.11077522962965844,-0.001326388176470371,0.043004061431690194,2.389198446273261,-4.863177247756188,4.500422954844353,-0.0035373642686704065,6.625923669076103,0.03788465600351554,-1.0501074298373998,-0.45303294554058654,0.06387452552715636,-0.00916572567075491,-1.0,1.0,0.045000000000015916,-7.650996708006727,7.048204288167283,0.11065534341035868,-1.8376737942340008e-05,0.042299309156962936,2.3795040427677883,-4.633150908240997,4.307280315943371,-0.012477113000777085,6.325492808409339,0.08301680197001948,-0.5476755614704799,0.12171302566313187,0.09215780586705771,0.029066920856168188,-6.676241348147951,1.0029365770330663,3.4673851420924198
-7.650996708006727,7.048204288167283,0.11065534341035868,-1.8376737942340008e-05,0.042299309156962936,2.3795040427677883,-4.633150908240997,4.307280315943371,-0.012477113000777085,6.325492808409339,0.08301680197001948,-0.5476755614704799,0.12171302566313187,0.09215780586705771,-0.013666435144841671,-1.0,1.0,0.06499999999999773,-7.94137026302901,7.318448223223818,0.11020277551092947,-0.00026495547294740746,0.04308553161016633,2.3705883082426307,-4.303367645373717,4.020794954547211,-0.007938560120220262,5.888338004600431,0.11506824644460734,-0.11489041757564952,-0.12539159330291874,0.13411153445390933,-0.0037935190000780933,-6.7254585201372805,0.4930991457629073,3.4810667741688457
-7.94137026302901,7.318448223223818,0.11020277551092947,-0.00026495547294740746,0.04308553161016633,2.3705883082426307,-4.303367645373717,4.020794954547211,-0.007938560120220262,5.888338004600431,0.11506824644460734,-0.11489041757564952,-0.12539159330291874,0.13411153445390933,-0.013666435144841671,-1.0,1.0,0.0049999999999954525,-7.962811658414878,7.338476350589959,0.11017383263128164,0.0003043052996709587,0.0436097479034759,2.3690753269225984,-4.279530809373364,3.996641491485766,-0.0037881022523396646,5.854228602007861,0.12463801697115606,-0.08948285123218112,-0.34179629449611915,0.32279406239569614,0.1138521545237768,-6.821880518520183,1.9139541053114861,91.3811193700042
-7.962811658414878,7.338476350589959,0.11017383263128164,0.0003043052996709587,0.0436097479034759,2.3690753269225984,-4.279530809373364,3.996641491485766,-0.0037881022523396646,5.854228602007861,0.12463801697115606,-0.08948285123218112,-0.34179629449611915,0.32279406239569614,-0.013666435144841671,-1.0,1.0,0.029999999999972715,-8.088683106891168,7.456933197743066,0.11007247007052681,-3.6196502949363777e-06,0.043233694332223516,2.361891477208623,-4.125568417770068,3.886494576563362,-0.0074528405204662695,5.666255212571924,0.13677254607465805,-0.6139451997702574,0.6064005067301614,-0.11662874027465525,-0.010264164998872507,-6.265779647870272,0.4044843034504342,6.872177404040946
-8.088683106891168,7.456933197743066,0.11007247007052681,-3.6196502949363777e-06,0.043233694332223516,2.361891477208623,-4.125568417770068,3.886494576563362,-0.0074528405204662695,5.666255212571924,0.13677254607465805,-0.6139451997702574,0.6064005067301614,-0.11662874027465525,-0.013666435144841671,-1.0,1.0,0.03000000000002956,-8.209743603701856,7.57191848822011,0.11011567998555374,0.0003706632100901936,0.0442089494753766,2.357688858139388,-3.958172279890322,3.7631696918436734,0.010212985607171904,5.460013226634251,0.12972853148786223,0.3031652121981326,-0.2823662208321287,0.07367850519918635,0.012476095346158707,-6.874732864582333,-0.23480048622629604,-1.4316745025142192
-8.209743603701856,7.57191848822011,0.11011567998555374,0.0003706632100901936,0.0442089494753766,2.357688858139388,-3.958172279890322,3.7631696918436734,0.010212985607171904,5.460013226634251,0.12972853148786223,0.3031652121981326,-0.2823662208321287,0.07367850519918635,-0.008703324012458324,-1.0,1.0,0.03499999999996817,-8.345586755127398,7.7007918689748065,0.11020386159085993,-0.000282942007172242,0.04480187213503185,2.3633995342161493,-3.787726069755224,3.600663197129516,0.003793682098400447,5.2251975751229605,0.09462842910798708,-0.03330818886833452,-0.20103568769471467,-0.006805118191301515,-0.018674434778943715,-6.709018614614401,-1.002860067997345,1.9106682002270188
-8.345586755127398,7.7007918689748065,0.11020386159085993,-0.000282942007172242,0.04480187213503185,2.3633995342161493,-3.787726069755224,3.600663197129516,0.003793682098400447,5.2251975751229605,0.09462842910798708,-0.03330818886833452,-0.20103568769471467,-0.006805118191301515,-0.01009052898734808,-1.0,1.0,0.025000000000034106,-8.438930778498575,7.789457045097186,0.11023165004990845,-0.002089243132536454,0.04364085819490707,2.365527972411369,-3.671975194801967,3.4988998348366316,-0.0007937788674137469,5.071495744109127,0.07505200159735326,-0.007634939998243417,0.2099299060951872,0.17071741666918885,-0.07225204501446993,-6.148073240544957,-0.7830571004242846,6.556491939106549
-8.438930778498575,7.789457045097186,0.11023165004990845,-0.002089243132536454,0.04364085819490707,2.365527972411369,-3.671975194801967,3.4988998348366316,-0.0007937788674137469,5.071495744109127,0.07505200159735326,-0.007634939998243417,0.2099299060951872,0.17071741666918885,-0.013666435144841671,-1.0,1.0,0.014999999999986358,-8.493398201576602,7.841359671890411,0.11023412598919188,0.0004455128360582543,0.043798301973370195,2.3671506102247157,-3.596228130002423,3.4260726919078457,0.0001871118286998208,4.966536704689383,0.06590913616884375,-0.015446911905416874,-0.26100403423625024,-0.11850927905017485,0.16898373123980093,-6.99726929465596,-0.6095243619011881,3.480542507937433
-8.493398201576602,7.841359671890411,0.11023412598919188,0.0004455128360582543,0.043798301973370195,2.3671506102247157,-3.596228130002423,3.4260726919078457,0.0001871118286998208,4.966536704689383,0.06590913616884375,-0.015446911905416874,-0.26100403423625024,-0.11850927905017485,-0.0127416318282485,-1.0,1.0,0.03500000000002501,-8.616093900000582,7.958280552619179,0.11018546760002729,-0.00048359960454234953,0.043523931375575885,2.3682047037514096,-3.4227369318846526,3.2665435662323055,0.0028402968501343995,4.731020903849609,0.0536300505206877,0.4413278319153369,-0.48456842544017037,-0.006382089056998561,-0.026546069731426855,-6.729022881131578,-0.35083101851849363,-3.5683248030595474
-8.616093900000582,7.958280552619179,0.11018546760002729,-0.00048359960454234953,0.043523931375575885,2.3682047037514096,-3.4227369318846526,3.2665435662323055,0.0028402968501343995,4.731020903849609,0.0536300505206877,0.4413278319153369,-0.48456842544017037,-0.006382089056998561,-0.010984505526721478,-1.0,1.0,0.029999999999972715,-8.716151708478945,8.054323123813367,0.11011169208682017,-0.00020111329800223877,0.04404301002608142,2.3695594101462634,-3.2566162654178075,3.140748944440051,-0.005053504398216696,4.524311283535474,0.021467227550615142,-0.10805503370872789,0.44079743166874463,-0.14358434273802304,0.009416210218012255,-6.890320677144107,-1.0720940990033936,-4.9988810598386
-8.716151708478945,8.054323123813367,0.11011169208682017,-0.00020111329800223877,0.04404301002608142,2.3695594101462634,-3.2566162654178075,3.140748944440051,-0.005053504398216696,4.524311283535474,0.021467227550615142,-0.10805503370872789,0.44079743166874463,-0.14358434273802304,-0.01141608040779829,-1.0,1.0,0.03000000000002956,-8.811787322685888,8.146409811522258,0.11003712004071067,0.0007229489591222415,0.04370171540880566,2.370005767477659,-3.119511563839201,2.9964852763031806,-0.00046486023698949497,4.325451820644693,0.027257206565553638,0.09350215341750452,0.2448841315835659,-0.038676764927829684,0.03080207523745233,-6.628648763019515,0.19299930049775968,-6.075370255522437
-8.811787322685888,8.146409811522258,0.11003712004071067,0.0007229489591222415,0.04370171540880566,2.370005767477659,-3.119511563839201,2.9964852763031806,-0.00046486023698949497,4.325451820644693,0.027257206565553638,0.09350215341750452,0.2448841315835659,-0.038676764927829684,-0.01009052898734808,-1.0,1.0,0.01999999999998181,-8.87337555729035,8.205443219059088,0.11001032390825274,-0.00024769130759240085,0.04310001204942142,2.3678757580495633,-3.0323882146830416,2.90721602645925,-0.0043510895134277194,4.200681781677593,0.039444621079087305,-0.07196589740570486,0.3369363141075824,0.1157039236545167,-0.04853201333577626,-6.238501948360653,0.6093707256772376,3.851357936337854
-8.87337555729035,8.205443219059088,0.11001032390825274,-0.00024769130759240085,0.04310001204942142,2.3678757580495633,-3.0323882146830416,2.90721602645925,-0.0043510895134277194,4.200681781677593,0.039444621079087305,-0.07196589740570486,0.3369363141075824,0.1157039236545167,-0.007377772592008114,-1.0,1.0,0.03500000000002501,-8.97595804766272,8.305058239692032,0.1099509909905951,0.00020871300185071532,0.042377468862309246,2.3649367308754994,-2.8456606110068954,2.7783081849802165,0.0010290901735585112,3.977010855875199,0.012858305293306005,0.35495015363906085,-0.33582127282748614,-0.0010848193121458186,0.01304012312693686,-6.3905978800638366,-0.7596090224503514,3.2748315526368277
-8.97595804766272,8.305058239692032,0.1099509909905951,0.00020871300185071532,0.042377468862309246,2.3649367308754994,-2.8456606110068954,2.7783081849802165,0.0010290901735585112,3.977010855875199,0.012858305293306005,0.35495015363906085,-0.33582127282748614,-0.0010848193121458186,-0.0127416318282485,-1.0,1.0,0.024999999999977263,-9.045617988562945,8.373006679571397,0.10993606791401583,-0.0004945304758249984,0.042449220512230594,2.3647203540682904,-2.73199818220081,2.6691501515817784,0.0011330188604433966,3.8194286918559186,0.011877165711866144,0.22720780118678,-0.013187575767328794,-0.0018163746477530681,-0.028129739107054134,-6.303286560776953,-0.03924558325763011,-0.11604775839606102
-9.045617988562945,8.373006679571397,0.10993606791401583,-0.0004945304758249984,0.042449220512230594,2.3647203540682904,-2.73199818220081,2.6691501515817784,0.0011330188604433966,3.8194286918559186,0.011877165711866144,0.22720780118678,-0.013187575767328794,-0.0018163746477530681,-0.01009052898734808,-1.0,1.0,0.03499999999996817,-9.138086319132906,8.463898029618182,0.10994096015295043,0.0004717473527329488,0.04234606487021456,2.367244054713856,-2.564599531547386,2.5168398149855493,0.0025986733452583732,3.593274024837349,-0.005932447956990439,0.3275066707252633,-0.16632576923978995,-0.10489885727934747,0.027607937958823603,-6.461561914822147,-0.5088461048249366,-3.04900662649136
-9.138086319132906,8.463898029618182,0.10994096015295043,0.0004717473527329488,0.04234606487021456,2.367244054713856,-2.564599531547386,2.5168398149855493,0.0025986733452583732,3.593274024837349,-0.005932447956990439,0.3275066707252633,-0.16632576923978995,-0.10489885727934747,-0.011847655288875103,-1.0,1.0,0.03500000000002501,-9.225323178729305,8.54886663642204,0.10993356592417014,-0.00017925479378878064,0.0423225716971834,2.3682314346592785,-2.4103368235521563,2.358368708717458,-0.0025730921660140904,3.3721820532289697,-0.0038430599263599152,-0.27143105210827734,0.3014266421294281,0.006052135564927759,-0.018600061329178977,-6.3169134745206135,0.059696800875115155,-2.824192048981402
-9.225323178729305,8.54886663642204,0.10993356592417014,-0.00017925479378878064,0.0423225716971834,2.3682314346592785,-2.4103368235521563,2.358368708717458,-0.0025730921660140904,3.3721820532289697,-0.0038430599263599152,-0.27143105210827734,0.3014266421294281,0.006052135564927759,-0.013358167372643948,-0.9004911780357361,0.9004911780357361,0.05000000000001137,-9.340282703209148,8.661153552732026,0.10990145370228324,-2.8832442382697046e-06,0.04112337859602656,2.3680576182822564,-2.1926022384623525,2.1404624191289923,-0.0005806927206154222,3.064161169829151,0.0005187724975346253,0.10238796907375634,-0.09806382788023124,-0.10009302438119615,0.0035274309910094167,-6.160417667994971,0.08723664847787098,-1.88081777632494
-9.340282703209148,8.661153552732026,0.10990145370228324,-2.8832442382697046e-06,0.04112337859602656,2.3680576182822564,-2.1926022384623525,2.1404624191289923,-0.0005806927206154222,3.064161169829151,0.0005187724975346253,0.10238796907375634,-0.09806382788023124,-0.10009302438119615,-0.012371710501611233,-0.24200037121772766,0.24200037121772766,0.0049999999999954525,-9.351178054387713,8.671772886486744,0.10989490966516727,-4.261991742217076e-05,0.04150030267434731,2.368171058020461,-2.167616047645858,2.118045446881012,-0.0033552607755182873,3.0306227573879063,-0.0012439725723922823,-0.23476800819564114,0.26452340898330146,-0.005723956821639308,-0.007947334636787439,-6.707682488255057,-0.35254901398570215,-21.16339624058634
-9.351178054387713,8.671772886486744,0.10989490966516727,-4.261991742217076e-05,0.04150030267434731,2.368171058020461,-2.167616047645858,2.118045446881012,-0.0033552607755182873,3.0306227573879063,-0.0012439725723922823,-0.23476800819564114,0.26452340898330146,-0.005723956821639308,-0.012525844387710094,-0.032501596957445145,0.032501596957445145,0.01999999999998181,-9.393914606612242,8.713554055368155,0.10981372327395203,2.32260663574772e-05,0.03293953173157108,2.3681533474436995,-2.1200413216021716,2.0718337993496814,-0.0068065571011860365,2.9642990141120986,-0.0013610152312297785,0.16334924374126736,-0.14719885137568336,0.0019467076509372514,0.0032922991889853923,-3.3161871637934013,-0.005852132941880132,-0.1888624585352746
-9.393914606612242,8.713554055368155,0.10981372327395203,2.32260663574772e-05,0.03293953173157108,2.3681533474436995,-2.1200413216021716,2.0718337993496814,-0.0068065571011860365,2.9642990141120986,-0.0013610152312297785,0.16334924374126736,-0.14719885137568336,0.0019467076509372514,-0.01141608040779829,-0.018444586545228958,0.018444586545228958,0.025000000000034106,-9.44658111956227,8.764837099832647,0.10957185638777941,3.527434004211547e-05,0.023463164242500157,2.368134468351846,-2.093340565476642,2.0396951078053767,-0.008708871826879828,2.922742143043424,0.0030366351749293585,0.27956648334151174,-0.24538398258743946,0.019228189800609717,0.00048193094738487345,-1.6622748427447103,0.1759060162461255,0.8469958980607232
-9.44658111956227,8.764837099832647,0.10957185638777941,3.527434004211547e-05,0.023463164242500157,2.368134468351846,-2.093340565476642,2.0396951078053767,-0.008708871826879828,2.922742143043424,0.0030366351749293585,0.27956648334151174,-0.24538398258743946,0.019228189800609717,-0.01009052898734808,-0.014899506233632565,0.014899506233632565,0.024999999999977263,-9.498646020526243,8.815527288357073,0.10932753913021917,-1.482041613503335e-06,0.018406206779850387,2.3681669662550107,-2.069801238336146,2.017889558064556,-0.007241813255427054,2.8906661907331674,0.002099646639753816,0.12959643543632993,-0.12074895427491734,-0.0025012360370793765,-0.0014702552662260895,-1.283038092411436,-0.03747954140705579,0.6690781505418221
