x_pos,y_pos,z_pos,roll,pitch,yaw,u_x,u_y,u_z,comp_u_x,comp_u_y,roll_mder,pitch_mder,yaw_mder,steer,throttle,brake,time_step,act_x_pos,act_y_pos,act_z_pos,act_roll,act_pitch,act_yaw,act_u_x,act_u_y,act_u_z,act_comp_u_x,act_comp_u_y,act_roll_mder,act_pitch_mder,act_yaw_mder,accel_roll,accel_x,accel_y,accel_yaw
-0.3224174459417899,0.36518168524184863,0.1090983781124113,6.564149006245193e-07,-0.020069844654056365,2.351957910166049,-0.3139658576574217,0.30666406990210743,0.0012950909708846067,0.4388258179963298,0.007022321791044506,0.0648704963614289,-0.06646180366957476,-0.028889637694077472,-0.0020447401329874992,1.0,0.0,0.044999999999987494,-0.34077080308389185,0.38300924381400825,0.10933948338060057,1.2547281887123195e-05,-0.021444997437492275,2.353899503503908,-0.49797534638644997,0.48161404151204634,0.007467782129136821,0.6926459237040634,0.013158836058588697,0.01083936276696109,-1.0464133670152163e-05,-0.06237524134008197,0.0002642414885889329,15.392131637872353,0.2924185790798301,-2.0281084229818847
-0.34077080308389185,0.38300924381400825,0.10933948338060057,1.2547281887123195e-05,-0.021444997437492275,2.353899503503908,-0.49797534638644997,0.48161404151204634,0.007467782129136821,0.6926459237040634,0.013158836058588697,0.01083936276696109,-1.0464133670152163e-05,-0.06237524134008197,-0.003586078993976116,1.0,0.0,0.03499999999999659,-0.360709644045512,0.4022945637489886,0.10958257440207744,-2.8560779546687646e-05,-0.02150808269077932,2.355977083520225,-0.6386142357391745,0.6158028996079309,0.006083189767281356,0.8870033350974933,0.016322891293807706,-0.07991955188876619,0.037258105282819844,-0.04283435934659267,-0.0011745160409661385,5.553068896955681,0.09040157814912338,-3.0059885910481396
-0.360709644045512,0.4022945637489886,0.10958257440207744,-2.8560779546687646e-05,-0.02150808269077932,2.355977083520225,-0.6386142357391745,0.6158028996079309,0.006083189767281356,0.8870033350974933,0.016322891293807706,-0.07991955188876619,0.037258105282819844,-0.04283435934659267,0.0,1.0,0.0,0.025000000000005684,-0.37802478275877327,0.41889549147878874,0.10968984608547153,8.722430265833652e-05,-0.02155743502660629,2.3580298071910497,-0.7435233285600772,0.7068596809730969,0.002734043022632221,1.0256215148659178,0.024042814780817934,0.044293704647269276,-0.08134482735890208,-0.08059650430302193,0.004631403288199914,5.54472719073572,0.3087969394803389,-4.937234545983461
-0.37802478275877327,0.41889549147878874,0.10968984608547153,8.722430265833652e-05,-0.02155743502660629,2.3580298071910497,-0.7435233285600772,0.7068596809730969,0.002734043022632221,1.0256215148659178,0.024042814780817934,0.044293704647269276,-0.08134482735890208,-0.08059650430302193,0.0,1.0,0.0,0.03499999999999659,-0.4065778946699403,0.4460835052043648,0.10972719622917698,9.504303675764213e-06,-0.021596433981426997,2.3614530273301138,-0.8832400781863423,0.8425365760363375,-0.00025501706213822833,1.220442851998259,0.022364317114697996,-0.024581948697061467,0.0540514869117195,-0.11307610159120764,-0.002220571399502282,5.566323918067436,-0.047957076174860044,-5.5335030255499555
-0.4065778946699403,0.4460835052043648,0.10972719622917698,9.504303675764213e-06,-0.021596433981426997,2.3614530273301138,-0.8832400781863423,0.8425365760363375,-0.00025501706213822833,1.220442851998259,0.022364317114697996,-0.024581948697061467,0.0540514869117195,-0.11307610159120764,-0.0029078898951411247,1.0,0.0,0.020000000000010232,-0.4251065250308699,0.46372301793127585,0.10970539956541395,1.9139702454693292e-07,-0.02170386408928224,2.3634254261323107,-0.9669034832074705,0.9162127370537723,-0.0014354240254848723,1.3317886196359026,0.026214461402087164,0.0940674520263309,-0.0941748357226068,-0.11114458030621632,-0.0004656453325606258,5.567288381879326,0.1925072143693599,-11.211034094865461
-0.4251065250308699,0.46372301793127585,0.10970539956541395,1.9139702454693292e-07,-0.02170386408928224,2.3634254261323107,-0.9669034832074705,0.9162127370537723,-0.0014354240254848723,1.3317886196359026,0.026214461402087164,0.0940674520263309,-0.0941748357226068,-0.11114458030621632,-0.0015515116974711418,1.0,0.0,0.030000000000001137,-0.45597429484800145,0.4929932769502439,0.10965056142828358,3.881027890819028e-05,-0.021723914476635187,2.367023373511026,-1.0888604698515176,1.0301713776705483,-0.0019078678607113014,1.498743320109431,0.025271537433703584,0.09235311394926606,-0.051835476846240514,-0.13133692409209058,0.0012872960627880628,5.565156682450734,-0.03143079894611814,-8.08271681327659
-0.45597429484800145,0.4929932769502439,0.10965056142828358,3.881027890819028e-05,-0.021723914476635187,2.367023373511026,-1.0888604698515176,1.0301713776705483,-0.0019078678607113014,1.498743320109431,0.025271537433703584,0.09235311394926606,-0.051835476846240514,-0.13133692409209058,0.0,1.0,0.0,0.024999999999977263,-0.48452505470721086,0.5199456687256571,0.10960884556820225,1.1690337838106303e-05,-0.021532730422298647,2.370518044973989,-1.1907244853354004,1.123083703368788,-0.0013727871438854872,1.6366266894425714,0.02439024710933657,-0.1347542299794062,0.031428719667800274,-0.1844629613084043,-0.0010847976428043458,5.515334773330636,-0.03525161297471255,-12.631995416031284
-0.48452505470721086,0.5199456687256571,0.10960884556820225,1.1690337838106303e-05,-0.021532730422298647,2.370518044973989,-1.1907244853354004,1.123083703368788,-0.0013727871438854872,1.6366266894425714,0.02439024710933657,-0.1347542299794062,0.031428719667800274,-0.1844629613084043,-0.002476315014064312,1.0,0.0,0.05000000000001137,-0.5499873806345583,0.5800738151738137,0.10958267628495894,-4.95904544280751e-06,-0.021638383157362828,2.3794947518345566,-1.4150039942463475,1.289048598671795,0.0003747808632681149,1.9136099442238832,0.044492413266777664,0.013941831445208108,-0.008348408959211098,-0.19383798339424302,-0.0003329876656182005,5.539665095624977,0.4020433231487304,-7.566018894051226
-0.5499873806345583,0.5800738151738137,0.10958267628495894,-4.95904544280751e-06,-0.021638383157362828,2.3794947518345566,-1.4150039942463475,1.289048598671795,0.0003747808632681149,1.9136099442238832,0.044492413266777664,0.013941831445208108,-0.008348408959211098,-0.19383798339424302,-0.00022596027702093124,1.0,0.0,0.009999999999990905,-0.5643820557615875,0.5931622602628753,0.10958512999223721,-4.3923263864846e-06,-0.021621502526353028,2.3814374185597043,-1.4565256683820207,1.3287827718016951,-0.0003022711950917273,1.9711629254458016,0.040588158872227886,-0.0854239270342889,0.08271803777689404,-0.17421385418913807,5.667190563234252e-05,5.755298122197077,-0.39042543945533287,-36.805183758371584
-0.5643820557615875,0.5931622602628753,0.10958512999223721,-4.3923263864846e-06,-0.021621502526353028,2.3814374185597043,-1.4565256683820207,1.3287827718016951,-0.0003022711950917273,1.9711629254458016,0.040588158872227886,-0.0854239270342889,0.08271803777689404,-0.17421385418913807,-0.0033394647762179375,1.0,0.0,0.025000000000005684,-0.6022703675167609,0.627394254347206,0.10960045754944511,1.0359304994775365e-06,-0.021628058735664202,2.3864783543425268,-1.5700908313150415,1.408207619402233,0.0010309693358116212,2.108475421992073,0.050648916843414105,0.03852554613999488,-0.0673307040073844,-0.19750912607147078,0.0002171302754384361,5.492499861849613,0.40243031884735725,-14.868919210420973
-0.6022703675167609,0.627394254347206,0.10960045754944511,1.0359304994775365e-06,-0.021628058735664202,2.3864783543425268,-1.5700908313150415,1.408207619402233,0.0010309693358116212,2.108475421992073,0.050648916843414105,0.03852554613999488,-0.0673307040073844,-0.19750912607147078,-0.002476315014064312,1.0,0.0,0.045000000000015916,-0.6774319788188423,0.6943939858951063,0.10963159021921284,0.0003027917612389949,-0.021549300858961288,2.396400133688353,-1.7717170901260357,1.5587291635503246,0.0008184031152085047,2.359131528621125,0.055825472794372555,0.02850259006738393,-0.029465068705795926,-0.23698240903233075,0.0067056851275424595,5.570135702865852,0.11503457668792487,-9.65536744674773
-0.6774319788188423,0.6943939858951063,0.10963159021921284,0.0003027917612389949,-0.021549300858961288,2.396400133688353,-1.7717170901260357,1.5587291635503246,0.0008184031152085047,2.359131528621125,0.055825472794372555,0.02850259006738393,-0.029465068705795926,-0.23698240903233075,-0.0029078898951411247,1.0,0.0,0.024999999999977263,-0.7232707828282967,0.7343245081872714,0.10964088394442059,0.00014359124024833445,-0.021301378044294734,2.402677156071482,-1.885912917624248,1.6350691258538903,0.00013763091333941074,2.4952628993352297,0.0614950598320656,-0.10817923023430093,0.19050343370145764,-0.31979528205052143,-0.00636802083963221,5.445254828569134,0.22678348150792813,-22.27110764333434
-0.7232707828282967,0.7343245081872714,0.10964088394442059,0.00014359124024833445,-0.021301378044294734,2.402677156071482,-1.885912917624248,1.6350691258538903,0.00013763091333941074,2.4952628993352297,0.0614950598320656,-0.10817923023430093,0.19050343370145764,-0.31979528205052143,0.0,1.0,0.0,0.025000000000005684,-0.7717709451901946,0.7763374116666322,0.10964087226039917,0.0004913525037790224,-0.021333905398395064,2.409119901805771,-1.9965047426141647,1.7142649206012754,0.00040697664521047866,2.6307939227544197,0.06048752998231954,0.3097428760439223,-0.3269129811959024,-0.2292136148716406,0.013910450541224357,5.421240936766367,-0.040301193989833166,-21.96035587688149
-0.7717709451901946,0.7763374116666322,0.10964087226039917,0.0004913525037790224,-0.021333905398395064,2.409119901805771,-1.9965047426141647,1.7142649206012754,0.00040697664521047866,2.6307939227544197,0.06048752998231954,0.3097428760439223,-0.3269129811959024,-0.2292136148716406,-0.0020447401329874992,1.0,0.0,0.025000000000005684,-0.8232262739233098,0.8201088319065674,0.10963876972457565,0.0005476553874943546,-0.02106057860380095,2.4160434024137194,-2.1172472612868685,1.7835112295848896,-3.828219607746042e-05,2.767429508720638,0.07058459990958865,-0.09124642247709822,0.07638005862385294,-0.3707873038736555,0.002252115348612775,5.4654234386474885,0.40388279709067254,-24.000036749806387
-0.8232262739233098,0.8201088319065674,0.10963876972457565,0.0005476553874943546,-0.02106057860380095,2.4160434024137194,-2.1172472612868685,1.7835112295848896,-3.828219607746042e-05,2.767429508720638,0.07058459990958865,-0.09124642247709822,0.07638005862385294,-0.3707873038736555,-0.001119936816394329,1.0,0.0,0.0049999999999954525,-0.8338760272357186,0.8290668544272546,0.1096386972586933,0.00018851638156332744,-0.02141375830117088,2.417468091545744,-2.1423212729021035,1.797001932793441,-2.6752280868957978e-05,2.795247013574957,0.07314722067540891,0.283777808583401,-0.22905767077902475,-0.3305749780107839,-0.07182780118627076,5.563500970868859,0.5125241531645174,-140.27245637701546
-0.8338760272357186,0.8290668544272546,0.1096386972586933,0.00018851638156332744,-0.02141375830117088,2.417468091545744,-2.1423212729021035,1.797001932793441,-2.6752280868957978e-05,2.795247013574957,0.07314722067540891,0.283777808583401,-0.22905767077902475,-0.3305749780107839,-0.001119936816394329,1.0,0.0,0.025000000000005684,-0.8888860509275354,0.8750690537273356,0.10963460044694981,0.00028819746587536695,-0.02120158012231784,2.424538142798469,-2.25832873548778,1.8720249146410266,-0.0006049459696284773,2.9324369666672165,0.07307116456000484,0.1346350173893527,-0.037629419891993796,-0.3703089416022352,0.003987243372480674,5.487598123689135,-0.0030422446161619565,-28.035356784514388
-0.8888860509275354,0.8750690537273356,0.10963460044694981,0.00028819746587536695,-0.02120158012231784,2.424538142798469,-2.25832873548778,1.8720249146410266,-0.0006049459696284773,2.9324369666672165,0.07307116456000484,0.1346350173893527,-0.037629419891993796,-0.3703089416022352,-0.0029078898951411247,1.0,0.0,0.03499999999999659,-0.9708458025778937,0.9425766549508124,0.1096375148366723,0.0006255792828970859,-0.021602237933309162,2.4353936778289316,-2.425363486035813,1.9763322708780282,0.0012401172245936481,3.1278330138942634,0.07027034582824632,-0.01488721443803568,0.0059484350234828304,-0.2923089394306513,0.009639480486335766,5.582744206487597,-0.08002339233596567,-18.931939458084315
-0.9708458025778937,0.9425766549508124,0.1096375148366723,0.0006255792828970859,-0.021602237933309162,2.4353936778289316,-2.425363486035813,1.9763322708780282,0.0012401172245936481,3.1278330138942634,0.07027034582824632,-0.01488721443803568,0.0059484350234828304,-0.2923089394306513,-0.0029078898951411247,1.0,0.0,0.03999999999999204,-1.0718072253369995,1.0236638313153896,0.1096560243180287,0.0007700438001791433,-0.020845681549993812,2.449208268183816,-2.6219964631854915,2.0693951951956504,0.00021514290031397765,3.3392677918858995,0.08094776667420467,-0.14879962358332946,0.12518654799514706,-0.39242923720879597,0.0036116129320521544,5.285869449791955,0.2669355211490119,-17.118454415989586
-1.0718072253369995,1.0236638313153896,0.1096560243180287,0.0007700438001791433,-0.020845681549993812,2.449208268183816,-2.6219964631854915,2.0693951951956504,0.00021514290031397765,3.3392677918858995,0.08094776667420467,-0.14879962358332946,0.12518654799514706,-0.39242923720879597,-0.0033394647762179375,1.0,0.0,0.020000000000010232,-1.1253739768268938,1.0655649337665651,0.10966261057072543,0.0006294621777489227,-0.021420417794067174,2.4562476741555233,-2.729312482216177,2.11891787791489,0.000123549112780022,3.4541839108573633,0.08702361117822144,-0.11350335846847502,0.005401663563419031,-0.3521707350813131,-0.007029081121507435,5.745805948570251,0.30379222520068305,-37.22999861448641
-1.1253739768268938,1.0655649337665651,0.10966261057072543,0.0006294621777489227,-0.021420417794067174,2.4562476741555233,-2.729312482216177,2.11891787791489,0.000123549112780022,3.4541839108573633,0.08702361117822144,-0.11350335846847502,0.005401663563419031,-0.3521707350813131,0.0,1.0,0.0,0.0049999999999954525,-1.1390874126136943,1.0762038455223233,0.10966305344521263,0.0004611320614797818,-0.021516664362272293,2.4578041214168165,-2.752961341939202,2.1323915759830068,0.0004388931288804715,3.4811592125555912,0.08614244235172053,-0.07755436151653576,0.022082752806945473,-0.3103125405068338,-0.03366602325385879,5.395060339650493,-0.1762337653003425,-132.4966551177499
-1.1390874126136943,1.0762038455223233,0.10966305344521263,0.0004611320614797818,-0.021516664362272293,2.4578041214168165,-2.752961341939202,2.1323915759830068,0.0004388931288804715,3.4811592125555912,0.08614244235172053,-0.07755436151653576,0.022082752806945473,-0.3103125405068338,-0.005589819513261318,1.0,0.0,0.025000000000005684,-1.2094065008485604,1.130249722417611,0.10967220267994274,-0.00012577036432216557,-0.020935954820708168,2.466192139539298,-2.869676655851834,2.1909527392702115,0.0007488044617345313,3.609463564044641,0.08420685655437588,-0.190167894367873,0.012952565633545028,-0.20188824351422896,-0.023476097032072554,5.1321740595608265,-0.07742343189376848,-20.48803136083785
-1.2094065008485604,1.130249722417611,0.10967220267994274,-0.00012577036432216557,-0.020935954820708168,2.466192139539298,-2.869676655851834,2.1909527392702115,0.0007488044617345313,3.609463564044641,0.08420685655437588,-0.190167894367873,0.012952565633545028,-0.20188824351422896,0.0,1.0,0.0,0.03499999999999659,-1.3125958677728695,1.209163334488773,0.10968367750845637,0.00027993559607970364,-0.02104115252244199,2.4775457501262594,-3.0359945169832177,2.2907660846221707,-6.738866855438008e-05,3.802678878923074,0.0671215717910778,-0.1841219044872114,0.011797597942925987,-0.10670991413678507,0.011591598868625964,5.520437567955767,-0.4881509932371353,-8.81709021860126
-1.3125958677728695,1.209163334488773,0.10968367750845637,0.00027993559607970364,-0.02104115252244199,2.4775457501262594,-3.0359945169832177,2.2907660846221707,-6.738866855438008e-05,3.802678878923074,0.0671215717910778,-0.1841219044872114,0.011797597942925987,-0.10670991413678507,-0.0029078898951411247,1.0,0.0,0.06499999999999773,-1.51902626642201,1.3649040220530009,0.10969124352248996,-0.0007567690920421741,-0.02142105500978748,2.4897722560804443,-3.3105634956564742,2.5123330720742065,0.0006865519071047321,4.155902563178479,0.01104577645871041,-0.058469445875125786,0.0687651850805091,-0.020666165398926413,-0.015949302894183295,5.434210527006422,-0.8627045435749132,-1.9596319928571682
-1.51902626642201,1.3649040220530009,0.10969124352248996,-0.0007567690920421741,-0.02142105500978748,2.4897722560804443,-3.3105634956564742,2.5123330720742065,0.0006865519071047321,4.155902563178479,0.01104577645871041,-0.058469445875125786,0.0687651850805091,-0.020666165398926413,-0.002476315014064312,1.0,0.0,0.030000000000001137,-1.6199813424123892,1.4420757722205795,0.10971090871332254,-2.3288482092917947e-06,-0.02088116836583836,2.4899314050848997,-3.4242240756980364,2.6235920539275552,-0.0006124751583614918,4.313752689185768,-0.009139068028779285,-0.03647741031723389,0.05699478207438076,-0.011481591715214725,0.025148008127761794,5.26167086690943,-0.6728281495829643,-1.071591903804664
-1.6199813424123892,1.4420757722205795,0.10971090871332254,-2.3288482092917947e-06,-0.02088116836583836,2.4899314050848997,-3.4242240756980364,2.6235920539275552,-0.0006124751583614918,4.313752689185768,-0.009139068028779285,-0.03647741031723389,0.05699478207438076,-0.011481591715214725,-0.001119936816394329,1.0,0.0,0.009999999999990905,-1.6544463547990178,1.468440878183572,0.1097130441182059,0.0006651268266540873,-0.02078630895644454,2.4898920327316754,-3.4714736685390886,2.6443545710442518,0.0032379893549430022,4.3639122816980525,0.0031822017166671657,0.23467610276487993,-0.2857236268536874,0.07561192018670447,0.06674556748639862,5.015959251233003,1.2321269745457657,6.413032847154808
-1.6544463547990178,1.468440878183572,0.1097130441182059,0.0006651268266540873,-0.02078630895644454,2.4898920327316754,-3.4714736685390886,2.6443545710442518,0.0032379893549430022,4.3639122816980525,0.0031822017166671657,0.23467610276487993,-0.2857236268536874,0.07561192018670447,-0.0038018664345145226,1.0,0.0,0.025000000000005684,-1.7425684618798396,1.535656670124694,0.10972593503591507,-0.0019413698643286235,-0.02052114440108192,2.487129957381905,-3.5631447145831454,2.7465553161400296,0.0012632542390128704,4.49882934390703,-0.010044704072942334,-0.1094650726306026,-0.012958788161037313,0.17263456900102986,-0.10425986763928473,5.396682488357863,-0.5290762315842596,9.929859567507116
-1.7425684618798396,1.535656670124694,0.10972593503591507,-0.0019413698643286235,-0.02052114440108192,2.487129957381905,-3.5631447145831454,2.7465553161400296,0.0012632542390128704,4.49882934390703,-0.010044704072942334,-0.1094650726306026,-0.012958788161037313,0.17263456900102986,0.0,0.7800509333610535,0.0,0.045000000000015916,-1.9062727355380416,1.6635689541426446,0.10977365041438861,0.00033275817550198675,-0.019472726677648426,2.4830267173145257,-3.7289185574932104,2.9046584073969535,-0.0037853322448743315,4.726694812144616,-0.015173164608288658,-0.7702310902463426,0.03352608003453614,0.13261060643252678,0.05053617866288458,5.063677071944565,-0.11396578967432246,6.783226120743304
-1.9062727355380416,1.6635689541426446,0.10977365041438861,0.00033275817550198675,-0.019472726677648426,2.4830267173145257,-3.7289185574932104,2.9046584073969535,-0.0037853322448743315,4.726694812144616,-0.015173164608288658,-0.7702310902463426,0.03352608003453614,0.13261060643252678,-0.0029078898951411247,0.38947567343711853,0.0,0.024999999999977263,-2.0005798330301783,1.737289258919931,0.10979736800169623,-0.0004639091523682995,-0.01567031966836752,2.480581600556707,-3.793799724215787,2.9864051019200573,-0.0015604261331137875,4.828118698268941,-0.028312817940836954,-0.6586603783575897,0.08694920064026289,0.2009242849106743,-0.03186669311484044,4.05695544497671,-0.5255861333024099,13.341395653740177
-2.0005798330301783,1.737289258919931,0.10979736800169623,-0.0004639091523682995,-0.01567031966836752,2.480581600556707,-3.793799724215787,2.9864051019200573,-0.0015604261331137875,4.828118698268941,-0.028312817940836954,-0.6586603783575897,0.08694920064026289,0.2009242849106743,-0.0029078898951411247,0.03953010216355324,0.0,0.045000000000015916,-2.1725432382569627,1.8725214113826933,0.10997710418705905,-0.00040148395690841644,0.0016466139312006822,2.476482937936857,-3.812072760613478,3.0135228381514856,0.002567796425863222,4.859307898653801,-0.018584250122753776,-0.15388691404194446,0.3409477646062785,-0.10059669108590832,0.0013872265657746883,0.6930933418855365,0.2161903959573275,2.2295020849940106
-2.1725432382569627,1.8725214113826933,0.10997710418705905,-0.00040148395690841644,0.0016466139312006822,2.476482937936857,-3.812072760613478,3.0135228381514856,0.002567796425863222,4.859307898653801,-0.018584250122753776,-0.15388691404194446,0.3409477646062785,-0.10059669108590832,-0.0029078898951411247,-0.0,0.0,0.030000000000001137,-2.2861133549317874,1.9626904144649107,0.1100913521028086,-0.0009639988867648257,0.01034439990671096,2.4728583887228273,-3.7560174624471765,2.994893110667603,0.0014393171527262716,4.803811649482966,-0.02110826435655211,-0.05595939748589648,-0.03979062173867658,0.1681259703660031,-0.018750497661879598,-1.849874972361121,-0.08413380779327458,2.250975976003074
-2.2861133549317874,1.9626904144649107,0.1100913521028086,-0.0009639988867648257,0.01034439990671096,2.4728583887228273,-3.7560174624471765,2.994893110667603,0.0014393171527262716,4.803811649482966,-0.02110826435655211,-0.05595939748589648,-0.03979062173867658,0.1681259703660031,-0.0029078898951411247,-0.0,0.0,0.020000000000010232,-2.3609219016412943,2.0224625106518346,0.11009716990849347,-0.0019011133394131324,0.01333694869104124,2.4680495176635455,-3.715142944216729,2.995423708313234,-0.007210453617672162,4.772240378269968,-0.02391778204738859,-0.11350125605388403,0.40535385465755885,-0.08904222938248406,-0.046855722632391364,-1.578563560649063,-0.14047588454175228,3.954187049173929
-2.3609219016412943,2.0224625106518346,0.11009716990849347,-0.0019011133394131324,0.01333694869104124,2.4680495176635455,-3.715142944216729,2.995423708313234,-0.007210453617672162,4.772240378269968,-0.02391778204738859,-0.11350125605388403,0.40535385465755885,-0.08904222938248406,-0.0029078898951411247,-0.0,0.0,0.0049999999999954525,-2.379461706944845,2.037438889154623,0.11009970193332128,-0.004199610986908148,0.013656995633306076,2.467458489202843,-3.701393974645678,2.997924284130325,0.001995636343958135,4.763073242000836,-0.03163321446361378,-0.08519217519889856,-0.3581186328298305,0.17756729303986837,-0.4596995294994213,-1.8334272538281815,-1.5430864832464408,17.705012731492964
-2.379461706944845,2.037438889154623,0.11009970193332128,-0.004199610986908148,0.013656995633306076,2.467458489202843,-3.701393974645678,2.997924284130325,0.001995636343958135,4.763073242000836,-0.03163321446361378,-0.08519217519889856,-0.3581186328298305,0.17756729303986837,-0.001119936816394329,-0.0,0.0,0.01999999999998181,-2.453005669371125,2.097456167616914,0.11005792273563006,0.00020230762058225346,0.014737795508107408,2.4669593358862842,-3.6664285079978494,2.9948898255315126,-0.006177629825866518,4.7338872892540795,-0.04872580394588333,0.054958549586392,0.6760394248779292,-0.1421720913815076,0.22009593037472028,-1.4592976373391358,-0.8546294741142547,1.769760082919648
-2.453005669371125,2.097456167616914,0.11005792273563006,0.00020230762058225346,0.014737795508107408,2.4669593358862842,-3.6664285079978494,2.9948898255315126,-0.006177629825866518,4.7338872892540795,-0.04872580394588333,0.054958549586392,0.6760394248779292,-0.1421720913815076,-0.0018289526924490929,-0.0,0.0,0.030000000000001137,-2.5625376461104423,2.1863542045463134,0.10987628131379876,-0.0017844781957409195,0.01555972381482147,2.4648530269254723,-3.6383355159605935,2.945508829752988,-0.0062609562752703185,4.681152527040394,-0.017849690092182513,-0.45648289631368044,-0.3880330885151447,0.2640030934885849,-0.0662261938774366,-1.7578254071227706,1.0292037951233215,4.06103340356909
-2.5625376461104423,2.1863542045463134,0.10987628131379876,-0.0017844781957409195,0.01555972381482147,2.4648530269254723,-3.6383355159605935,2.945508829752988,-0.0062609562752703185,4.681152527040394,-0.017849690092182513,-0.45648289631368044,-0.3880330885151447,0.2640030934885849,-0.0018289526924490929,-0.0,0.0,0.020000000000010232,-2.63476535382072,2.2453251796177347,0.1097655657111559,-0.0004664939423997831,0.015479443223077117,2.46353166519342,-3.5938122084268014,2.946922390617353,-0.001972461731507197,4.647384401942573,-0.04069381206385314,0.15558923818392928,0.03307886734268624,-0.0281169311644073,0.0658992126670231,-1.688406254890198,-1.142206098582947,11.794308116202847
-2.652729274472458,2.2600279154811114,0.10973403717050165,-0.0004664939423997831,0.015479443223077117,2.46353166519342,-3.587924949080032,2.938212738642695,-0.005205647630631027,4.637336033954482,-0.03760380220760817,0.024320744280596034,-0.07917206618558768,0.2110930286381188,-0.0018289526924490929,-0.0,0.0,0.025000000000005684,-2.742109932240008,2.3331541058756335,0.109627714874492,-0.0029946751643278174,0.015906032936306963,2.4580148525750833,-3.541713063367628,2.927990969467066,0.0014128584903663755,4.595188234976557,-0.03328101024058139,-0.0036368759823461653,-0.42374197116339385,0.16753392423940255,-0.10112724887709837,-2.0878466786401844,0.2965120729308027,15.14507811509741
-2.742109932240008,2.3331541058756335,0.109627714874492,-0.0029946751643278174,0.015906032936306963,2.4580148525750833,-3.541713063367628,2.927990969467066,0.0014128584903663755,4.595188234976557,-0.03328101024058139,-0.0036368759823461653,-0.42374197116339385,0.16753392423940255,-0.0018289526924490929,-0.0,0.0,0.014999999999986358,-2.794960528029214,2.3771577341428385,0.10960735227939813,0.00026376072289132675,0.01611492066596116,2.4584138619235,-3.5154044676539784,2.931914523597839,-0.004417413408691645,4.5772472213897935,-0.054765127270133274,-0.04044559371271455,0.5114133217065546,-0.06230468017372877,0.2172290591481405,-1.1960675724519714,-1.432274468638095,7.015282937717966
-2.794960528029214,2.3771577341428385,0.10960735227939813,0.00026376072289132675,0.01611492066596116,2.4584138619235,-3.5154044676539784,2.931914523597839,-0.004417413408691645,4.5772472213897935,-0.054765127270133274,-0.04044559371271455,0.5114133217065546,-0.06230468017372877,-0.0018289526924490929,-0.0,0.0,0.01500000000001478,-2.8474879150943355,2.420999169855841,0.10959931828728975,0.00040927504850695075,0.015923361229658255,2.4588580024504183,-3.4956824548733327,2.9143973489371855,-0.0016210442789449386,4.550869232965788,-0.05565031218892447,-0.2856538064737222,-0.11116661843108618,0.19736229353231155,0.009700955041032041,-1.7585325615986573,-0.05901232791935473,9.003840890563316
-2.8474879150943355,2.420999169855841,0.10959931828728975,0.00040927504850695075,0.015923361229658255,2.4588580024504183,-3.4956824548733327,2.9143973489371855,-0.0016210442789449386,4.550869232965788,-0.05565031218892447,-0.2856538064737222,-0.11116661843108618,0.19736229353231155,-0.0018289526924490929,-0.0,0.0,0.05500000000000682,-3.0379752933528295,2.5795810236968895,0.10960763616173533,0.0004765168675160277,0.015294997813330219,2.449011461406917,-3.4329705012559244,2.860501827662236,-0.0032667560629351527,4.468519749128054,-0.009403201842792086,-0.3493010785795133,-0.0858918454307949,0.3068462958766547,0.0012225785274376116,-1.4972633425040547,0.8408565517477572,9.167428898343704
-3.0379752933528295,2.5795810236968895,0.10960763616173533,0.0004765168675160277,0.015294997813330219,2.449011461406917,-3.4329705012559244,2.860501827662236,-0.0032667560629351527,4.468519749128054,-0.009403201842792086,-0.3493010785795133,-0.0858918454307949,0.3068462958766547,-0.0018289526924490929,-0.0,0.0,0.0049999999999954525,-3.0551323594937543,2.593832512507862,0.10962128975878266,0.0020590235735378306,0.014956065187900944,2.44849040147236,-3.4324458413671977,2.844323831038149,0.0028190546111259845,4.457783884054918,0.005035155484446552,0.06916340114329185,-0.16983695152493855,0.06772009374433222,0.31650134120464846,-2.1471730146291876,2.887671465450354,74.91327792426551
-3.0551323594937543,2.593832512507862,0.10962128975878266,0.0020590235735378306,0.014956065187900944,2.44849040147236,-3.4324458413671977,2.844323831038149,0.0028190546111259845,4.457783884054918,0.005035155484446552,0.06916340114329185,-0.16983695152493855,0.06772009374433222,-0.0018289526924490929,-0.0,0.0,0.025000000000005684,-3.140493101801252,2.664689466735136,0.1096590279320602,-7.200625413824965e-06,0.015513901792242591,2.4448359690912644,-3.3940880512861376,2.8303221529544498,-0.00047076712687854627,4.41933272209765,0.007448542476267583,0.002439613470972767,0.18215536841130858,-0.1898176580666589,-0.08264896795804744,-1.5380464782903813,0.09653547967281931,-4.883902572891957
-3.140493101801252,2.664689466735136,0.1096590279320602,-7.200625413824965e-06,0.015513901792242591,2.4448359690912644,-3.3940880512861376,2.8303221529544498,-0.00047076712687854627,4.41933272209765,0.007448542476267583,0.002439613470972767,0.18215536841130858,-0.1898176580666589,-0.0018289526924490929,-0.0,0.0,0.030000000000001137,-3.2413200115332437,2.749614682820727,0.10968083881685889,-0.0004924283520528534,0.015571399934410526,2.4442544812661646,-3.3488322186322135,2.8107292372890766,0.0030222369419163203,4.372054422490709,-0.0040250068591922705,-0.2994114137929308,-0.38439564980334123,0.1801538741104853,-0.01617425755463367,-1.575943320231291,-0.382451644515314,-0.32212613187244094
-3.2413200115332437,2.749614682820727,0.10968083881685889,-0.0004924283520528534,0.015571399934410526,2.4442544812661646,-3.3488322186322135,2.8107292372890766,0.0030222369419163203,4.372054422490709,-0.0040250068591922705,-0.2994114137929308,-0.38439564980334123,0.1801538741104853,-0.0018289526924490929,-0.0,0.0,0.05999999999997385,-3.4394402027105304,2.917403606670359,0.10966596714334467,-7.672263551030909e-06,0.015426808063767202,2.441608405532483,-3.253082106433176,2.7826834877095252,-0.0020878622131230706,4.28074784009674,-0.03268812435818491,0.2310599766860394,0.11839553427731919,-0.047002414671798734,0.008079268141700563,-1.5217763732334937,-0.4777186249834189,2.219190990645743
-3.4394402027105304,2.917403606670359,0.10966596714334467,-7.672263551030909e-06,0.015426808063767202,2.441608405532483,-3.253082106433176,2.7826834877095252,-0.0020878622131230706,4.28074784009674,-0.03268812435818491,0.2310599766860394,0.11839553427731919,-0.047002414671798734,-0.0018289526924490929,-0.0,0.0,0.025000000000005684,-3.520658163022558,2.986415028823418,0.10964057289468901,-0.0009047075409207413,0.015537656817418255,2.438112665623013,-3.233812471791965,2.7544323887367894,-0.0017572637185807594,4.247866071351322,-0.00864446075801073,-0.5386599900189055,-0.17883902950698363,0.18478486828564822,-0.035881411094780255,-1.3152707498163914,0.9617465440067485,5.511298144552727
-3.520658163022558,2.986415028823418,0.10964057289468901,-0.0009047075409207413,0.015537656817418255,2.438112665623013,-3.233812471791965,2.7544323887367894,-0.0017572637185807594,4.247866071351322,-0.00864446075801073,-0.5386599900189055,-0.17883902950698363,0.18478486828564822,-0.0018289526924490929,-0.0,0.0,0.010000000000019327,-3.5528782247825355,3.0139117330362795,0.10964463597512838,-3.765917205204087e-05,0.015373486926380667,2.437847717693754,-3.216733525988366,2.746173662774294,-0.0003297177453466804,4.229502774384345,-0.012273744654669905,0.17027529556840723,0.005648330675324229,-0.029031029117010415,0.08670483688670247,-1.836329696694165,-0.362928389665216,15.575383916833678
-3.5528782247825355,3.0139117330362795,0.10964463597512838,-3.765917205204087e-05,0.015373486926380667,2.437847717693754,-3.216733525988366,2.746173662774294,-0.0003297177453466804,4.229502774384345,-0.012273744654669905,0.17027529556840723,0.005648330675324229,-0.029031029117010415,-0.0018289526924490929,-0.0,0.0,0.03999999999999204,-3.6804666484651207,3.1231674684594304,0.1096307521696461,-0.0001604784725445272,0.015472329239044225,2.434628588139824,-3.1519962678818567,2.7249594369688652,1.3893202130646487e-05,4.166518975300571,-0.024577109820080434,0.08035066673059797,0.02753110383113296,-0.06892836044566378,-0.0030704825123127693,-1.5745949770946701,-0.3075841291353244,-2.4489847390673423
-3.6804666484651207,3.1231674684594304,0.1096307521696461,-0.0001604784725445272,0.015472329239044225,2.434628588139824,-3.1519962678818567,2.7249594369688652,1.3893202130646487e-05,4.166518975300571,-0.024577109820080434,0.08035066673059797,0.02753110383113296,-0.06892836044566378,-0.0018289526924490929,-0.0,0.0,0.05500000000000682,-3.851692303153765,3.271969989975173,0.10966070405068509,-0.0005149969323990911,0.015048252961048343,2.4287970320000976,-3.0616514296789368,2.7011201177998796,0.0006526279458671166,4.082652518066804,-0.04132534768270579,0.22954506708333025,-0.044422729945540244,0.14165749518530427,-0.006445790179173089,-1.5248446769773898,-0.30451341568405965,1.3223479043569357
-3.851692303153765,3.271969989975173,0.10966070405068509,-0.0005149969323990911,0.015048252961048343,2.4287970320000976,-3.0616514296789368,2.7011201177998796,0.0006526279458671166,4.082652518066804,-0.04132534768270579,0.22954506708333025,-0.044422729945540244,0.14165749518530427,-0.0029078898951411247,0.3350355923175812,0.0,0.030000000000001137,-3.943809663579554,3.3524739942556314,0.1096057971218769,-0.000544774410993167,0.008712757545370006,2.426846352465895,-3.0777329619174423,2.6877927256441687,-0.004857779259606686,4.086135976660647,-0.012755435639784984,0.15349280670218557,0.21600706145579177,0.16357299032007785,-0.0009925826198024913,0.11611528646142977,0.9523304014306575,10.174349516845686
-3.943809663579554,3.3524739942556314,0.1096057971218769,-0.000544774410993167,0.008712757545370006,2.426846352465895,-3.0777329619174423,2.6877927256441687,-0.004857779259606686,4.086135976660647,-0.012755435639784984,0.15349280670218557,0.21600706145579177,0.16357299032007785,-0.000657535158097744,0.8474382758140564,0.0,0.0049999999999954525,-3.95921844775277,3.3659570008080864,0.10957408781271158,-0.00011832593573740739,0.006095587451691874,2.426542559748945,-3.085255471012068,2.70448400180521,-0.00668815304264141,4.1027633345247905,-0.01918484582287583,0.22351202030560355,-0.10992338682964722,0.0442782055602466,0.08528969505122948,3.3254715728317,-1.2858820366193384,41.5702391761027
-3.95921844775277,3.3659570008080864,0.10957408781271158,-0.00011832593573740739,0.006095587451691874,2.426542559748945,-3.085255471012068,2.70448400180521,-0.00668815304264141,4.1027633345247905,-0.01918484582287583,0.22351202030560355,-0.10992338682964722,0.0442782055602466,0.0,0.9424772262573242,0.0,0.025000000000005684,-4.036860962676553,3.4343583966553157,0.10938448041607599,0.0006848783096215104,-0.0040584927782449905,2.424602703241488,-3.1469959006803885,2.7565410872546408,-0.005802519448746844,4.183539655535308,-0.009895210239090346,0.4086105456899191,-0.1010778780679983,0.003943276578423818,0.032128169814349405,3.2310528404199816,0.3715854233513348,1.9288592855463782
-4.036860962676553,3.4343583966553157,0.10938448041607599,0.0006848783096215104,-0.0040584927782449905,2.424602703241488,-3.1469959006803885,2.7565410872546408,-0.005802519448746844,4.183539655535308,-0.009895210239090346,0.4086105456899191,-0.1010778780679983,0.003943276578423818,-0.0029078898951411247,1.0,0.0,0.05999999999997385,-4.232483688333412,3.605914483620365,0.109194154261847,-0.0005603819618490525,-0.018346069875863315,2.4189492252704223,-3.373243762596586,2.9713911353146223,0.0036785254878546336,4.495323541854948,0.002239412371784155,-0.2716265919485021,0.181551726596623,0.11794695839552545,-0.02075433785785176,5.196398105329599,0.20224371018132983,2.031503916233373
-4.232483688333412,3.605914483620365,0.109194154261847,-0.0005603819618490525,-0.018346069875863315,2.4189492252704223,-3.373243762596586,2.9713911353146223,0.0036785254878546336,4.495323541854948,0.002239412371784155,-0.2716265919485021,0.181551726596623,0.11794695839552545,-0.001119936816394329,1.0,0.0,0.030000000000001137,-4.3348055294983165,3.6974036726793345,0.1093924934696425,2.1555322942705753e-05,-0.020420425495717827,2.4157142613957663,-3.4562876200071853,3.129685097713624,0.006999140818711891,4.662477029345844,-0.04648520074205997,-0.012910094408872296,0.28260377670266074,-0.06990343410605342,0.019397909493057874,5.571782916362974,-1.6241537704614093,1.6014508096490072
-4.3348055294983165,3.6974036726793345,0.1093924934696425,2.1555322942705753e-05,-0.020420425495717827,2.4157142613957663,-3.4562876200071853,3.129685097713624,0.006999140818711891,4.662477029345844,-0.04648520074205997,-0.012910094408872296,0.28260377670266074,-0.06990343410605342,0.0055281659588217735,1.0,0.0,0.005000000000023874,-4.3521409355854574,3.713064568616582,0.10942796947567454,0.000830217782377303,-0.01978278848315834,2.4158912794097813,-3.479227994470737,3.137036430332595,0.0075133606180222134,4.684507697973501,-0.03758497531913907,0.08832138692762807,0.1724186625192256,-0.10192550946101557,0.16173249188614722,4.406133725510409,1.7800450845756814,-34.36578871324971
-4.3521409355854574,3.713064568616582,0.10942796947567454,0.000830217782377303,-0.01978278848315834,2.4158912794097813,-3.479227994470737,3.137036430332595,0.0075133606180222134,4.684507697973501,-0.03758497531913907,0.08832138692762807,0.1724186625192256,-0.10192550946101557,0.01536190789192915,1.0,0.0,0.030000000000001137,-4.458554442993231,3.8082612859822547,0.10966685440981108,0.0006864440031751337,-0.019287602097399163,2.4135970211657396,-3.6063631527300366,3.2120726794543124,0.005288466378912282,4.829416430633904,0.0017398244232662563,-0.3744852151276338,0.24136080740083204,0.022483277446059213,-0.004792459306738795,4.830291088679904,1.3108266580801278,-2.648074400498445
-4.458554442993231,3.8082612859822547,0.10966685440981108,0.0006864440031751337,-0.019287602097399163,2.4135970211657396,-3.6063631527300366,3.2120726794543124,0.005288466378912282,4.829416430633904,0.0017398244232662563,-0.3744852151276338,0.24136080740083204,0.022483277446059213,0.01536190789192915,1.0,0.0,0.03499999999999659,-4.587069198380566,3.9231714996956684,0.10986887997082409,-0.0009439481027655355,-0.019409454045625635,2.4113104973031816,-3.727312285704881,3.3535058896628263,0.0011045313012568447,5.013852510906823,-0.011900674063081151,-0.7341614633539074,-0.035433165250739355,0.19559141368745492,-0.04658263159830937,5.269602293512479,-0.3897285281813925,6.230705460958154
-4.587069198380566,3.9231714996956684,0.10986887997082409,-0.0009439481027655355,-0.019409454045625635,2.4113104973031816,-3.727312285704881,3.3535058896628263,0.0011045313012568447,5.013852510906823,-0.011900674063081151,-0.7341614633539074,-0.035433165250739355,0.19559141368745492,0.022236280143260956,1.0,0.0,0.030000000000001137,-4.70019473955759,4.025850071817312,0.10995259414303077,-0.0022000111633412455,-0.01918424394870307,2.408552534204378,-3.8061072072542466,3.487443712843891,0.000992483778067224,5.162044284805479,-0.04488346103190377,0.07997877233204691,0.054504555589846404,0.3342001079093956,-0.041868768685855415,4.93972579662168,-1.0994262322940456,17.659717386561013
-4.70019473955759,4.025850071817312,0.10995259414303077,-0.0022000111633412455,-0.01918424394870307,2.408552534204378,-3.8061072072542466,3.487443712843891,0.000992483778067224,5.162044284805479,-0.04488346103190377,0.07997877233204691,0.054504555589846404,0.3342001079093956,0.02121899649500847,1.0,0.0,0.0049999999999954525,-4.719278082958072,4.043354292270998,0.10995641841575729,-0.0012598395527715256,-0.019094237902356145,2.408395494830516,-3.816843856843545,3.5052589331873056,0.00221220551714979,5.181951826135789,-0.05012472265929313,0.46826871508771,-0.09730419140760213,0.03043193543279229,0.188034322114115,3.9815082660656715,-1.0482523254788254,72.9264086685039
-4.719278082958072,4.043354292270998,0.10995641841575729,-0.0012598395527715256,-0.019094237902356145,2.408395494830516,-3.816843856843545,3.5052589331873056,0.00221220551714979,5.181951826135789,-0.05012472265929313,0.46826871508771,-0.09730419140760213,0.03043193543279229,0.018290452659130096,1.0,0.0,0.030000000000001137,-4.835838328548489,4.150485946192811,0.10991098117217876,0.0021417590414372465,-0.020403238605240386,2.4063950396855702,-3.954353771558597,3.6071467505062125,0.0009957956283054015,5.352372185532787,-0.02309584079869431,0.29352946125726087,-0.08034769462703656,0.036766042273666893,0.11338661980695477,5.680678646566398,0.9009627286865931,2.2399325902152216
-4.835838328548489,4.150485946192811,0.10991098117217876,0.0021417590414372465,-0.020403238605240386,2.4063950396855702,-3.954353771558597,3.6071467505062125,0.0009957956283054015,5.352372185532787,-0.02309584079869431,0.29352946125726087,-0.08034769462703656,0.036766042273666893,0.020263366401195526,1.0,0.0,0.03499999999999659,-4.976814708118532,4.278466744176894,0.10988247892876615,-0.00253348470636802,-0.02063298443880505,2.4020737817396136,-4.072356206439518,3.7364025796303784,0.0032147540729782764,5.526711084045743,-0.015934323987285115,0.8113787030078686,-0.8601943381143862,0.16723853605725428,-0.1335783927944492,4.9811113860849465,0.2046147660402827,5.828702238026887
-4.976814708118532,4.278466744176894,0.10988247892876615,-0.00253348470636802,-0.02063298443880505,2.4020737817396136,-4.072356206439518,3.7364025796303784,0.0032147540729782764,5.526711084045743,-0.015934323987285115,0.8113787030078686,-0.8601943381143862,0.16723853605725428,0.0231919102370739,0.7774306535720825,0.0,0.030000000000001137,-5.100581253367235,4.392324903788234,0.10987123428513684,0.0004753841686119378,-0.02000557047847283,2.3998794693611747,-4.188015587737423,3.8275624858881208,0.004678178343837408,5.67359308926202,0.0071136480050904005,0.273106336006293,-0.4038086518240656,0.08859078874106935,0.1002956291659948,4.896066840542378,0.7682657330791547,8.527644159943799
-5.100581253367235,4.392324903788234,0.10987123428513684,0.0004753841686119378,-0.02000557047847283,2.3998794693611747,-4.188015587737423,3.8275624858881208,0.004678178343837408,5.67359308926202,0.0071136480050904005,0.273106336006293,-0.4038086518240656,0.08859078874106935,0.016317538917064667,0.12680070102214813,0.0,0.01999999999998181,-5.185129483089056,4.469488310887333,0.10988562757167256,0.000882303270533997,-0.01490435144138473,2.397368064911042,-4.262553609675246,3.8737740022547626,-0.0020347482048228005,5.759692254457356,0.03786066354788176,-0.4004879728757215,1.0033643690667018,-0.0683654720100981,0.020345955096121464,4.304958259770693,1.537350777140966,1.0112658365494822
-5.185129483089056,4.469488310887333,0.10988562757167256,0.000882303270533997,-0.01490435144138473,2.397368064911042,-4.262553609675246,3.8737740022547626,-0.0020347482048228005,5.759692254457356,0.03786066354788176,-0.4004879728757215,1.0033643690667018,-0.0683654720100981,0.016317538917064667,0.04816159978508949,0.0,0.01500000000001478,-5.249102403629251,4.52746944085905,0.10993711278236687,0.0002923708182892153,-0.00647774204418878,2.3955301431948977,-4.2700373440665285,3.864691511408437,0.0003788761054974374,5.758943987096284,0.060195943075147085,-0.11323749793820058,0.7749725650647212,0.1098737246693733,-0.03932883014961336,-0.049884490738063995,1.4890186351495547,2.7672168439489533
-5.249102403629251,4.52746944085905,0.10993711278236687,0.0002923708182892153,-0.00647774204418878,2.3955301431948977,-4.2700373440665285,3.864691511408437,0.0003788761054974374,5.758943987096284,0.060195943075147085,-0.11323749793820058,0.7749725650647212,0.1098737246693733,0.016317538917064667,0.004110134206712246,0.0,0.03999999999999204,-5.418809153950185,4.682186433684801,0.11017510328247584,0.000267867494607492,0.007673885228791864,2.39426226335131,-4.204935870112948,3.8737164514156444,0.0003296490694921078,5.717244815744753,0.016629328624365503,0.02360634426486194,0.6322634808880139,-0.35220130593790977,-0.0006125830920432055,-1.0424792837884964,-1.0891653612697563,-6.058189531714618
-5.418809153950185,4.682186433684801,0.11017510328247584,0.000267867494607492,0.007673885228791864,2.39426226335131,-4.204935870112948,3.8737164514156444,0.0003296490694921078,5.717244815744753,0.016629328624365503,0.02360634426486194,0.6322634808880139,-0.35220130593790977,0.016317538917064667,-0.0,0.0,0.025000000000005684,-5.523674359534778,4.778480663867074,0.11024820010180589,0.0001748815157893021,0.01342264304616667,2.3983474673332164,-4.184272449239319,3.833376204217572,-0.001265874576367912,5.674753579958805,0.008992178237177129,0.03687227756867596,0.7391850590621845,-0.10418376419969376,-0.0037194391527267494,-1.6996494314375044,-0.3054860154874655,-18.25540280549999
-5.523674359534778,4.778480663867074,0.11024820010180589,0.0001748815157893021,0.01342264304616667,2.3983474673332164,-4.184272449239319,3.833376204217572,-0.001265874576367912,5.674753579958805,0.008992178237177129,0.03687227756867596,0.7391850590621845,-0.10418376419969376,0.016317538917064667,-0.0,0.0,0.060000000000002274,-5.77183520976822,5.006337339517673,0.11002499986137851,0.0014051501298655176,0.015913284714423766,2.3985522337602863,-4.08938162436643,3.767079113242248,-0.004917635722702887,5.560024298604384,-0.007544140816428069,0.09165249732551867,0.04839479313167276,-0.03240254973128095,0.02050447690126948,-1.9121546892402805,-0.27560531756007617,-2.2764385655161585
-5.77183520976822,5.006337339517673,0.11002499986137851,0.0014051501298655176,0.015913284714423766,2.3985522337602863,-4.08938162436643,3.767079113242248,-0.004917635722702887,5.560024298604384,-0.007544140816428069,0.09165249732551867,0.04839479313167276,-0.03240254973128095,0.016317538917064667,-0.0,0.0,0.009999999999990905,-5.81273151036697,5.043899098583928,0.10999264033741454,0.0036322316726369523,0.016415642596156445,2.3983562417283846,-4.09050085859886,3.7382587292694014,-0.0023971308590435975,5.541347727889352,0.015522878998672773,0.4850423698009833,0.05338794977800106,-0.10103386611399122,0.22270815427734603,-1.8676570715048801,2.306701981512182,-13.343641584539352
-5.81273151036697,5.043899098583928,0.10999264033741454,0.0036322316726369523,0.016415642596156445,2.3983562417283846,-4.09050085859886,3.7382587292694014,-0.0023971308590435975,5.541347727889352,0.015522878998672773,0.4850423698009833,0.05338794977800106,-0.10103386611399122,0.016317538917064667,-0.0,0.0,0.030000000000001137,-5.9345716130726744,5.15580487804359,0.10985311870095832,-0.0029453168733496655,0.016545226369528026,2.396430890313276,-4.026170977079939,3.7362735814101526,-0.0026317528949842545,5.492680397832912,-0.015970569381283717,-0.08803626718799541,-0.25315100428704235,-0.042514476047909026,-0.2192516181995456,-1.6222443352146043,-1.0497816126651767,-4.784944738729827
-5.9345716130726744,5.15580487804359,0.10985311870095832,-0.0029453168733496655,0.016545226369528026,2.396430890313276,-4.026170977079939,3.7362735814101526,-0.0026317528949842545,5.492680397832912,-0.015970569381283717,-0.08803626718799541,-0.25315100428704235,-0.042514476047909026,0.016317538917064667,-0.0,0.0,0.03499999999999659,-6.074910446448636,5.285461672040126,0.10975463302959435,0.0016841835029529466,0.016459361110403862,2.396672961729129,-4.004410269398021,3.6650208570113048,0.004938405090176401,5.4283760210684715,0.02032884347508368,0.3389083919479458,-0.06114844428616166,0.10993015732518532,0.13227143932294466,-1.8372679075556333,1.037126081610598,1.9261623222080817
-6.074910446448636,5.285461672040126,0.10975463302959435,0.0016841835029529466,0.016459361110403862,2.396672961729129,-4.004410269398021,3.6650208570113048,0.004938405090176401,5.4283760210684715,0.02032884347508368,0.3389083919479458,-0.06114844428616166,0.10993015732518532,0.016317538917064667,-0.0,0.0,0.040000000000020464,-6.233402280706827,5.431914126289601,0.10978380079289582,-0.000639554159208613,0.016168396333460386,2.3934569836970803,-3.909162552765996,3.6642938908505798,0.002634124350014158,5.357975423144907,-0.026475412140231747,0.11004472847940927,0.0223749674264352,0.05707444604877613,-0.058093441554009265,-1.7600149480882055,-1.170106390382287,4.1751150843469
-6.233402280706827,5.431914126289601,0.10978380079289582,-0.000639554159208613,0.016168396333460386,2.3934569836970803,-3.909162552765996,3.6642938908505798,0.002634124350014158,5.357975423144907,-0.026475412140231747,0.11004472847940927,0.0223749674264352,0.05707444604877613,0.016317538917064667,-0.0,0.0,0.0549999999999784,-6.447788742506983,5.630852099529362,0.10973660992011078,-0.0034344336249901727,0.015973814253576343,2.3861207527369444,-3.855576645830467,3.6084685653413238,0.0004394127488926147,5.280742065835386,0.016730004375450136,-0.47071279096078855,-0.26193184580909157,0.2452614703465505,-0.05081599028695741,-1.404242860173664,0.7855530275581609,5.497016661735371
-6.447788742506983,5.630852099529362,0.10973660992011078,-0.0034344336249901727,0.015973814253576343,2.3861207527369444,-3.855576645830467,3.6084685653413238,0.0004394127488926147,5.280742065835386,0.016730004375450136,-0.47071279096078855,-0.26193184580909157,0.2452614703465505,0.016317538917064667,-0.0,0.0,0.03499999999999659,-6.581107784753733,5.757059539568694,0.10973938112536355,0.0015088980915392142,0.016095259192214717,2.386507831469905,-3.79381670540031,3.5878378332152066,-0.0037049817752962955,5.221634447720222,-0.012617686253461713,-0.8038822916034486,-0.42167106277721245,0.06112759998497628,0.1412380490437105,-1.6887890890048618,-0.8385054465404203,8.753973438044476
-6.581107784753733,5.757059539568694,0.10973938112536355,0.0015088980915392142,0.016095259192214717,2.386507831469905,-3.79381670540031,3.5878378332152066,-0.0037049817752962955,5.221634447720222,-0.012617686253461713,-0.8038822916034486,-0.42167106277721245,0.06112759998497628,0.01582431048154831,-0.0,0.0,0.025000000000005684,-6.675738946261081,5.846104854741929,0.1097456603397641,-0.0008748272713939362,0.01627527699682011,2.3835650607848367,-3.771497695369447,3.5464744651113755,0.0012238349753857791,5.177004130801441,0.01744211939206819,0.2276488198781355,0.047924742396476136,0.15585674897198998,-0.09534901451730433,-1.785212676750823,1.2023922258209228,8.679373958276676
-6.675738946261081,5.846104854741929,0.1097456603397641,-0.0008748272713939362,0.01627527699682011,2.3835650607848367,-3.771497695369447,3.5464744651113755,0.0012238349753857791,5.177004130801441,0.01744211939206819,0.2276488198781355,0.047924742396476136,0.15585674897198998,0.01730399578809738,-0.0,0.0,0.010000000000019327,-6.713304467266958,5.881628828044584,0.10974315872078125,-0.002403031606506816,0.016133137544236377,2.3818048322777763,-3.749442722761842,3.553541970091027,0.0010590755343092978,5.1658438152910575,0.006240231508809035,0.014890648948977776,-0.17649892226216116,0.1594694668132315,-0.15282043351099261,-1.1160315510361865,-1.1201887883237505,31.532621578461203
-6.713304467266958,5.881628828044584,0.10974315872078125,-0.002403031606506816,0.016133137544236377,2.3818048322777763,-3.749442722761842,3.553541970091027,0.0010590755343092978,5.1658438152910575,0.006240231508809035,0.014890648948977776,-0.17649892226216116,0.1594694668132315,0.018290452659130096,-0.0,0.0,0.01999999999998181,-6.7876883061310185,5.952746044781205,0.1097545706441734,-0.001706702324011575,0.016367146296252133,2.380036574417088,-3.6957056364679697,3.552159014770998,0.0029924416312263197,5.125977477492933,-0.020705503499710787,-0.10600691056964566,-0.44288408304196186,0.04222933840041801,0.034816464124793715,-1.99331688990804,-1.3472867504272164,10.084940260691647
-6.7876883061310185,5.952746044781205,0.1097545706441734,-0.001706702324011575,0.016367146296252133,2.380036574417088,-3.6957056364679697,3.552159014770998,0.0029924416312263197,5.125977477492933,-0.020705503499710787,-0.10600691056964566,-0.44288408304196186,0.04222933840041801,0.01570100337266922,-0.0,0.0,0.040000000000020464,-6.934554451510637,6.093844992946879,0.10977987975397119,-0.0001651673728035663,0.01620883552112286,2.3774348308288276,-3.649364690104651,3.5007676935777785,5.4602970567751985e-05,5.056998284834375,-0.0023308716591943224,0.006489038787273768,-0.16135676699945642,0.1797707786206682,0.0385383737801805,-1.7244798164630708,0.4593657960126766,5.550002925524316
-6.934554451510637,6.093844992946879,0.10977987975397119,-0.0001651673728035663,0.01620883552112286,2.3774348308288276,-3.649364690104651,3.5007676935777785,5.4602970567751985e-05,5.056998284834375,-0.0023308716591943224,0.006489038787273768,-0.16135676699945642,0.1797707786206682,0.015546868555247784,-0.0,0.0,0.03999999999999204,-7.079351890738251,6.2333778313786805,0.1097395516455946,0.0006866198967357309,0.015910688766639775,2.376931792983125,-3.6039269902554643,3.461394578315339,-0.0006578524542568548,4.996952487676246,-0.002830863615743695,0.14259076600801524,-0.01412849399298144,-0.012932943437276807,0.021294681738486667,-1.5011449289535117,-0.012499798913736804,4.170945879585615
-7.079351890738251,6.2333778313786805,0.1097395516455946,0.0006866198967357309,0.015910688766639775,2.376931792983125,-3.6039269902554643,3.461394578315339,-0.0006578524542568548,4.996952487676246,-0.002830863615743695,0.14259076600801524,-0.01412849399298144,-0.012932943437276807,0.015546868555247784,-0.0,0.0,0.030000000000001137,-7.186735566705755,6.336728482809636,0.10971028085866094,-0.00012225007583264034,0.01588210539591125,2.3757176862213605,-3.5604089261825584,3.431973744052387,-0.0009397107112749659,4.945191881294861,-0.005723519964421886,-0.1272070098890649,-0.26430475287872346,0.003703877186626286,-0.026962332418944687,-1.7253535460460983,-0.09642187828926937,-0.30763554168833906
-7.186735566705755,6.336728482809636,0.10971028085866094,-0.00012225007583264034,0.01588210539591125,2.3757176862213605,-3.5604089261825584,3.431973744052387,-0.0009397107112749659,4.945191881294861,-0.005723519964421886,-0.1272070098890649,-0.26430475287872346,0.003703877186626286,0.015546868555247784,0.01101533230394125,0.0,0.03499999999999659,-7.310734919838607,6.456008033322712,0.10968263200532927,-0.0007149609697303926,0.01521294875730413,2.3740770500387316,-3.5187094336694984,3.3955949700807473,0.000977066377489677,4.889926495502113,-0.000384732141466948,0.16209382723672544,0.02990866350338871,-0.09551608346439519,-0.016934596968508856,-1.5790110226501057,0.1525367949415845,-2.6232058936507956
-7.310734919838607,6.456008033322712,0.10968263200532927,-0.0007149609697303926,0.01521294875730413,2.3740770500387316,-3.5187094336694984,3.3955949700807473,0.000977066377489677,4.889926495502113,-0.000384732141466948,0.16209382723672544,0.02990866350338871,-0.09551608346439519,0.016317538917064667,0.3358987271785736,0.0,0.014999999999986358,-7.363375294033682,6.506878578103326,0.10967449645546487,-0.00019866811620924922,0.015053171421587857,2.3738714980700473,-3.5022496823788516,3.382540085785083,0.002304858058130188,4.8690171758939105,-0.0014179265901286264,-0.028108243640284254,-0.20215973578501548,0.1968269962614536,0.034419523568107534,-1.3939546405481102,-0.0688796299108412,6.754060853143371
-7.363375294033682,6.506878578103326,0.10967449645546487,-0.00019866811620924922,0.015053171421587857,2.3738714980700473,-3.5022496823788516,3.382540085785083,0.002304858058130188,4.8690171758939105,-0.0014179265901286264,-0.028108243640284254,-0.20215973578501548,0.1968269962614536,0.014375451020896435,0.4931461215019226,0.0,0.05000000000001137,-7.538209153467931,6.676210419612827,0.10959834735489435,0.00212609231385501,0.004045466626619226,2.375484899552057,-3.534716048411414,3.392479012186908,-0.0013177021286012343,4.899295305783211,0.006074352349172862,-0.25725163124057837,0.002320366146368982,0.0966796441746945,0.04649520860127462,0.605562597785867,0.1498455787859957,5.870132808721627
-7.538209153467931,6.676210419612827,0.10959834735489435,0.00212609231385501,0.004045466626619226,2.375484899552057,-3.534716048411414,3.392479012186908,-0.0013177021286012343,4.899295305783211,0.006074352349172862,-0.25725163124057837,0.002320366146368982,0.0966796441746945,0.014375451020896435,0.5873527526855469,0.0,0.03499999999999659,-7.662679402598507,6.795703761560614,0.10949150469618249,0.0008568668757856012,-0.002068920599521772,2.37517109161812,-3.5909695971676756,3.4435334325179636,-0.00507537328456021,4.975227449331216,0.009847643003896067,-1.096124315876511,-0.4510568307438112,0.09393367637577822,-0.03626358394484379,2.1694898156575078,0.1078083044206735,5.44609487287118
-7.662679402598507,6.795703761560614,0.10949150469618249,0.0008568668757856012,-0.002068920599521772,2.37517109161812,-3.5909695971676756,3.4435334325179636,-0.00507537328456021,4.975227449331216,0.009847643003896067,-1.096124315876511,-0.4510568307438112,0.09393367637577822,0.014375451020896435,0.603752613067627,0.0,0.0049999999999954525,-7.680650675347799,6.812906274900969,0.10947874802518295,0.0005368892397186687,-0.0035326134323310572,2.3753603567106896,-3.603461936770127,3.4381681279697713,0.00032461751558397756,4.980509870875052,0.021434366201521282,0.5588478095044664,-0.6797518185045819,0.01248949594057906,-0.06399552721344472,1.0564843087680857,2.3173446395271506,21.284634463290814
-7.680650675347799,6.812906274900969,0.10947874802518295,0.0005368892397186687,-0.0035326134323310572,2.3753603567106896,-3.603461936770127,3.4381681279697713,0.00032461751558397756,4.980509870875052,0.021434366201521282,0.5588478095044664,-0.6797518185045819,0.01248949594057906,0.010460450313985348,0.6763188242912292,0.0,0.03499999999999659,-7.807532637869097,6.935052202795792,0.10944935188350743,0.00047322731925531235,-0.006216173311096462,2.3763662028327834,-3.6643327740241016,3.5063554376997104,0.00486127317498871,5.071663884463065,0.00941155175910513,0.6169666813887266,-0.8226159067480174,0.12158789065131699,-0.0018189120132389293,2.6044003882291937,-0.3435089840690664,3.8307824740545464
-7.807532637869097,6.935052202795792,0.10944935188350743,0.00047322731925531235,-0.006216173311096462,2.3763662028327834,-3.6643327740241016,3.5063554376997104,0.00486127317498871,5.071663884463065,0.00941155175910513,0.6169666813887266,-0.8226159067480174,0.12158789065131699,0.0006267083808779716,0.6815285682678223,0.0,0.040000000000020464,-7.9551012832055,7.078087067843795,0.10956229493682615,0.000960704431967475,-0.008092982258562956,2.3760808809267284,-3.740611708380784,3.60979934866509,0.004535436950031897,5.198337144141738,-0.010873193396272907,0.2718791846924941,-0.23037818611287386,0.04808629891122082,0.012186927817797831,3.166831491965217,-0.5071186288841915,4.241854739061275
-7.9551012832055,7.078087067843795,0.10956229493682615,0.000960704431967475,-0.008092982258562956,2.3760808809267284,-3.740611708380784,3.60979934866509,0.004535436950031897,5.198337144141738,-0.010873193396272907,0.2718791846924941,-0.23037818611287386,0.04808629891122082,0.0,0.6642347574234009,0.0,0.060000000000002274,-8.183524057528473,7.298274423296756,0.1097636516053366,-0.0010997227603964299,-0.007308915068431319,2.374503609251119,-3.8544016849696066,3.730558302328867,0.0012426440167215627,5.364080950354652,-0.010637396942513089,0.12544773687279515,-0.3077169759467835,0.18297263599813185,-0.03434045320606378,2.7623967702151315,0.003929940895996815,3.8509822484890655
-8.183524057528473,7.298274423296756,0.1097636516053366,-0.0010997227603964299,-0.007308915068431319,2.374503609251119,-3.8544016849696066,3.730558302328867,0.0012426440167215627,5.364080950354652,-0.010637396942513089,0.12544773687279515,-0.3077169759467835,0.18297263599813185,-0.02350017800927162,0.5415441393852234,0.0,0.0049999999999954525,-8.202807546881411,7.317018044849977,0.10977908658883556,-0.0007493160951789827,-0.007526376559684335,2.3750353842592387,-3.8595060198226867,3.7473663218790465,0.004716382779183986,5.379410246198786,-0.02205607608724991,-0.0903124036531373,-0.03560359828493299,-0.10352069720345801,0.07008133304355317,3.0658591688295007,-2.283735828949441,15.89038775894922
