x_pos,y_pos,z_pos,roll,pitch,yaw,u_x,u_y,u_z,comp_u_x,comp_u_y,roll_mder,pitch_mder,yaw_mder,steer,throttle,brake,time_step,act_x_pos,act_y_pos,act_z_pos,act_roll,act_pitch,act_yaw,act_u_x,act_u_y,act_u_z,act_comp_u_x,act_comp_u_y,act_roll_mder,act_pitch_mder,act_yaw_mder,accel_roll,accel_x,accel_y,accel_yaw,
-0.000622377016683,0.0396242780531,0.109697015834395,-4.90467067557326E-06,0.006400803672084,2.3555957376871,-0.000516167157147,0.000495221586302,0.013307411389627,0.000715150842738,1.52389562455365E-05,-0.00237764074985,0.002270955845202,7.10411964677353E-08,0.002784582786262,-0.012248403392732,0.012248403392732,0.02000000000001,-0.000626054246256,0.039631024805537,0.109856935339733,5.97784442466851E-06,0.006434303722128,2.35559563158565,-2.48585053885523E-05,-3.2455870834425E-07,0.003487772985595,1.73374530123754E-05,1.78175012712647E-05,-6.84521375362707E-05,-6.02212183483903E-05,-4.83915207063331E-08,0.000544125755012,-0.034890669486269,0.000128927251286,-5.97163585870037E-06,0.000265253635723
-0.000626054246256,0.039631024805537,0.109856935339733,5.97784442466851E-06,0.006434303722128,2.35559563158565,-2.48585053885523E-05,-3.2455870834425E-07,0.003487772985595,1.73374530123754E-05,1.78175012712647E-05,-6.84521375362707E-05,-6.02212183483903E-05,-4.83915207063331E-08,0.002784582786262,-0.012248403392732,0.012248403392732,0.019999999999996,-0.000626085808834,0.039630618131477,0.109845132756248,4.39547341979582E-06,0.006433965603481,2.35559562186508,1.45119841803668E-05,-3.37295821652681E-05,-0.00379130545877,-3.41200705386955E-05,1.35684628580112E-05,-3.44046823427932E-05,-6.3648578485651E-05,-2.73181553296578E-08,-7.91185502436501E-05,-0.002572876177554,-0.000212451920663,1.05366826883397E-06,2.43014275369643E-05
-0.000626085808834,0.039630618131477,0.109845132756248,4.39547341979582E-06,0.006433965603481,2.35559562186508,1.45119841803668E-05,-3.37295821652681E-05,-0.00379130545877,-3.41200705386955E-05,1.35684628580112E-05,-3.44046823427932E-05,-6.3648578485651E-05,-2.73181553296578E-08,0.002784582786262,-0.012248403392732,0.012248403392732,0.015000000000001,-0.000625718460345,0.039629991566899,0.109759247961667,3.46031182238508E-06,0.006433597735665,2.35559561623615,3.18872690920715E-05,-4.75827554184172E-05,-0.00712940978268,-5.62004296887001E-05,1.10647298279068E-05,-2.01736028236566E-05,-5.9899938695107E-05,-2.56713930799107E-08,-6.23441064940474E-05,-0.001472023943334,-0.00016691553534,1.09784149983136E-07,2.50174656299685E-05
-0.000625718460345,0.039629991566899,0.109759247961667,3.46031182238508E-06,0.006433597735665,2.35559561623615,3.18872690920715E-05,-4.75827554184172E-05,-0.00712940978268,-5.62004296887001E-05,1.10647298279068E-05,-2.01736028236566E-05,-5.9899938695107E-05,-2.56713930799107E-08,0.002784582786262,-0.012248403392732,0.012248403392732,0.019999999999996,-0.000624948313256,0.039628948210264,0.109593819338325,2.47432675718955E-06,0.006432922369353,2.35559561049528,4.23421134629751E-05,-5.43171950382185E-05,-0.008844450915392,-6.83535113593584E-05,8.42672737053902E-06,-2.99071261979966E-06,-5.81459057266971E-05,-4.01507390403241E-08,-4.92992532597862E-05,-0.000607654083533,-0.000131900122868,-7.23967298020813E-07,1.43521816653504E-05
-0.000624948313256,0.039628948210264,0.109593819338325,2.47432675718955E-06,0.006432922369353,2.35559561049528,4.23421134629751E-05,-5.43171950382185E-05,-0.008844450915392,-6.83535113593584E-05,8.42672737053902E-06,-2.99071261979966E-06,-5.81459057266971E-05,-4.01507390403241E-08,0.003555252216756,0.168293550610542,0,0.025000000000006,-0.000605022007148,0.039609033097227,0.109379779847698,1.90956539536838E-06,0.006287735990487,2.35559510419745,0.000933975857077,-0.000916030470851,-0.007978140734373,-0.00130814417894,-1.34733899650643E-05,0.005521935958098,-0.005551009503854,7.46270334326153E-05,-2.25904544728417E-05,-0.049591626703196,-0.000876004693424,0.002986687366866,0.000810076515023
-0.000605022007148,0.039609033097227,0.109379779847698,1.90956539536838E-06,0.006287735990487,2.35559510419745,0.000933975857077,-0.000916030470851,-0.007978140734373,-0.00130814417894,-1.34733899650643E-05,0.005521935958098,-0.005551009503854,7.46270334326153E-05,-0.021712224930525,1,0,0.019999999999996,-0.000837833419023,0.039843815288955,0.109209012115491,4.65952863610605E-08,-0.003308807687584,2.35558698713425,-0.041869805088846,0.04190405919023,-0.009938667450375,0.059237071301439,1.17653945534771E-05,0.469340617331386,-0.469334492026258,0.000262562974803,-9.31485054503843E-05,3.0272607740195,0.001261939225927,0.009396797068527,0.020292658008411
-0.000837833419023,0.039843815288955,0.109209012115491,4.65952863610605E-08,-0.003308807687584,2.35558698713425,-0.041869805088846,0.04190405919023,-0.009938667450375,0.059237071301439,1.17653945534771E-05,0.469340617331386,-0.469334492026258,0.000262562974803,-0.018136318773031,1,0,0.025000000000006,-0.00323003784459,0.042237391478014,0.1090062231752,-3.43281330401065E-06,-0.014514340842494,2.35557702053825,-0.145800397207363,0.146067923061196,-0.005016073676202,0.20638214593823,-6.17346529907803E-05,0.21292255950058,-0.213040273678362,0.001106039287011,-0.000139176343615,5.88580298547032,-0.00294000190177,0.033739052488316,0.015946553605055
-0.00323003784459,0.042237391478014,0.1090062231752,-3.43281330401065E-06,-0.014514340842494,2.35557702053825,-0.145800397207363,0.146067923061196,-0.005016073676202,0.20638214593823,-6.17346529907803E-05,0.21292255950058,-0.213040273678362,0.001106039287011,-0.019030295312405,1,0,0.030000000000001,-0.009499814683279,0.048536717333806,0.108973939423851,-3.9252375277636E-06,-0.019596255427014,2.35549997026695,-0.268381255569789,0.269982074705105,0.003402686632253,0.380681055929271,-0.000867559717965,0.053196017571284,-0.052993112261494,0.005032825611844,-1.64141407917646E-05,5.80996366636782,-0.026860835499124,0.130892877494436,0.085611412550744
-0.009499814683279,0.048536717333806,0.108973939423851,-3.9252375277636E-06,-0.019596255427014,2.35549997026695,-0.268381255569789,0.269982074705105,0.003402686632253,0.380681055929271,-0.000867559717965,0.053196017571284,-0.052993112261494,0.005032825611844,-0.021712224930525,1,0,0.019999999999996,-0.015682807345348,0.054778473746998,0.109085376637352,-3.43932345848961E-06,-0.02084486631774,2.35535491926581,-0.347094348336402,0.351330591232062,0.007891514558151,0.493863351776795,-0.002580843724744,0.034661889740637,-0.030615026435163,0.010606400398778,2.42957034637045E-05,5.6591147923773,-0.085664200338977,0.278678739346738,0.362627502860235
-0.015682807345348,0.054778473746998,0.109085376637352,-3.43932345848961E-06,-0.02084486631774,2.35535491926581,-0.347094348336402,0.351330591232062,0.007891514558151,0.493863351776795,-0.002580843724744,0.034661889740637,-0.030615026435163,0.010606400398778,-0.021712224930525,1,0,0.015000000000001,-0.021358923819443,0.060519738168246,0.109211176167865,-3.02267413379515E-06,-0.021331302068458,2.35515556737031,-0.407612716474186,0.410592677043408,0.009412288090962,0.578560459089218,-0.00150607158222,0.029707520619622,-0.040821475521405,0.015454470946042,2.77766216462963E-05,5.64647382082798,0.071651476168247,0.323204703150887,0.886008424419309
-0.021358923819443,0.060519738168246,0.109211176167865,-3.02267413379515E-06,-0.021331302068458,2.35515556737031,-0.407612716474186,0.410592677043408,0.009412288090962,0.578560459089218,-0.00150607158222,0.029707520619622,-0.040821475521405,0.015454470946042,-0.023500178009272,1,0,0.019999999999996,-0.030283641094421,0.069600379813788,0.109395664349779,-9.78800677246478E-06,-0.021569704134112,2.35470341069105,-0.483545897194039,0.493161332238248,0.009265292711189,0.690645675467061,-0.005769338509609,0.013683707774983,-0.007671545635289,0.02427324812734,-0.000338266631934,5.60426081889327,-0.213163346369492,0.440938859064996,1.13039169815133
-0.030283641094421,0.069600379813788,0.109395664349779,-9.78800677246478E-06,-0.021569704134112,2.35470341069105,-0.483545897194039,0.493161332238248,0.009265292711189,0.690645675467061,-0.005769338509609,0.013683707774983,-0.007671545635289,0.02427324812734,-0.019893445074558,1,0,0.030000000000001,-0.046545252347574,0.086276021135969,0.109627004168174,-3.6682450046039E-05,-0.021664716596296,2.35357401858919,-0.594517563266419,0.617347496965575,0.005744647771303,0.856957362553114,-0.013897618785658,0.054895648282554,-0.063535439758372,0.070335595291847,-0.000896481442452,5.54372290286822,-0.270942675868271,1.53541157215017,1.25488011318215
-0.046545252347574,0.086276021135969,0.109627004168174,-3.6682450046039E-05,-0.021664716596296,2.35357401858919,-0.594517563266419,0.617347496965575,0.005744647771303,0.856957362553114,-0.013897618785658,0.054895648282554,-0.063535439758372,0.070335595291847,-0.021712224930525,1,0,0.015000000000001,-0.0559473156728,0.096011867631361,0.109701615149213,-1.64775305293646E-05,-0.021637640541022,2.35270038170866,-0.653588567203088,0.677405516548695,0.003831316129534,0.94120804176531,-0.013552532807571,-0.087902978850806,0.072446697202704,0.073370871111157,0.001346994634445,5.61671194747956,0.023005731872456,0.202351721287381,3.88283058013893
-0.0559473156728,0.096011867631361,0.109701615149213,-1.64775305293646E-05,-0.021637640541022,2.35270038170866,-0.653588567203088,0.677405516548695,0.003831316129534,0.94120804176531,-0.013552532807571,-0.087902978850806,0.072446697202704,0.073370871111157,-0.019030295312405,1,0,0.019999999999996,-0.06982144391753,0.110410944570428,0.109752808528007,-6.33384713725609E-07,-0.021631936783753,2.3513594487847,-0.728776782239916,0.759328399158111,0.001597438393744,1.05234141759267,-0.016515354039186,-0.039131534690994,0.072942742364471,0.056230531353501,0.000792207290782,5.556668791369,-0.148141061580808,-0.857016987882974,3.3523323098863
-0.06982144391753,0.110410944570428,0.109752808528007,-6.33384713725609E-07,-0.021631936783753,2.3513594487847,-0.728776782239916,0.759328399158111,0.001597438393744,1.05234141759267,-0.016515354039186,-0.039131534690994,0.072942742364471,0.056230531353501,-0.022606201469898,1,0,0.02000000000001,-0.085138206130337,0.126495488095989,0.109756616081404,-5.16777363678977E-05,-0.021591835955666,2.34939148599815,-0.800528396898814,0.844126876811527,-0.000530272186916,1.16312971247113,-0.022916595816155,-0.054360771302193,0.083807006925857,0.087623826264348,-0.002552217582707,5.5394147439201,-0.32006208884828,1.56966474554152,4.91990696638796
-0.085138206130337,0.126495488095989,0.109756616081404,-5.16777363678977E-05,-0.021591835955666,2.34939148599815,-0.800528396898814,0.844126876811527,-0.000530272186916,1.16312971247113,-0.022916595816155,-0.054360771302193,0.083807006925857,0.087623826264348,-0.019030295312405,1,0,0.019999999999996,-0.101874795753707,0.144291475449144,0.109727143892729,-8.5037488115712E-05,-0.021683450917846,2.34691697202949,-0.870766146593215,0.930511116489368,-0.001862199096298,1.27403248603394,-0.030427692867902,0.071762647118381,-0.097413616280933,0.155252425177309,-0.001667987587391,5.54513867814179,-0.375554852587398,3.38142994564872,6.18628492164232
-0.101874795753707,0.144291475449144,0.109727143892729,-8.5037488115712E-05,-0.021683450917846,2.34691697202949,-0.870766146593215,0.930511116489368,-0.001862199096298,1.27403248603394,-0.030427692867902,0.071762647118381,-0.097413616280933,0.155252425177309,-0.006514622829854,1,0,0.039999999999992,-0.13994458496785,0.184701302915474,0.109633232444288,-2.94056014356535E-05,-0.021633578632301,2.34204282020333,-1.02848173516327,1.08678075986707,-0.00200304460614,1.49615004715094,-0.020053328699734,-0.054600934386599,0.044445421349697,0.146659339091217,0.001390797167002,5.55293902792611,0.259359104204248,-0.214827152152333,3.04634489135379
-0.13994458496785,0.184701302915474,0.109633232444288,-2.94056014356535E-05,-0.021633578632301,2.34204282020333,-1.02848173516327,1.08678075986707,-0.00200304460614,1.49615004715094,-0.020053328699734,-0.054600934386599,0.044445421349697,0.146659339091217,0,1,0,0.025000000000006,-0.166832456229784,0.213230189787643,0.10958885292158,-1.57413538446874E-05,-0.021588369973679,2.33903958698674,-1.11965355293245,1.18977399378961,-0.001319520871386,1.6336221383887,-0.021562556867944,0.01657992751608,-0.003361022353346,0.093644318540209,0.000546569903639,5.49888364950909,-0.060369126728381,-2.12060082203984,4.80517314653705
-0.166832456229784,0.213230189787643,0.10958885292158,-1.57413538446874E-05,-0.021588369973679,2.33903958698674,-1.11965355293245,1.18977399378961,-0.001319520871386,1.6336221383887,-0.021562556867944,0.01657992751608,-0.003361022353346,0.093644318540209,0,1,0,0.030000000000001,-0.201987326723316,0.251001830737357,0.109567046506097,-2.20012726409354E-05,-0.021478578123099,2.33508549717061,-1.21750019209158,1.32552881027808,-0.000324512018766,1.79940478828112,-0.038415524612142,-0.011873610859259,-0.00379712305382,0.177213432664244,-0.000208663959875,5.52608832974718,-0.561765591473252,2.78563713746772,4.39343312903385
-0.201987326723316,0.251001830737357,0.109567046506097,-2.20012726409354E-05,-0.021478578123099,2.33508549717061,-1.21750019209158,1.32552881027808,-0.000324512018766,1.79940478828112,-0.038415524612142,-0.011873610859259,-0.00379712305382,0.177213432664244,0,1,0,0.019999999999996,-0.227085897385763,0.278407292314337,0.109570162946492,-2.58476778038333E-05,-0.021445871408317,2.33144779523034,-1.28863492054378,1.41160101795558,-5.08239617714804E-05,1.91092203875331,-0.039678131823801,-0.016064068390163,0.062580563461858,0.155574370691644,-0.000192320258145,5.57586252361042,-0.063130360582954,-1.08195309863023,9.09425485068478
-0.227085897385763,0.278407292314337,0.109570162946492,-2.58476778038333E-05,-0.021445871408317,2.33144779523034,-1.28863492054378,1.41160101795558,-5.08239617714804E-05,1.91092203875331,-0.039678131823801,-0.016064068390163,0.062580563461858,0.155574370691644,0,1,0,0.025000000000006,-0.260533980652074,0.315022559207643,0.109587435539025,-5.95166389050248E-05,-0.02156772622129,2.32719736692304,-1.37746069884475,1.51817606090299,0.001116275151613,2.04954846804827,-0.040094960803011,-0.006298403948235,-0.044733029001008,0.215709739476439,-0.001346758444047,5.54505717179722,-0.016673159168424,2.40541475139129,6.80068529167503
-0.260533980652074,0.315022559207643,0.109587435539025,-5.95166389050248E-05,-0.02156772622129,2.32719736692304,-1.37746069884475,1.51817606090299,0.001116275151613,2.04954846804827,-0.040094960803011,-0.006298403948235,-0.044733029001008,0.215709739476439,0,1,0,0.060000000000002,-0.349340054933151,0.414318748965217,0.109638698992198,-0.000104113936948,-0.021431517582299,2.31448366240621,-1.57540304600831,1.78753545511901,0.000903772431824,2.38214316359748,-0.050712018354422,-0.015168357360288,0.091341481478204,0.208525754416601,-0.000743288300718,5.54324492581991,-0.176950959190167,-0.11973308433064,3.5315845880062
-0.349340054933151,0.414318748965217,0.109638698992198,-0.000104113936948,-0.021431517582299,2.31448366240621,-1.57540304600831,1.78753545511901,0.000903772431824,2.38214316359748,-0.050712018354422,-0.015168357360288,0.091341481478204,0.208525754416601,0,1,0,0.034999999999997,-0.406571256027991,0.479595007003048,0.109648208556702,-0.001474197113236,-0.021093993355956,2.30507017090063,-1.67522780252038,1.9528352114763,-0.000583807666668,2.57210730019566,-0.064942973438939,-0.013187165502223,0.038216435990393,0.285389002954919,-0.039145233608237,5.42754675994874,-0.406598716700525,2.19609281538073,7.68448286170029
-0.406571256027991,0.479595007003048,0.109648208556702,-0.001474197113236,-0.021093993355956,2.30507017090063,-1.67522780252038,1.9528352114763,-0.000583807666668,2.57210730019566,-0.064942973438939,-0.013187165502223,0.038216435990393,0.285389002954919,0,1,0,0.025000000000006,-0.449446189836113,0.529892420104873,0.109644727578498,0.000311055607461,-0.021467023843421,2.29897052634052,-1.76403970112434,2.05662019575297,0.000470718981356,2.70902475633078,-0.052034280131403,0.190733678174361,-0.113102598223847,0.183402322432792,0.071410108827882,5.47669824540344,0.516347732301321,-4.07946722088416,9.75943129617871
-0.449446189836113,0.529892420104873,0.109644727578498,0.000311055607461,-0.021467023843421,2.29897052634052,-1.76403970112434,2.05662019575297,0.000470718981356,2.70902475633078,-0.052034280131403,0.190733678174361,-0.113102598223847,0.183402322432792,0,1,0,0.034999999999997,-0.513250139298185,0.604632841932855,0.109635263660003,-8.1305748494864E-06,-0.02158963067213,2.29097255106827,-1.87560550224513,2.21355597731433,0.000672997293177,2.90090081729091,-0.050005129708293,0.271342930572924,-0.286323944561721,0.221256845908453,-0.009119605208877,5.48217317028986,0.057975726374578,1.08155781359042,6.52895940591827
-0.513250139298185,0.604632841932855,0.109635263660003,-8.1305748494864E-06,-0.02158963067213,2.29097255106827,-1.87560550224513,2.21355597731433,0.000672997293177,2.90090081729091,-0.050005129708293,0.271342930572924,-0.286323944561721,0.221256845908453,0,1,0,0.034999999999997,-0.580980632250015,0.684854809345128,0.109634238127147,0.000105237590285,-0.021278898687337,2.2828419848763,-1.98746887399744,2.36788148797725,-0.000156807175591,3.09112976655907,-0.042567975127635,0.12822609778526,-0.043534066032178,0.141359824075188,0.003239090432409,5.43511283623378,0.212490130875969,-2.2827720523792,6.63719689140841
-0.580980632250015,0.684854809345128,0.109634238127147,0.000105237590285,-0.021278898687337,2.2828419848763,-1.98746887399744,2.36788148797725,-0.000156807175591,3.09112976655907,-0.042567975127635,0.12822609778526,-0.043534066032178,0.141359824075188,0,1,0,0.055000000000007,-0.695126723690097,0.82180251771468,0.109640096202363,-0.000801941208069,-0.021051431170381,2.27215190419171,-2.14178594626678,2.62476722999677,0.000851558216903,3.38723442064046,-0.057384936344991,0.00496493037092,0.079330542301456,0.210816693757779,-0.016494159970073,5.38372098329723,-0.269399294860986,1.26285217604695,3.53391097011063
-0.695126723690097,0.82180251771468,0.109640096202363,-0.000801941208069,-0.021051431170381,2.27215190419171,-2.14178594626678,2.62476722999677,0.000851558216903,3.38723442064046,-0.057384936344991,0.00496493037092,0.079330542301456,0.210816693757779,0,1,0,0.024999999999992,-0.749874836455762,0.888717130714795,0.109646994790704,0.000169428086372,-0.021200198172768,2.26870199059675,-2.23826089506237,2.72305904678572,0.000518552248436,3.52471861047837,-0.034944578899106,-0.04940631465143,0.083350846988336,0.129285352342193,0.038854771777676,5.49936759351833,0.897614297835702,-3.26125365662456,5.51986175194536
-0.749874836455762,0.888717130714795,0.109646994790704,0.000169428086372,-0.021200198172768,2.26870199059675,-2.23826089506237,2.72305904678572,0.000518552248436,3.52471861047837,-0.034944578899106,-0.04940631465143,0.083350846988336,0.129285352342193,-0.035121873021126,1,0,0.040000000000006,-0.842575798561113,1.00062981484346,0.109649567495741,-0.000353078607265,-0.020882118538799,2.26506187530032,-2.39294092627491,2.87014845105384,0.000245610822731,3.73683173065189,0.002650381365081,-0.034204171657212,-0.203820616876916,0.138174737179746,-0.013062667340936,5.30282800433722,0.93987400660451,0.222234620938787,2.27507206026529
-0.842575798561113,1.00062981484346,0.109649567495741,-0.000353078607265,-0.020882118538799,2.26506187530032,-2.39294092627491,2.87014845105384,0.000245610822731,3.73683173065189,0.002650381365081,-0.034204171657212,-0.203820616876916,0.138174737179746,-0.247980773448944,1,0,0.030000000000001,-0.91602628121934,1.0886905711695,0.109671610346926,0.002123414599713,-0.02085089503749,2.26699571599319,-2.51639155632811,2.97956634209722,0.002757141539787,3.89995423499773,0.019975400905804,0.317959900202001,-0.20924695544909,-0.168797522995966,0.082549773565953,5.43741681152774,0.577500651357429,-10.2324086725234,-2.14871188096373
-0.91602628121934,1.0886905711695,0.109671610346926,0.002123414599713,-0.02085089503749,2.26699571599319,-2.51639155632811,2.97956634209722,0.002757141539787,3.89995423499773,0.019975400905804,0.317959900202001,-0.20924695544909,-0.168797522995966,-0.405382305383682,1,0,0.059999999999988,-1.07422210187625,1.27406577259607,0.109717236526191,0.001904525193217,-0.019635018305042,2.27421516823404,-2.75682227849456,3.18758244529767,-0.000968177408576,4.2141547368208,0.040629729320636,0.273927256427155,0.831147960705114,-0.421684908682863,-0.003648156774938,5.23667503038552,0.344238806913931,-4.21478976144911,-2.00540340023782
-1.07422210187625,1.27406577259607,0.109717236526191,0.001904525193217,-0.019635018305042,2.27421516823404,-2.75682227849456,3.18758244529767,-0.000968177408576,4.2141547368208,0.040629729320636,0.273927256427155,0.831147960705114,-0.421684908682863,-0.582482099533081,1,0,0.030000000000001,-1.15936613292162,1.37037533678784,0.109909069163566,0.01408496078325,-0.019971262684403,2.29322971198852,-2.93148520932031,3.22824580063143,0.012514121864017,4.36016030848236,0.064641829284356,0.365450051654624,0.019674033170733,-0.519951054742292,0.40601451966773,4.86685238871847,0.800403332123981,-3.27553820198085,-21.127270838309
-1.15936613292162,1.37037533678784,0.109909069163566,0.01408496078325,-0.019971262684403,2.29322971198852,-2.93148520932031,3.22824580063143,0.012514121864017,4.36016030848236,0.064641829284356,0.365450051654624,0.019674033170733,-0.519951054742292,-0.562814652919769,1,0,0.045000000000002,-1.29829811219306,1.51631475618641,0.110554717508259,0.025754592912771,-0.019724773119152,2.32816684698631,-3.2406400872522,3.25763907072001,0.014551805620574,4.59350943825918,0.116754146869969,0.02560096918724,0.130047422954953,-0.704417040951437,0.259325158433795,5.18553621726249,1.15805150190247,-4.09924413798086,-17.2529061717475
-1.29829811219306,1.51631475618641,0.110554717508259,0.025754592912771,-0.019724773119152,2.32816684698631,-3.2406400872522,3.25763907072001,0.014551805620574,4.59350943825918,0.116754146869969,0.02560096918724,0.130047422954953,-0.704417040951437,-0.245298832654953,1,0,0.034999999999997,-1.4160138266403,1.63045316248839,0.110964278331432,0.029145213444693,-0.018521035691666,2.36002820412309,-3.4903639174954,3.26512858846096,0.004905946986987,4.77743003427445,0.140951209116108,0.185056374046027,0.114604850368619,-0.782935322769227,0.096874872340652,5.25487417186546,0.691344635604037,-2.2433794805085,-26.0092711320699
-1.4160138266403,1.63045316248839,0.110964278331432,0.029145213444693,-0.018521035691666,2.36002820412309,-3.4903639174954,3.26512858846096,0.004905946986987,4.77743003427445,0.140951209116108,0.185056374046027,0.114604850368619,-0.782935322769227,0,0.926077365875244,0,0.040000000000006,-1.56095417091685,1.76098672376107,0.111001952503972,0.024921651268253,-0.016405164697475,2.39154485817538,-3.74806811009057,3.25744345100332,-0.005425339502444,4.96281123323585,0.171630584775586,-0.641836612389323,-0.064895100755194,-0.633781399852728,-0.105589054410999,4.63452997403427,0.766984391486827,3.7288480729119,-19.6979087826729
-1.56095417091685,1.76098672376107,0.111001952503972,0.024921651268253,-0.016405164697475,2.39154485817538,-3.74806811009057,3.25744345100332,-0.005425339502444,4.96281123323585,0.171630584775586,-0.641836612389323,-0.064895100755194,-0.633781399852728,0,0.662508428096771,0,0.040000000000006,-1.71448825714384,1.89265815169057,0.110424720946292,0.000201562642165,-0.014704918530927,2.40022956986238,-3.90028089663415,3.3350292772293,-0.02401994520433,5.12877220561213,0.174089102376821,-0.422740457560677,-0.486838047883969,-0.025914105136315,-0.618002215652103,4.14902430940642,0.061462940030856,15.1966823679079,-5.42794480437394
-1.71448825714384,1.89265815169057,0.110424720946292,0.000201562642165,-0.014704918530927,2.40022956986238,-3.90028089663415,3.3350292772293,-0.02401994520433,5.12877220561213,0.174089102376821,-0.422740457560677,-0.486838047883969,-0.025914105136315,0,0.589942216873169,0,0.030000000000001,-1.83129398402246,1.99516490801378,0.109968305153383,-0.013336769442909,-0.011807601264525,2.40008833442563,-3.88647669981385,3.48564117668165,-0.006940475988807,5.22029059710601,0.054420883318746,-0.152613456000785,0.040576260058886,0.010458276089482,-0.451277736169111,3.05061304979576,-3.988940635269,1.21241270752649,0.156928263050903
-1.83129398402246,1.99516490801378,0.109968305153383,-0.013336769442909,-0.011807601264525,2.40008833442563,-3.88647669981385,3.48564117668165,-0.006940475988807,5.22029059710601,0.054420883318746,-0.152613456000785,0.040576260058886,0.010458276089482,0,0.592531681060791,0,0.034999999999997,-1.96721990361976,2.11976580466429,0.109964670079248,-0.009355242911014,-0.008987593184014,2.40094030518014,-3.88893279529258,3.61733364466978,0.003686952837439,5.31100979774285,-0.045562171168493,0.228569499886386,0.190812485427332,-0.070870301131163,0.113757900911313,2.59197716105291,-2.85665869963567,-2.32367363487577,-0.695486330207342
-1.96721990361976,2.11976580466429,0.109964670079248,-0.009355242911014,-0.008987593184014,2.40094030518014,-3.88893279529258,3.61733364466978,0.003686952837439,5.31100979774285,-0.045562171168493,0.228569499886386,0.190812485427332,-0.070870301131163,0,0.586489617824554,0,0.039999999999992,-2.12445783770462,2.26567431321547,0.109945024833094,0.008867337641449,-0.008052045832583,2.40783389840196,-4.01028466044859,3.64754001246903,-4.97274813958115E-05,5.42092117754243,-0.023340678307824,0.168144453605202,0.178876814738463,-0.086199972890564,0.455564513811649,2.74778449498993,0.555537321516819,-0.383241793985101,-4.30849576363889
-2.12445783770462,2.26567431321547,0.109945024833094,0.008867337641449,-0.008052045832583,2.40783389840196,-4.01028466044859,3.64754001246903,-4.97274813958115E-05,5.42092117754243,-0.023340678307824,0.168144453605202,0.178876814738463,-0.086199972890564,0,0.555385410785675,0,0.050000000000011,-2.32863000496344,2.44781769428437,0.109983377790193,-0.006654880967771,-0.00585597242596,2.40134726244679,-4.10271113234397,3.70174793292953,0.00174599790364,5.52575884856467,0.034140033925148,-0.062468235182118,-0.033476827945156,0.141471634891346,-0.31044437218432,2.09675342044445,1.14961424465918,4.55343215563716,2.59465438206472
-2.32863000496344,2.44781769428437,0.109983377790193,-0.006654880967771,-0.00585597242596,2.40134726244679,-4.10271113234397,3.70174793292953,0.00174599790364,5.52575884856467,0.034140033925148,-0.062468235182118,-0.033476827945156,0.141471634891346,0,0.472430527210236,0,0.024999999999992,-2.43109711427148,2.54150113769302,0.110012342114851,-0.007029946585767,-0.005623349806495,2.3981870089284,-4.09468044207347,3.79151828119118,0.002660809991481,5.58046790596973,-0.019918577955757,0.139531998843575,-0.25011976984183,0.183471337204556,-0.01500262471984,2.18836229620308,-2.16234447523694,1.67998809252895,5.05640562943118
-2.43109711427148,2.54150113769302,0.110012342114851,-0.007029946585767,-0.005623349806495,2.3981870089284,-4.09468044207347,3.79151828119118,0.002660809991481,5.58046790596973,-0.019918577955757,0.139531998843575,-0.25011976984183,0.183471337204556,0,0.035214353352785,0,0.060000000000002,-2.67853343240034,2.7689456525635,0.110003699056101,-0.001137774525888,0.00896901737812,2.40039729800117,-4.10330904753611,3.77284507787294,0.000725660993184,5.57416765364964,-0.012652676708462,0.035899524614578,0.105750105899264,0.201219002057956,0.098202867664634,-0.105004205334839,0.121098354121584,0.29579441422333,-0.613969186879889
-2.67853343240034,2.7689456525635,0.110003699056101,-0.001137774525888,0.00896901737812,2.40039729800117,-4.10330904753611,3.77284507787294,0.000725660993184,5.57416765364964,-0.012652676708462,0.035899524614578,0.105750105899264,0.201219002057956,0,0,0,0.034999999999997,-2.82153137515846,2.9002574810087,0.110006065979086,0.000349292564919,0.013702986096399,2.39773873096044,-4.06457849102564,3.73311421999106,-0.001809426719811,5.51877824175956,0.005177594905326,-0.210296293971501,-0.223314377547328,0.279290844664767,0.042487631165941,-1.58255462543104,0.509436331822549,2.23062407448052,2.17025880875687
-2.82153137515846,2.9002574810087,0.110006065979086,0.000349292564919,0.013702986096399,2.39773873096044,-4.06457849102564,3.73311421999106,-0.001809426719811,5.51877824175956,0.005177594905326,-0.210296293971501,-0.223314377547328,0.279290844664767,0,0,0,0.040000000000006,-2.98252981318194,3.04922097417395,0.109900025992077,4.65152825212093E-06,0.015522338414226,2.3959068535704,-3.994758595447,3.70926501587387,-0.002068919973372,5.45128710438756,-0.014563633522442,0.367095824829286,0.429418835752788,-0.086332970843521,-0.00861602591668,-1.68727843429966,-0.493530710694124,-9.14059538770576,1.1449233687729
-2.98252981318194,3.04922097417395,0.109900025992077,4.65152825212093E-06,0.015522338414226,2.3959068535704,-3.994758595447,3.70926501587387,-0.002068919973372,5.45128710438756,-0.014563633522442,0.367095824829286,0.429418835752788,-0.086332970843521,0,0,0,0.030000000000001,-3.10200756514433,3.15982971255582,0.109775947684519,-0.000135805397427,0.015418281799871,2.39511008513798,-3.9561968508963,3.68385422574874,-0.001262257393988,5.40573402346167,-0.017752385686749,0.146671730479291,0.167780408146417,-0.125874757208792,-0.004681897522639,-1.51843603086312,-0.106291738810201,-1.31805954550901,0.885298258244553
-3.10200756514433,3.15982971255582,0.109775947684519,-0.000135805397427,0.015418281799871,2.39511008513798,-3.9561968508963,3.68385422574874,-0.001262257393988,5.40573402346167,-0.017752385686749,0.146671730479291,0.167780408146417,-0.125874757208792,0,0,0,0.030000000000001,-3.22035553707929,3.26953774131731,0.109728032400112,0.000189793700049,0.015559471210276,2.39324568201179,-3.92869644139678,3.64414088082326,-0.001441607396709,5.35858293844379,0.002716569562053,-0.080185756922769,-0.129963189881559,-0.056059217566097,0.010853303249189,-1.57170283392916,0.682298508293374,2.32718465475642,2.07155902910584
-3.22035553707929,3.26953774131731,0.109728032400112,0.000189793700049,0.015559471210276,2.39324568201179,-3.92869644139678,3.64414088082326,-0.001441607396709,5.35858293844379,0.002716569562053,-0.080185756922769,-0.129963189881559,-0.056059217566097,0,0,0,0.030000000000001,-3.33777292488499,3.37815849698002,0.109724251355631,0.001069259907783,0.016336812816773,2.38870492072589,-3.89291517782016,3.60771639473085,0.006142020504144,5.30749994857155,0.02916268892612,0.273753015936779,0.173584582383502,0.010691258183633,0.029315540257801,-1.70276632907479,0.881537312135505,2.22501585832426,5.04529031765898
-3.33777292488499,3.37815849698002,0.109724251355631,0.001069259907783,0.016336812816773,2.38870492072589,-3.89291517782016,3.60771639473085,0.006142020504144,5.30749994857155,0.02916268892612,0.273753015936779,0.173584582383502,0.010691258183633,0,0,0,0.029999999999987,-3.45365733394633,3.48625663323939,0.109713657296268,-0.000447878670699,0.015555311506338,2.38893844192939,-3.84682605136836,3.58868573031127,-0.000515513451615,5.26085826552367,0.010307788190492,-0.469291662568295,-0.266527861561141,0.22854864544051,-0.050571285949398,-1.55472276826331,-0.628496691187874,7.26191290856574,-0.259468003888693
-3.45365733394633,3.48625663323939,0.109713657296268,-0.000447878670699,0.015555311506338,2.38893844192939,-3.84682605136836,3.58868573031127,-0.000515513451615,5.26085826552367,0.010307788190492,-0.469291662568295,-0.266527861561141,0.22854864544051,0,0,0,0.040000000000006,-3.60602344969117,3.62959633338308,0.109727984043099,0.001260601647805,0.016001765713648,2.38948397523016,-3.79484552322582,3.54858614074337,0.004767127412122,5.1955090879551,0.001208469658591,-0.026113807193505,-0.158142142670913,-0.078993309937578,0.042712007962591,-1.63372943921395,-0.227482963297485,-7.68854888445101,-0.340958312981148
-3.60602344969117,3.62959633338308,0.109727984043099,0.001260601647805,0.016001765713648,2.38948397523016,-3.79484552322582,3.54858614074337,0.004767127412122,5.1955090879551,0.001208469658591,-0.026113807193505,-0.158142142670913,-0.078993309937578,0,0.369592398405075,0,0.040000000000006,-3.75669032806285,3.77086479505535,0.109761343880813,-0.002781167741155,0.013255040244744,2.38624113946532,-3.73389064958132,3.53914297212506,0.000378031596117,5.144627123878,-0.016855753668984,0.162252159283743,-0.244536232721734,0.132837043661493,-0.101044234723993,-1.27204910192718,-0.451605583189292,5.29575883997593,2.02677235302837
-3.75669032806285,3.77086479505535,0.109761343880813,-0.002781167741155,0.013255040244744,2.38624113946532,-3.73389064958132,3.53914297212506,0.000378031596117,5.144627123878,-0.016855753668984,0.162252159283743,-0.244536232721734,0.132837043661493,0,0.627951622009277,0,0.024999999999992,-3.85031224859956,3.85913097573363,0.109704518115931,-0.000911414519359,0.007978379861192,2.38509996323949,-3.75636690712273,3.52885344875808,-0.000312055955908,5.15392634693301,0.011925356531406,0.162255039377841,-0.400122967180009,0.208505731333111,0.074790128871864,0.371968922200294,1.151244408016,3.02674750686575,1.82588196133278
-3.85031224859956,3.85913097573363,0.109704518115931,-0.000911414519359,0.007978379861192,2.38509996323949,-3.75636690712273,3.52885344875808,-0.000312055955908,5.15392634693301,0.011925356531406,0.162255039377841,-0.400122967180009,0.208505731333111,0,0.843985676765442,0,0.034999999999997,-3.98251853279898,3.98402011008469,0.109502465712054,-0.001445879543515,-0.003891309521906,2.38008452827403,-3.81517594419898,3.61973603223695,-0.010249976227537,5.25907770920819,0.012572858809207,-0.355653100189304,0.03287548713935,0.192584579306359,-0.01527042926159,3.00432463643398,0.01850006508003,-0.454890057907234,4.09423262486273
-3.98251853279898,3.98402011008469,0.109502465712054,-0.001445879543515,-0.003891309521906,2.38008452827403,-3.81517594419898,3.61973603223695,-0.010249976227537,5.25907770920819,0.012572858809207,-0.355653100189304,0.03287548713935,0.192584579306359,-0.008271749131382,1,0,0.035000000000011,-4.11692160825145,4.1128235934173,0.109393575677213,0.001782754975126,-0.011826242506589,2.38064041480344,-3.90123772313492,3.71623823708848,0.004305169216237,5.3879570916625,-0.00088634824743,0.094643282924944,-0.179278934716534,0.190093512667945,0.092246700532576,3.68226807012212,-0.384548773046648,-0.071173332526092,-0.453784921963595
-4.11692160825145,4.1128235934173,0.109393575677213,0.001782754975126,-0.011826242506589,2.38064041480344,-3.90123772313492,3.71623823708848,0.004305169216237,5.3879570916625,-0.00088634824743,0.094643282924944,-0.179278934716534,0.190093512667945,-0.011847655288875,1,0,0.059999999999988,-4.35917198223144,4.34170529151065,0.109625293297179,-0.001217603585177,-0.01907375298345,2.38000488372981,-4.12818880138325,3.95104738394651,0.008305671231287,5.71424551187546,-0.0107907399076,0.456620009256756,0.075900222059228,-0.231629844443504,-0.050005976005073,5.43814033688375,-0.165073194336203,-7.02872261852554,0.176536409339613
-4.35917198223144,4.34170529151065,0.109625293297179,-0.001217603585177,-0.01907375298345,2.38000488372981,-4.12818880138325,3.95104738394651,0.008305671231287,5.71424551187546,-0.0107907399076,0.456620009256756,0.075900222059228,-0.231629844443504,-0.011847655288875,1,0,0.040000000000006,-4.52764327470311,4.50211821605866,0.109845579553701,0.001124767525996,-0.019090644687148,2.38361275111707,-4.30476496757102,4.05765523579029,0.003063106738485,5.91569181789164,0.012560027589838,0.019327493199039,0.118642442010424,0.056534434481578,0.058559277779322,5.03615765040365,0.583769187435854,7.20410697312592,-2.25491711703814
-4.52764327470311,4.50211821605866,0.109845579553701,0.001124767525996,-0.019090644687148,2.38361275111707,-4.30476496757102,4.05765523579029,0.003063106738485,5.91569181789164,0.012560027589838,0.019327493199039,0.118642442010424,0.056534434481578,-0.017211515456438,1,0,0.040000000000006,-4.70382908696675,4.6665726918727,0.109997895172553,-0.002025353139277,-0.019802147115783,2.38546878663585,-4.48457945248629,4.17832401695519,0.001944052151322,6.12931180295088,0.037165555744765,-0.334459516493515,0.153421409690532,-0.005975324985949,-0.078753016631799,5.34049962648032,0.615138203873071,-1.56274398668793,-1.16002219923436
-4.70382908696675,4.6665726918727,0.109997895172553,-0.002025353139277,-0.019802147115783,2.38546878663585,-4.48457945248629,4.17832401695519,0.001944052151322,6.12931180295088,0.037165555744765,-0.334459516493515,0.153421409690532,-0.005975324985949,-0.004695842973888,1,0,0.030000000000001,-4.83926721292816,4.7942299652968,0.110019133475154,-0.000284882735093,-0.020520526200398,2.38629073903181,-4.56446424685501,4.32406961495457,-0.00278163276273,6.28741142072268,-0.0192229643155,0.044857089062001,-0.273163229668997,0.257097624560578,0.058015680139459,5.26998725905965,-1.87961733534209,8.76909831821722,-0.913280439952096
-4.83926721292816,4.7942299652968,0.110019133475154,-0.000284882735093,-0.020520526200398,2.38629073903181,-4.56446424685501,4.32406961495457,-0.00278163276273,6.28741142072268,-0.0192229643155,0.044857089062001,-0.273163229668997,0.257097624560578,-0.006514622829854,1,0,0.034999999999997,-5.00214735909337,4.94637381143424,0.110073352460871,0.00108063306232,-0.020111802319726,2.38655394750767,-4.73820139660979,4.37724314085751,0.004742847552936,6.45037007062955,0.059463778433673,-0.267127011107126,-0.308976073840871,0.045842860514652,0.039014737068928,4.65596142591098,2.24819264997658,-6.03585040131277,-0.214864061924787
-5.00214735909337,4.94637381143424,0.110073352460871,0.00108063306232,-0.020111802319726,2.38655394750767,-4.73820139660979,4.37724314085751,0.004742847552936,6.45037007062955,0.059463778433673,-0.267127011107126,-0.308976073840871,0.045842860514652,-0.011847655288875,1,0,0.034999999999997,-5.16923782753717,5.10299196408927,0.110154041607061,-0.007002762019384,-0.020738166810279,2.38261830364098,-4.80895355705734,4.57535857524294,0.005717523073485,6.63775838190182,-0.01020144478711,-0.116887411851197,0.217802370242094,0.157760070148896,-0.230954145191548,5.35395175063672,-1.99043494916541,3.19763456097872,3.21277050341559
-5.16923782753717,5.10299196408927,0.110154041607061,-0.007002762019384,-0.020738166810279,2.38261830364098,-4.80895355705734,4.57535857524294,0.005717523073485,6.63775838190182,-0.01020144478711,-0.116887411851197,0.217802370242094,0.157760070148896,-0.010090528987348,1,0,0.034999999999997,-5.33906801383899,5.26621161891269,0.110149273104913,0.001803048933274,-0.021048495503343,2.38090979879001,-4.91697382393809,4.73198448741898,-0.001273720511813,6.82399271588833,-0.037844259396083,-0.310159285459114,0.477375991028079,0.04227609292199,0.251594598647394,5.32098097104382,-0.789794703113601,-3.29954220648336,1.3946978375255
-5.33906801383899,5.26621161891269,0.110149273104913,0.001803048933274,-0.021048495503343,2.38090979879001,-4.91697382393809,4.73198448741898,-0.001273720511813,6.82399271588833,-0.037844259396083,-0.310159285459114,0.477375991028079,0.04227609292199,-0.012741631828249,0.546753883361816,0,0.040000000000006,-5.5401360108358,5.45622391926936,0.110199033764115,0.00327014482602,-0.018668856194994,2.38489725192099,-5.13039523316084,4.78917641072844,-0.004830932563044,7.01823165471574,0.039879597077884,-0.254892806182752,0.416178505781449,0.163467842682064,0.03667739731864,4.85597347068453,1.94309641184887,3.02979374400138,-2.49215820686077
-5.5401360108358,5.45622391926936,0.110199033764115,0.00327014482602,-0.018668856194994,2.38489725192099,-5.13039523316084,4.78917641072844,-0.004830932563044,7.01823165471574,0.039879597077884,-0.254892806182752,0.416178505781449,0.163467842682064,-0.010614584200084,0.260712236166,0,0.064999999999998,-5.87529928875607,5.77266358658561,0.110299562649017,0.001422613491416,0.000901360118915,2.38196412140263,-5.17439565393511,4.89680978312423,-0.008998208340022,7.1241107932337,0.012721686009728,-1.80063073312316,-0.300474994503959,0.094436645381336,-0.028423558993914,1.62890982335321,-0.417814016433182,-1.06201842001124,0.694232075351574
-5.87529928875607,5.77266358658561,0.110299562649017,0.001422613491416,0.000901360118915,2.38196412140263,-5.17439565393511,4.89680978312423,-0.008998208340022,7.1241107932337,0.012721686009728,-1.80063073312316,-0.300474994503959,0.094436645381336,-0.01252584438771,0.023962579667568,0,0.030000000000001,-6.03029781496319,5.91883349368038,0.11037422523816,-0.000181288456476,0.008990800409214,2.38532844636286,-5.151013610951,4.8629520845982,0.000694939409974,7.08387161842722,-0.002662882207478,-0.042568053816451,-0.12585618862034,0.139817268306028,-0.053463398263057,-1.34130582688238,-0.512818940573507,1.51268743082303,-3.73813884469747
-6.03029781496319,5.91883349368038,0.11037422523816,-0.000181288456476,0.008990800409214,2.38532844636286,-5.151013610951,4.8629520845982,0.000694939409974,7.08387161842722,-0.002662882207478,-0.042568053816451,-0.12585618862034,0.139817268306028,-0.01252584438771,0,0,0.034999999999997,-6.20917997527948,6.08881837079488,0.110405698446832,-0.000482140557236,0.013489069134884,2.38930506550747,-5.07302942647616,4.8541971538867,-0.00749243841424,7.02088427122813,-0.077727863191641,0.59882688043206,1.30685604030784,-0.23818074890101,-0.008595774307421,-1.79963849140296,-2.14471374240487,-10.7999433487736,-3.24621970988563
-6.20917997527948,6.08881837079488,0.110405698446832,-0.000482140557236,0.013489069134884,2.38930506550747,-5.07302942647616,4.8541971538867,-0.00749243841424,7.02088427122813,-0.077727863191641,0.59882688043206,1.30685604030784,-0.23818074890101,-0.01252584438771,0,0,0.034999999999997,-6.38690937652973,6.25708109015571,0.110414533378194,0.001862791176566,0.0156744053334,2.39203503762526,-5.08059151306584,4.76278267827879,-0.003658630351806,6.9638992345438,-0.024827691585257,-0.13568260068925,-0.261023276907768,0.263398095380636,0.066998049537207,-1.62814390526679,1.51143347446825,14.3308241223341,-2.22854866758358
-6.38690937652973,6.25708109015571,0.110414533378194,0.001862791176566,0.0156744053334,2.39203503762526,-5.08059151306584,4.76278267827879,-0.003658630351806,6.9638992345438,-0.024827691585257,-0.13568260068925,-0.261023276907768,0.263398095380636,-0.010984505526722,0,0,0.055000000000007,-6.66345382203762,6.51755949612438,0.110209437806129,0.000929023255974,0.016332923474955,2.38619018049992,-4.98401280682468,4.71404918629101,-0.011751627690739,6.86020572503076,-0.0148593276614,-0.326398940291525,-0.182209621599766,0.400951845240178,-0.016977598556226,-1.88533653660032,0.18124298043375,2.50097727017317,1.93218417366365
-6.66345382203762,6.51755949612438,0.110209437806129,0.000929023255974,0.016332923474955,2.38619018049992,-4.98401280682468,4.71404918629101,-0.011751627690739,6.86020572503076,-0.0148593276614,-0.326398940291525,-0.182209621599766,0.400951845240178,-0.011416080407798,0,0,0.075000000000003,-7.03360412883598,6.86759659004551,0.109901371949348,-0.000787565694751,0.016637475765164,2.38257180549553,-4.87048054311918,4.6398214366856,0.000477194596848,6.72676138188947,-0.014317693606352,0.264161592853523,0.056627545999623,0.166232745198842,-0.022887852676327,-1.77925790855053,0.007221787400636,-3.12958800055102,0.64326666744795
-7.03360412883598,6.86759659004551,0.109901371949348,-0.000787565694751,0.016637475765164,2.38257180549553,-4.87048054311918,4.6398214366856,0.000477194596848,6.72676138188947,-0.014317693606352,0.264161592853523,0.056627545999623,0.166232745198842,-0.012741631828249,0,0,0.074999999999989,-7.39588259295183,7.21100390197,0.109890245099,-0.000288272009709,0.016736466026135,2.38038570786422,-4.78818006293815,4.52508980898423,-0.001795911894163,6.58804933914466,0.026683318514684,-0.699348782099906,-0.462357181020414,0.079114642774252,0.006657249133891,-1.84949390326442,0.546680161613893,-1.16157469899471,0.388639578898835
-7.39588259295183,7.21100390197,0.109890245099,-0.000288272009709,0.016736466026135,2.38038570786422,-4.78818006293815,4.52508980898423,-0.001795911894163,6.58804933914466,0.026683318514684,-0.699348782099906,-0.462357181020414,0.079114642774252,-0.025257304310799,0,0,0.035000000000011,-7.56234857110968,7.36904810713678,0.109985319534832,-0.000877533445397,0.016879921462434,2.38375662160307,-4.74890535992462,4.48612337791661,0.009006051840024,6.53279202524382,0.005782241903486,-0.360476374728528,-0.472015166564077,-0.048682717047045,-0.016836041019659,-1.57878039716631,-0.597173617462619,-3.65135313775022,-2.75176631742344
-7.56234857110968,7.36904810713678,0.109985319534832,-0.000877533445397,0.016879921462434,2.38375662160307,-4.74890535992462,4.48612337791661,0.009006051840024,6.53279202524382,0.005782241903486,-0.360476374728528,-0.472015166564077,-0.048682717047045,-0.031977541744709,0,0,0.034999999999997,-7.72784705773016,7.52507769257269,0.11008164435565,-8.59336434938431E-05,0.015911223283203,2.3877377589557,-4.7296267900236,4.42437890641119,0.002231332672498,6.4764468541956,0.011594187562464,-0.33593557694254,-0.030108384595603,0.218016500896879,0.022617137197246,-1.60986202994946,0.166055590256538,7.61997765554142,-3.24990804296259
-7.72784705773016,7.52507769257269,0.11008164435565,-8.59336434938431E-05,0.015911223283203,2.3877377589557,-4.7296267900236,4.42437890641119,0.002231332672498,6.4764468541956,0.011594187562464,-0.33593557694254,-0.030108384595603,0.218016500896879,-0.129914209246635,0,0,0.040000000000006,-7.91607122328279,7.70074963551258,0.110117297343529,1.09289501886539E-05,0.015885836084635,2.38926125203994,-4.67994728147136,4.3754603128485,-0.004319306893481,6.40675793944183,0.003494576161865,0.40555080926362,1.027625075637,-0.222637678759577,0.002421564842062,-1.74222286884393,-0.202490285014946,-11.0163544914097,-0.952183177649037
-7.91607122328279,7.70074963551258,0.110117297343529,1.09289501886539E-05,0.015885836084635,2.38926125203994,-4.67994728147136,4.3754603128485,-0.004319306893481,6.40675793944183,0.003494576161865,0.40555080926362,1.027625075637,-0.222637678759577,-0.315953820943832,0,0,0.024999999999992,-8.0331348020228,7.80906650118779,0.110101396855037,0.003968987579357,0.015092592734616,2.3944681627688,-4.68988644582333,4.30235597345871,0.004578323768207,6.36430437739687,0.030521941619544,0.053655555973585,0.109320386200297,-0.03128740862621,0.158322345166785,-1.69814248179884,1.08109461830755,7.65401080533733,-8.33105716617837
-8.0331348020228,7.80906650118779,0.110101396855037,0.003968987579357,0.015092592734616,2.3944681627688,-4.68988644582333,4.30235597345871,0.004578323768207,6.36430437739687,0.030521941619544,0.053655555973585,0.109320386200297,-0.03128740862621,-0.350818902254105,0,0,0.070000000000007,-8.36146178271055,8.10334500930354,0.110052533624056,0.004318698303574,0.016315467541261,2.41530028266086,-4.69450913846224,4.09886834021328,-0.000534232829476,6.23187876418708,0.053148753346868,0.208080878843917,-0.130303816932459,-0.250072333190034,0.004995867488815,-1.89179447442533,0.323240167533157,-3.12549892234002,-4.25145303919589
-8.36146178271055,8.10334500930354,0.110052533624056,0.004318698303574,0.016315467541261,2.41530028266086,-4.69450913846224,4.09886834021328,-0.000534232829476,6.23187876418708,0.053148753346868,0.208080878843917,-0.130303816932459,-0.250072333190034,-0.361577451229095,0,0,0.034999999999997,-8.52609206623394,8.24494822054726,0.110191707151261,0.006061504590086,0.016500819117146,2.42644652088568,-4.70843442472994,3.9886404600577,0.008065195490937,6.17031811962476,0.076037847297558,0.000402361076986,-0.337085149310042,-0.380683955238719,0.049794465328908,-1.7588755589238,0.653974112876922,-3.7317606299628,-9.09896997944737
-8.52609206623394,8.24494822054726,0.110191707151261,0.006061504590086,0.016500819117146,2.42644652088568,-4.70843442472994,3.9886404600577,0.008065195490937,6.17031811962476,0.076037847297558,0.000402361076986,-0.337085149310042,-0.380683955238719,-0.444748073816299,0,0,0.039999999999992,-8.7150709641636,8.40138494163189,0.110477881559145,0.022228269865478,0.016889799731813,2.45802048355569,-4.7570460065286,3.81585922367007,0.017787464506382,6.09820989751033,0.045873401930468,0.128859909852339,0.080714678378255,-1.05665268961318,0.404169131884884,-1.80270555286093,-0.754111134177388,-16.899218359365,-19.7337266687631
-8.7150709641636,8.40138494163189,0.110477881559145,0.022228269865478,0.016889799731813,2.45802048355569,-4.7570460065286,3.81585922367007,0.017787464506382,6.09820989751033,0.045873401930468,0.128859909852339,0.080714678378255,-1.05665268961318,-0.451005935668945,0,0,0.035000000000011,-8.88265876545565,8.53149724936017,0.111112075521856,0.036487154533078,0.016665111209907,2.49636054330918,-4.82541680093689,3.61328400571185,0.018059549677763,6.02828681047487,0.015057866775881,0.520833064546205,0.50077391725941,-1.17411932197081,0.40739670478845,-1.99780248672701,-0.880443861559354,-3.35618949593107,-31.2980079620162
-8.88265876545565,8.53149724936017,0.111112075521856,0.036487154533078,0.016665111209907,2.49636054330918,-4.82541680093689,3.61328400571185,0.018059549677763,6.02828681047487,0.015057866775881,0.520833064546205,0.50077391725941,-1.17411932197081,-0.449649542570114,0,0,0.030000000000001,-9.0287468552764,8.63649640253814,0.11184154240869,0.051969683052568,0.016999835727711,2.53481060580244,-4.92185376045592,3.38440778089543,0.027345676564886,5.97312040937602,0.026325686986127,-0.004831124815309,-0.193626884696192,-1.4753787701541,0.516084283982992,-1.83888003662829,0.375594007008159,-10.0419816061094,-42.7222916591745
-9.0287468552764,8.63649640253814,0.11184154240869,0.051969683052568,0.016999835727711,2.53481060580244,-4.92185376045592,3.38440778089543,0.027345676564886,5.97312040937602,0.026325686986127,-0.004831124815309,-0.193626884696192,-1.4753787701541,-0.451005935668945,0.002383834682405,0,0.039999999999992,-9.22777015815023,8.76532286521352,0.112915763077226,0.062499656284346,0.016040490496659,2.5916554769104,-5.04266278246244,3.05920363402687,0.009959498155005,5.89800207662617,0.027318788194345,-0.050944649579744,0.234546438315285,-1.66515812547948,0.263249330794491,-1.87795831874651,0.024827530205467,-4.74448388313542,-35.5280444424891
-9.22777015815023,8.76532286521352,0.112915763077226,0.062499656284346,0.016040490496659,2.5916554769104,-5.04266278246244,3.05920363402687,0.009959498155005,5.89800207662617,0.027318788194345,-0.050944649579744,0.234546438315285,-1.66515812547948,-0.451529979705811,0.00583643373102,0,0.015000000000001,-9.3036280432873,8.81030032923501,0.113010236727421,0.063725191105485,0.016508820358953,2.61290078199908,-5.07437631401026,2.92688544887847,0.006099691321345,5.85789316268643,0.032266106000893,0.473377312124554,0.208658623088919,-1.40724043460278,0.081702321409278,-2.67392759598256,0.329821187103143,17.1945127251127,-94.4235781718825
-9.3036280432873,8.81030032923501,0.113010236727421,0.063725191105485,0.016508820358953,2.61290078199908,-5.07437631401026,2.92688544887847,0.006099691321345,5.85789316268643,0.032266106000893,0.473377312124554,0.208658623088919,-1.40724043460278,-0.450111955404282,0.004110134206712,0,0.064999999999998,-9.63867323625575,8.98304237331291,0.112667409222075,0.070220016283585,0.015479527059541,2.70180619348641,-5.22860246150284,2.36760662014334,-0.002151468834313,5.73906188471814,0.083746591307182,-0.065684289692307,-0.151206713866259,-1.47424066871097,0.099920387355384,-1.82817350720454,0.79200746625063,-1.03077283243371,-21.0427009437483
-9.63867323625575,8.98304237331291,0.112667409222075,0.070220016283585,0.015479527059541,2.70180619348641,-5.22860246150284,2.36760662014334,-0.002151468834313,5.73906188471814,0.083746591307182,-0.065684289692307,-0.151206713866259,-1.47424066871097,-0.450111955404282,0.003246984444559,0,0.040000000000006,-9.84886678905314,9.0711069046501,0.112321522363678,0.064586946874354,0.014501735575796,2.75632729045201,-5.28488014873231,2.03116239740761,-0.007815004202702,5.66081288748405,0.103809074757389,-0.262472711318171,-0.316938003261575,-1.15505059099364,-0.140826735230759,-1.956224930852,0.501562086255097,7.97975194293184,-34.0756856034937
-9.84886678905314,9.0711069046501,0.112321522363678,0.064586946874354,0.014501735575796,2.75632729045201,-5.28488014873231,2.03116239740761,-0.007815004202702,5.66081288748405,0.103809074757389,-0.262472711318171,-0.316938003261575,-1.15505059099364,-0.448323994874954,0.00583643373102,0,0.034999999999997,-10.0341605155461,9.13680724897439,0.112275269908584,0.068323828911661,0.014810111601041,2.80791514342415,-5.30986774237915,1.71382540286008,0.00343841979778,5.57831009192719,0.119789278946292,0.476685213324507,0.094446083352076,-1.31929442084117,0.106768058208797,-2.35722273019621,0.456577262540156,-4.69268085278704,-42.1125330384856
-10.0341605155461,9.13680724897439,0.112275269908584,0.068323828911661,0.014810111601041,2.80791514342415,-5.30986774237915,1.71382540286008,0.00343841979778,5.57831009192719,0.119789278946292,0.476685213324507,0.094446083352076,-1.31929442084117,-0.445642054080963,0.005250724963844,0,0.034999999999997,-10.2203322246419,9.19202961817179,0.112400315328974,0.063990975412412,0.016552387411694,2.86190729695999,-5.32081801513799,1.43424500130937,0.003640399071615,5.50999148715849,0.09031547729462,0.184183075118048,-0.405403830741672,-1.75964812680278,-0.123795814264274,-1.95196013624883,-0.842108618619308,-12.5815344560473,-44.0752273762078
-10.2203322246419,9.19202961817179,0.112400315328974,0.063990975412412,0.016552387411694,2.86190729695999,-5.32081801513799,1.43424500130937,0.003640399071615,5.50999148715849,0.09031547729462,0.184183075118048,-0.405403830741672,-1.75964812680278,-0.340091168880463,0.004110134206712,0,0.040000000000006,-10.4333737394447,9.24229610775649,0.112458683690625,0.062310888072232,0.015805032548528,2.92612981991335,-5.32676637392083,1.08602988078492,-0.000828091006982,5.4357911948273,0.077942225586375,-0.113650179619786,-0.421728578089382,-1.8509250425367,-0.042002183504482,-1.85500730827934,-0.309331292706063,-2.28192289334763,-40.139076845837
-10.4333737394447,9.24229610775649,0.112458683690625,0.062310888072232,0.015805032548528,2.92612981991335,-5.32676637392083,1.08602988078492,-0.000828091006982,5.4357911948273,0.077942225586375,-0.113650179619786,-0.421728578089382,-1.8509250425367,-0.148718550801277,0.00583643373102,0,0.034999999999997,-10.6195568030739,9.27503194437481,0.112711500915289,0.066388233135917,0.015505201171518,2.98284422257774,-5.31703213612397,0.780914135586394,-0.001230993438176,5.37362414217485,0.069434878621871,0.01252255845759,-0.413197698089279,-1.62413538217054,0.116495573248131,-1.77620150435576,-0.243067056128705,6.47970458189105,-46.2974715627711
-10.6195568030739,9.27503194437481,0.112711500915289,0.066388233135917,0.015505201171518,2.98284422257774,-5.31703213612397,0.780914135586394,-0.001230993438176,5.37362414217485,0.069434878621871,0.01252255845759,-0.413197698089279,-1.62413538217054,-0.070880934596062,0.005158244632185,0,0.045000000000002,-10.8578746338328,9.30261290665622,0.112440377839891,0.058995325607444,0.015641007716085,3.05171297777429,-5.28147706556767,0.435504294560348,-0.013118083580891,5.29924890084763,0.040312176360893,-0.238799257297511,0.760971426829148,-1.32848031623773,-0.164286833966051,-1.65278314060499,-0.647171161355051,6.57011257628448,-34.0092618254537
-10.8578746338328,9.30261290665622,0.112440377839891,0.058995325607444,0.015641007716085,3.05171297777429,-5.28147706556767,0.435504294560348,-0.013118083580891,5.29924890084763,0.040312176360893,-0.238799257297511,0.760971426829148,-1.32848031623773,-0.044924788177013,0.005158244632185,0,0.045000000000002,-11.094202555713,9.31571074752386,0.112072805908944,0.046121164715044,0.015440124716574,3.09096192754429,-5.21962670393994,0.151832224337674,-0.011085276553683,5.22062204544454,0.112522937433537,0.110847967590574,0.012516935113646,-0.495442549526613,-0.286092464275548,-1.74726345340177,1.60468357939204,18.5119503713574,-19.3821974172826
-11.094202555713,9.31571074752386,0.112072805908944,0.046121164715044,0.015440124716574,3.09096192754429,-5.21962670393994,0.151832224337674,-0.011085276553683,5.22062204544454,0.112522937433537,0.110847967590574,0.012516935113646,-0.495442549526613,-0.038697779178619,0.005158244632185,0,0.030000000000001,-11.2502732697584,9.31839590243672,0.111579330983656,0.024284491449913,0.015691949289806,3.09689456562198,-5.18191878907418,0.052299652075948,-0.027558099442015,5.17908003980115,0.179297327086903,0.001748840185347,-1.09404784911514,0.112739358712561,-0.72788910883766,-1.38473352144629,2.22581298844542,20.2727302746384,-6.59182008632402
-11.2502732697584,9.31839590243672,0.111579330983656,0.024284491449913,0.015691949289806,3.09689456562198,-5.18191878907418,0.052299652075948,-0.027558099442015,5.17908003980115,0.179297327086903,0.001748840185347,-1.09404784911514,0.112739358712561,-0.032409116625786,0.005158244632185,0,0.015000000000001,-11.3277975652284,9.3190929381533,0.111091322525258,0.008789443834161,0.016176841927698,3.09619807073272,-5.15576866054971,0.045692103880485,-0.039476136200859,5.15253087026829,0.188318560943679,-0.078383741068125,-0.209857399167391,0.021046871753496,-1.03300317438345,-1.7699446355241,0.601415590451723,-6.11283246393745,3.09553284112493
-11.3277975652284,9.3190929381533,0.111091322525258,0.008789443834161,0.016176841927698,3.09619807073272,-5.15576866054971,0.045692103880485,-0.039476136200859,5.15253087026829,0.188318560943679,-0.078383741068125,-0.209857399167391,0.021046871753496,-0.032409116625786,0.005158244632185,0,0.019999999999996,-11.4306085947225,9.32032178104261,0.110272802215189,-0.008533952614295,0.015472118108762,3.0927289271346,-5.12482319400731,0.097971863785999,-0.038099030604855,5.12349159945444,0.152463393143282,-0.25258904176237,-0.206499767019481,0.137132321525689,-0.866169822422959,-1.45196354069268,-1.7927583900202,5.80427248861085,8.67285899532345
-11.4306085947225,9.32032178104261,0.110272802215189,-0.008533952614295,0.015472118108762,3.0927289271346,-5.12482319400731,0.097971863785999,-0.038099030604855,5.12349159945444,0.152463393143282,-0.25258904176237,-0.206499767019481,0.137132321525689,-0.027939233928919,0.005158244632185,0,0.040000000000006,-11.634136198241,9.3267405765216,0.109452864112228,-0.000468518364215,0.016153882929943,3.10159731825182,-5.05577107260701,0.18138912158606,-0.014172984429141,5.05898072279315,0.020909290922612,-0.082947503020786,0.889730107219554,-0.709631987784246,0.201635856251961,-1.61277191653203,-3.28885255551623,-21.1691077327451,-5.5427444482644
-11.634136198241,9.3267405765216,0.109452864112228,-0.000468518364215,0.016153882929943,3.10159731825182,-5.05577107260701,0.18138912158606,-0.014172984429141,5.05898072279315,0.020909290922612,-0.082947503020786,0.889730107219554,-0.709631987784246,0,0.005158244632185,0,0.034999999999997,-11.8099588677453,9.33141646491409,0.109292950384037,0.000904497453933,0.015675672866782,3.11140567242915,-5.00336929282997,0.100959534436082,-0.001759600037585,5.00413699693762,0.050100138797424,-0.263184863626999,-0.284599731296099,0.070425934558867,0.039229023375678,-1.56696359587242,0.834024224994706,22.2873692098054,-8.00681973659617
-11.8099588677453,9.33141646491409,0.109292950384037,0.000904497453933,0.015675672866782,3.11140567242915,-5.00336929282997,0.100959534436082,-0.001759600037585,5.00413699693762,0.050100138797424,-0.263184863626999,-0.284599731296099,0.070425934558867,0,0.00713115837425,0,0.024999999999992,-11.9342948209442,9.33458481809293,0.109378185147722,-0.000445876789322,0.015936880304185,3.11328440710717,-4.95383863456409,0.141655509607639,0.005073338170028,4.9558633544536,-0.001382998884198,0.177837836614435,0.255441934941192,-0.159684173665082,-0.054014969730249,-1.93094569936149,-2.05932550726557,-9.20440432896111,-3.00597548482662
