x_pos,y_pos,z_pos,roll,pitch,yaw,u_x,u_y,u_z,comp_u_x,comp_u_y,roll_mder,pitch_mder,yaw_mder,steer,throttle,brake,time_step,act_x_pos,act_y_pos,act_z_pos,act_roll,act_pitch,act_yaw,act_u_x,act_u_y,act_u_z,act_comp_u_x,act_comp_u_y,act_roll_mder,act_pitch_mder,act_yaw_mder,accel_roll,accel_x,accel_y,accel_yaw
-0.01038585721056684,0.04936669342103635,0.1091195316405503,5.86081081700013e-05,-0.019528488891338847,2.3566779818800025,-0.2702505401587531,0.2705937893144123,-0.002509607343994604,0.3824345308868922,-0.0004276177651371116,0.11396717721301655,-0.08759726795666656,-0.012792425365010737,-0.014560411684215069,1.0,0.0,0.02499999999999991,-0.01852819472890843,0.05737946270230435,0.10915116301057154,1.5190290803241676e-05,-0.021010343898473432,2.356956652181014,-0.37583772170592583,0.3673048902967584,0.004186254585272834,0.5254856263097947,0.005633119457067404,0.01627578207295513,-0.022310190419308897,-0.019305080993709693,-0.0017367126946703912,5.722043816916118,0.24242948888818147,-0.011146812040454574
-0.01852819472890843,0.05737946270230435,0.10915116301057154,1.5190290803241676e-05,-0.021010343898473432,2.356956652181014,-0.37583772170592583,0.3673048902967584,0.004186254585272834,0.5254856263097947,0.005633119457067404,0.01627578207295513,-0.022310190419308897,-0.019305080993709693,-0.016317538917064667,1.0,0.0,0.030000000000000027,-0.03167959643479534,0.07017061977735625,0.1093310729910536,2.4540809933701455e-05,-0.021374250924231796,2.357918236149904,-0.4979609082428717,0.47960048626909946,0.007086389516100722,0.6912616431462,0.011791237527840559,-0.013083824904627972,0.02834617203779383,-0.06317332340461138,0.0003116839710153257,5.5258672278801715,0.205270602359105,-0.03205279896299667
-0.03167959643479534,0.07017061977735625,0.1093310729910536,2.4540809933701455e-05,-0.021374250924231796,2.357918236149904,-0.4979609082428717,0.47960048626909946,0.007086389516100722,0.6912616431462,0.011791237527840559,-0.013083824904627972,0.02834617203779383,-0.06317332340461138,-0.015423561446368694,1.0,0.0,0.015000000000000124,-0.03964357004253749,0.07784699531994471,0.10943968764289633,4.69244386224923e-06,-0.021591440727240133,2.35866523445404,-0.559317228665151,0.5391358062645923,0.00702640472893412,0.7767564775544289,0.012351293676083008,0.017900049462180524,-0.02555611131139385,-0.04724568678339313,-0.0013232244047634706,5.699655627215214,0.03733707654949631,-0.049799886942410214
-0.03964357004253749,0.07784699531994471,0.10943968764289633,4.69244386224923e-06,-0.021591440727240133,2.35866523445404,-0.559317228665151,0.5391358062645923,0.00702640472893412,0.7767564775544289,0.012351293676083008,0.017900049462180524,-0.02555611131139385,-0.04724568678339313,-0.014991986565291882,1.0,0.0,0.03499999999999992,-0.0618631573267141,0.0989980997449289,0.10964802209342758,3.7042268830649855e-05,-0.021501344154859565,2.361541099218454,-0.7055036932957713,0.6670518464520214,0.004416958864541298,0.970674828920522,0.022000082025759815,-0.05760801854120464,0.1230044408282263,-0.13460764600297498,0.0009242807133828771,5.540524324745531,0.2756796671336237,-0.08216756469753778
-0.0618631573267141,0.0989980997449289,0.10964802209342758,3.7042268830649855e-05,-0.021501344154859565,2.361541099218454,-0.7055036932957713,0.6670518464520214,0.004416958864541298,0.970674828920522,0.022000082025759815,-0.05760801854120464,0.1230044408282263,-0.13460764600297498,-0.013666435144841671,1.0,0.0,0.025000000000000133,-0.08093743066234538,0.11677415102357991,0.1097212600858167,1.2146627728821578e-05,-0.021450926999066488,2.364726999367582,-0.8136103727978005,0.7529730791409248,0.001520789804709398,1.1080673028590005,0.03342377851053524,-0.040749662806822205,-0.006099161125391125,-0.11663252681880634,-0.0009958256440731257,5.4956989575391075,0.45694785939101457,-0.12743600596513294
-0.08093743066234538,0.11677415102357991,0.1097212600858167,1.2146627728821578e-05,-0.021450926999066488,2.364726999367582,-0.8136103727978005,0.7529730791409248,0.001520789804709398,1.1080673028590005,0.03342377851053524,-0.040749662806822205,-0.006099161125391125,-0.11663252681880634,-0.014991986565291882,1.0,0.0,0.019999999999999796,-0.09811535601883392,0.13259025166207272,0.10973392786629224,8.729844396534848e-05,-0.021450680824414897,2.3678850692913427,-0.8980527039804345,0.8247841639014419,-0.0003853199191399953,1.2187520452965754,0.03756365576703713,-0.03236896347580519,-0.0071334276032202415,-0.13454320839181427,0.003757590811826384,5.534237121878806,0.20699386282509658,-0.1579034961880293
-0.09811535601883392,0.13259025166207272,0.10973392786629224,8.729844396534848e-05,-0.021450680824414897,2.3678850692913427,-0.8980527039804345,0.8247841639014419,-0.0003853199191399953,1.2187520452965754,0.03756365576703713,-0.03236896347580519,-0.0071334276032202415,-0.13454320839181427,-0.0127416318282485,1.0,0.0,0.020000000000000018,-0.11699042933200765,0.14983464436150948,0.10971607240467085,-1.4870284809389609e-06,-0.021513798484086733,2.3713711772654453,-0.9810434611036453,0.8997104259737646,-0.0013852430997634592,1.3306134668742522,0.03732190982513628,-0.0908023694312195,0.015148107593919182,-0.16415648051158846,-0.004439273622314368,5.593071078883833,-0.012087297095042516,-0.17430539870513223
-0.11699042933200765,0.14983464436150948,0.10971607240467085,-1.4870284809389609e-06,-0.021513798484086733,2.3713711772654453,-0.9810434611036453,0.8997104259737646,-0.0013852430997634592,1.3306134668742522,0.03732190982513628,-0.0908023694312195,0.015148107593919182,-0.16415648051158846,-0.00916572567075491,1.0,0.0,0.030000000000000027,-0.14836958167073888,0.17850776878479677,0.10966157952535746,0.0002994979340884987,-0.021450620893274014,2.3771261614094037,-1.1104773491052005,1.004002343698045,-0.001679607099166966,1.4964112135912155,0.04397873196609914,-0.034320586743309144,0.05028021817186575,-0.26159550938958437,0.010032832085647913,5.5265915572321065,0.22189407136542844,-0.19183280479861195
-0.14836958167073888,0.17850776878479677,0.10966157952535746,0.0002994979340884987,-0.021450620893274014,2.3771261614094037,-1.1104773491052005,1.004002343698045,-0.001679607099166966,1.4964112135912155,0.04397873196609914,-0.034320586743309144,0.05028021817186575,-0.26159550938958437,-0.011847655288875103,1.0,0.0,0.040000000000000036,-0.1962968440205639,0.22156179213994953,0.10959583573365875,8.643288706273882e-05,-0.02154769201398806,2.385802931545911,-1.2819848156311833,1.1441018472624698,-0.001231818781630159,1.7176367715602336,0.04666931971276744,0.08580788710878641,-0.14935091898855873,-0.15837742830081547,-0.0053266261756439925,5.530638949225447,0.06726469366670756,-0.21691925341268384
-0.1962968440205639,0.22156179213994953,0.10959583573365875,8.643288706273882e-05,-0.02154769201398806,2.385802931545911,-1.2819848156311833,1.1441018472624698,-0.001231818781630159,1.7176367715602336,0.04666931971276744,0.08580788710878641,-0.14935091898855873,-0.15837742830081547,-0.013666435144841671,1.0,0.0,0.020000000000000018,-0.22281309979754305,0.24522703756519723,0.10958024045899298,-2.0563831826765118e-06,-0.02161943855062655,2.3894370252888524,-1.3653512762030222,1.2185045248387436,-0.00043766648346380693,1.8295036865940435,0.04305398030981167,-0.0061554727997245266,-0.029707880391203693,-0.16227460824770326,-0.004424463512270763,5.593345751690488,-0.18076697014778859,-0.18170468714706606
-0.22281309979754305,0.24522703756519723,0.10958024045899298,-2.0563831826765118e-06,-0.02161943855062655,2.3894370252888524,-1.3653512762030222,1.2185045248387436,-0.00043766648346380693,1.8295036865940435,0.04305398030981167,-0.0061554727997245266,-0.029707880391203693,-0.16227460824770326,-0.015423561446368694,1.0,0.0,0.02499999999999991,-0.25836692051596977,0.2768120999472771,0.10957980204211779,0.00032885654901226706,-0.021494262602343665,2.394511134372813,-1.481064743560979,1.2974979546570107,0.0002550681247211195,1.9682707545879987,0.05444220414406875,-0.07791674391459513,-0.035812181913607265,-0.16591689877026392,0.01323651728779779,5.550682719758228,0.45552895337028493,-0.20296436335842288
-0.25836692051596977,0.2768120999472771,0.10957980204211779,0.00032885654901226706,-0.021494262602343665,2.394511134372813,-1.481064743560979,1.2974979546570107,0.0002550681247211195,1.9682707545879987,0.05444220414406875,-0.07791674391459513,-0.035812181913607265,-0.16591689877026392,0.0,1.0,0.0,0.03500000000000014,-0.3129577213521202,0.32443775383279466,0.1096029669333963,0.0004589667683235905,-0.021613479102663046,2.402625876662195,-1.6352514508927334,1.4193149284390327,0.0007048413141669749,2.1646638475708824,0.05227428389093558,0.027362313251825445,0.08438602116001123,-0.2943197123967008,0.003717434837466369,5.611231228082367,-0.06194057866094749,-0.2318497796966252
-0.3129577213521202,0.32443775383279466,0.1096029669333963,0.0004589667683235905,-0.021613479102663046,2.402625876662195,-1.6352514508927334,1.4193149284390327,0.0007048413141669749,2.1646638475708824,0.05227428389093558,0.027362313251825445,0.08438602116001123,-0.2943197123967008,0.03795793652534485,1.0,0.0,0.029999999999999805,-0.3642618042589305,0.36838791230457707,0.10963157504998003,0.0005762491757675634,-0.021425503467468895,2.4105027130612307,-1.7801997210242528,1.506600228191913,0.001048469909332883,2.331193542028646,0.06702211520601531,0.0636917099756721,0.06736851151531138,-0.37172344291853954,0.003909413581465788,5.550989815258817,0.4915943771693275,-0.26256121330119514
-0.3642618042589305,0.36838791230457707,0.10963157504998003,0.0005762491757675634,-0.021425503467468895,2.4105027130612307,-1.7801997210242528,1.506600228191913,0.001048469909332883,2.331193542028646,0.06702211520601531,0.0636917099756721,0.06736851151531138,-0.37172344291853954,0.28928864002227783,1.0,0.0,0.020000000000000018,-0.40071072261719287,0.39926584772633544,0.10964229947170653,4.0492313707142175e-06,-0.02145831973555765,2.4151733729327702,-1.8557483715339762,1.586059961899666,-8.649190819126629e-05,2.44073503576098,0.04691168725403294,0.033337465147235686,-0.04466865185038283,-0.1910668718474385,-0.02860999721984243,5.4770746866167075,-1.0055213975991175,-0.23353299357697901
-0.40071072261719287,0.39926584772633544,0.10964229947170653,4.0492313707142175e-06,-0.02145831973555765,2.4151733729327702,-1.8557483715339762,1.586059961899666,-8.649190819126629e-05,2.44073503576098,0.04691168725403294,0.033337465147235686,-0.04466865185038283,-0.1910668718474385,0.3943771421909332,1.0,0.0,0.04499999999999993,-0.48864892119861736,0.4740985238175021,0.10963879329264622,-1.0655043456297436e-05,-0.02141697434895791,2.423423248807345,-2.0381476292617466,1.750021798740828,-0.0004997146797057275,2.686275821934546,0.023329449698606064,0.11739309208198112,-0.07460662855733666,-0.11295562219487772,-0.0003267616628224817,5.4564619149681395,-0.5240497234539314,-0.18333057499055183
-0.48864892119861736,0.4740985238175021,0.10963879329264622,-1.0655043456297436e-05,-0.02141697434895791,2.423423248807345,-2.0381476292617466,1.750021798740828,-0.0004997146797057275,2.686275821934546,0.023329449698606064,0.11739309208198112,-0.07460662855733666,-0.11295562219487772,0.4238167107105255,1.0,0.0,0.040000000000000036,-0.5725321787444315,0.5479652946236749,0.1096628396505101,-0.005777308879497565,-0.020932367597028583,2.4170699795656994,-2.1468774845129848,1.9485493140096795,0.003081673922828515,2.8990717185340373,-0.036201290481091775,-0.3128121746946319,-0.07496225938098187,0.4343839438962648,-0.14416634590103156,5.31989741498728,-1.4882685044924446,0.15883173104114232
-0.5725321787444315,0.5479652946236749,0.1096628396505101,-0.005777308879497565,-0.020932367597028583,2.4170699795656994,-2.1468774845129848,1.9485493140096795,0.003081673922828515,2.8990717185340373,-0.036201290481091775,-0.3128121746946319,-0.07496225938098187,0.4343839438962648,0.2942209243774414,1.0,0.0,0.040000000000000036,-0.65986946763456,0.6309219418522181,0.10992222411991662,-0.010277713006222804,-0.02089278748142005,2.396959658057524,-2.2162215104279803,2.1890620144503656,0.007584065728002437,3.1132006197623965,-0.1077598603571921,-0.08281112627589787,0.1541872784911279,0.5514473983899628,-0.11251010316813088,5.353222530708974,-1.7889642469025064,0.5027580377043868
-0.65986946763456,0.6309219418522181,0.10992222411991662,-0.010277713006222804,-0.02089278748142005,2.396959658057524,-2.2162215104279803,2.1890620144503656,0.007584065728002437,3.1132006197623965,-0.1077598603571921,-0.08281112627589787,0.1541872784911279,0.5514473983899628,0.05364876613020897,1.0,0.0,0.03000000000000025,-0.7274046086951396,0.6991551853845089,0.11006410965146471,-0.0073742224337811895,-0.020958378059001956,2.3819862607486475,-2.286042911180265,2.351607935879299,0.0013871817122938362,3.277028086017389,-0.13091600093666766,-0.13237304626512306,0.255206313488652,0.48413076951197354,0.09678301908138635,5.460915541833033,-0.7718713526491793,0.4991132436292081
-0.7274046086951396,0.6991551853845089,0.11006410965146471,-0.0073742224337811895,-0.020958378059001956,2.3819862607486475,-2.286042911180265,2.351607935879299,0.0013871817122938362,3.277028086017389,-0.13091600093666766,-0.13237304626512306,0.255206313488652,0.48413076951197354,0.04381502419710159,1.0,0.0,0.029999999999999805,-0.79740311463258,0.77196629035626,0.10997794281122966,0.0016896684605831626,-0.02111110024569964,2.3711936036104113,-2.3898071892278345,2.4754058814113606,-0.005608477347363125,3.4389303583079918,-0.11211899981121287,0.2751445872580254,0.01495834253911549,0.3387312321729422,0.30212969647881366,5.3967424096868,0.6265667041818305,0.35975523794120845
-0.79740311463258,0.77196629035626,0.10997794281122966,0.0016896684605831626,-0.02111110024569964,2.3711936036104113,-2.3898071892278345,2.4754058814113606,-0.005608477347363125,3.4389303583079918,-0.11211899981121287,0.2751445872580254,0.01495834253911549,0.3387312321729422,0.03694065287709236,1.0,0.0,0.029999999999999805,-0.871830776294841,0.847230706442685,0.1098406024780372,0.002261176381541609,-0.021121963699764348,2.3641345184626847,-2.555962652575968,2.541790488940359,-0.0063394929127670585,3.6046217577667274,-0.018599851224053054,-0.2025818821256108,0.20887377934513834,0.2382594349913533,0.01905026403194833,5.523046648624558,3.1173049529053474,0.235302838257554
-0.871830776294841,0.847230706442685,0.1098406024780372,0.002261176381541609,-0.021121963699764348,2.3641345184626847,-2.555962652575968,2.541790488940359,-0.0063394929127670585,3.6046217577667274,-0.018599851224053054,-0.2025818821256108,0.20887377934513834,0.2382594349913533,0.026151280850172043,1.0,0.0,0.03000000000000025,-0.9502719748040782,0.9253376776132979,0.10970335271994566,-0.003391830405912218,-0.021368299639720215,2.357051184810781,-2.646146399398333,2.6844019863229334,-0.0032217360572477094,3.7692423535466846,-0.03027988528912795,0.1100077832328226,-0.17798308741997246,0.19055218968413903,-0.18843355958179264,5.487353192665192,-0.3893344688358266,0.23611112173011842
-0.9502719748040782,0.9253376776132979,0.10970335271994566,-0.003391830405912218,-0.021368299639720215,2.357051184810781,-2.646146399398333,2.6844019863229334,-0.0032217360572477094,3.7692423535466846,-0.03027988528912795,0.1100077832328226,-0.17798308741997246,0.19055218968413903,0.025164823979139328,1.0,0.0,0.03500000000000014,-1.0444610241497294,1.0225755204719524,0.10966061730113902,0.000596395744123063,-0.021562477831452116,2.350920033436893,-2.748322182714012,2.8571388268289626,-0.002599761594061667,3.964010198483383,-0.056037863014398503,0.013673886569222677,0.4049807715757468,0.06746574712715375,0.11394931857243615,5.564795569619935,-0.7359422207220129,0.17517575353965578
-1.0444610241497294,1.0225755204719524,0.10966061730113902,0.000596395744123063,-0.021562477831452116,2.350920033436893,-2.748322182714012,2.8571388268289626,-0.002599761594061667,3.964010198483383,-0.056037863014398503,0.013673886569222677,0.4049807715757468,0.06746574712715375,0.027137737721204758,1.0,0.0,0.029999999999999805,-1.129125630449888,1.1094343863467968,0.10965553127881097,-0.0006716489846544818,-0.021448225002804484,2.3467621797886857,-2.8751115858742353,2.957680015659176,0.00047325301309898704,4.124773719380485,-0.019479993993980038,-0.0988879900230217,0.08496382077030185,0.11424765870992828,-0.04226815762591843,5.358784029903439,1.2185956340139568,0.13859512160691495
-1.129125630449888,1.1094343863467968,0.10965553127881097,-0.0006716489846544818,-0.021448225002804484,2.3467621797886857,-2.8751115858742353,2.957680015659176,0.00047325301309898704,4.124773719380485,-0.019479993993980038,-0.0988879900230217,0.08496382077030185,0.11424765870992828,0.024178367108106613,1.0,0.0,0.03500000000000014,-1.2313075045246533,1.2159191883799207,0.10970336129486793,0.0010691765900150256,-0.02147046844102094,2.3414578899632508,-2.987775438923901,3.10775216389171,0.0030879476342834805,4.310971049311707,-0.021311912322230064,-0.13193637561750737,0.026366400439978486,0.2517373707288793,0.049737873561985724,5.319923712320603,-0.05234052366428625,0.15155113786956967
-1.2313075045246533,1.2159191883799207,0.10970336129486793,0.0010691765900150256,-0.02147046844102094,2.3414578899632508,-2.987775438923901,3.10775216389171,0.0030879476342834805,4.310971049311707,-0.021311912322230064,-0.13193637561750737,0.026366400439978486,0.2517373707288793,0.0231919102370739,1.0,0.0,0.020000000000000018,-1.2920185228792755,1.278630096024201,0.10972408013800963,-0.001498572585645642,-0.02048045111872783,2.337815147799253,-3.059448715856153,3.1799816085436516,0.0008885185047301652,4.412764712627946,-0.004131176023291605,0.1852260158395414,-0.04039525801848797,-0.005109773187078724,-0.12838745878303326,5.089683165811949,0.8590368149469222,0.18213710819989776
-1.2920185228792755,1.278630096024201,0.10972408013800963,-0.001498572585645642,-0.02048045111872783,2.337815147799253,-3.059448715856153,3.1799816085436516,0.0008885185047301652,4.412764712627946,-0.004131176023291605,0.1852260158395414,-0.04039525801848797,-0.005109773187078724,0.024178367108106613,1.0,0.0,0.04999999999999982,-1.4487550635668285,1.443479143527702,0.10980530191676757,0.001776423513056504,-0.02136694229145188,2.3349969474048056,-3.24766306781496,3.373152996872889,0.002844606479904588,4.682452983479131,0.010516647242195365,0.3345709795392154,-0.60227521775845,0.1246588330607236,0.06549992197404315,5.39376541702371,0.29295646530974045,0.05636400788894511
-1.4487550635668285,1.443479143527702,0.10980530191676757,0.001776423513056504,-0.02136694229145188,2.3349969474048056,-3.24766306781496,3.373152996872889,0.002844606479904588,4.682452983479131,0.010516647242195365,0.3345709795392154,-0.60227521775845,0.1246588330607236,0.02121899649500847,1.0,0.0,0.040000000000000036,-1.5810980107826067,1.581939997598372,0.10983169324652928,-0.0004886143710333271,-0.020851391381700703,2.3328928699114546,-3.3584617711567573,3.55614205251347,5.210497053942387e-05,4.891292765807232,-0.02582334482476467,-0.10810191123165154,0.3030793203216005,-0.049636427311121854,-0.05662594710224572,5.220994558202525,-0.9084998016740001,0.05260193733377378
-1.5810980107826067,1.581939997598372,0.10983169324652928,-0.0004886143710333271,-0.020851391381700703,2.3328928699114546,-3.3584617711567573,3.55614205251347,5.210497053942387e-05,4.891292765807232,-0.02582334482476467,-0.10810191123165154,0.3030793203216005,-0.049636427311121854,0.020602460950613022,1.0,0.0,0.03000000000000025,-1.6837592493800013,1.6901116245413554,0.10984619513548607,-0.0005510756825433426,-0.02045097801498965,2.332794372206417,-3.489183307095799,3.6415361820044945,-0.00011965152368798027,5.04332036531295,0.010276584233178898,-0.39104214420666916,-0.33155965519847536,-0.08829653510198676,-0.002082043717000502,5.067586650190568,1.203330968598109,0.0032832568345852746
-1.6837592493800013,1.6901116245413554,0.10984619513548607,-0.0005510756825433426,-0.02045097801498965,2.332794372206417,-3.489183307095799,3.6415361820044945,-0.00011965152368798027,5.04332036531295,0.010276584233178898,-0.39104214420666916,-0.33155965519847536,-0.08829653510198676,0.016317538917064667,1.0,0.0,0.029999999999999805,-1.7900867468602382,1.8012494622622097,0.10984090010038106,0.0003041917507857891,-0.019718827309995215,2.332439679319059,-3.605442287798602,3.743059209073396,-0.002899831204799669,5.19702059125779,0.026140147629768684,-0.29465315811502607,0.14854693936561206,0.010435125967360785,0.028508914444304576,5.123340864828015,0.5287854465529963,0.011823096245263382
-1.7900867468602382,1.8012494622622097,0.10984090010038106,0.0003041917507857891,-0.019718827309995215,2.332439679319059,-3.605442287798602,3.743059209073396,-0.002899831204799669,5.19702059125779,0.026140147629768684,-0.29465315811502607,0.14854693936561206,0.010435125967360785,0.01536190789192915,1.0,0.0,0.029999999999999805,-1.899735728615597,1.9157879892002818,0.10981675178734798,-0.00094849292246668,-0.019466460461931612,2.3326577388180487,-3.7030039781921804,3.876660911955032,-0.004789223518619837,5.361037855364474,0.0033767049349067157,-0.8729238599410898,0.12528605725289785,0.2119970914487485,-0.04175615577508257,5.4672421368895145,-0.7587814231620705,-0.007268649966318866
-1.899735728615597,1.9157879892002818,0.10981675178734798,-0.00094849292246668,-0.019466460461931612,2.3326577388180487,-3.7030039781921804,3.876660911955032,-0.004789223518619837,5.361037855364474,0.0033767049349067157,-0.8729238599410898,0.12528605725289785,0.2119970914487485,0.01536190789192915,1.0,0.0,0.03500000000000014,-2.031603913048791,2.05361253368096,0.1097785517325951,0.00045391675608271283,-0.019294882769052443,2.334122952617984,-3.8187143313839575,4.002918713243262,0.0008920150075864552,5.532257297530914,-0.008158643653622732,0.15122846758732678,-0.20258730269350808,-0.12120122598107567,0.040068847958553915,4.8919840618982695,-0.3295813882436972,-0.04186325142671808
-2.031603913048791,2.05361253368096,0.1097785517325951,0.00045391675608271283,-0.019294882769052443,2.334122952617984,-3.8187143313839575,4.002918713243262,0.0008920150075864552,5.532257297530914,-0.008158643653622732,0.15122846758732678,-0.20258730269350808,-0.12120122598107567,0.01536190789192915,1.0,0.0,0.040000000000000036,-2.187897298600568,2.2163876659585044,0.10978661906551354,-0.0007082757282828425,-0.01988722446726494,2.3352223190697723,-3.982648675380927,4.140781946650039,0.002469041467523317,5.745214574652559,0.008665588044376005,0.1325805414594973,-0.41569609509458355,0.148046762461184,-0.029054812109138857,5.323931928041121,0.42060579244996804,-0.02748416129471074
-2.187897298600568,2.2163876659585044,0.10978661906551354,-0.0007082757282828425,-0.01988722446726494,2.3352223190697723,-3.982648675380927,4.140781946650039,0.002469041467523317,5.745214574652559,0.008665588044376005,0.1325805414594973,-0.41569609509458355,0.148046762461184,0.007501079700887203,1.0,0.0,0.02499999999999991,-2.2889269047572958,2.320928149242361,0.10979062552615029,-0.00013265908819708934,-0.019995747009419727,2.3365592080666713,-4.093260737763832,4.221790977898984,0.0007049841840539445,5.8802804918339024,0.02457367994048365,-0.07550160876147474,-0.09146711664386402,0.0024492940530980952,0.023024665603430212,5.402636687253752,0.636323675844308,-0.05347555987595972
-2.2889269047572958,2.320928149242361,0.10979062552615029,-0.00013265908819708934,-0.019995747009419727,2.3365592080666713,-4.093260737763832,4.221790977898984,0.0007049841840539445,5.8802804918339024,0.02457367994048365,-0.07550160876147474,-0.09146711664386402,0.0024492940530980952,0.007501079700887203,1.0,0.0,0.029999999999999805,-2.413129660422724,2.4494655285139055,0.10983104246148837,0.0001572952048855404,-0.01996526660463698,2.3360838564961712,-4.200571425135296,4.332161839383383,0.002782871484903207,6.034204634245029,0.028300747845323215,-0.408433907453166,0.398526153659551,0.11422773835500874,0.009665143102754386,5.13080474703758,0.12423559682798631,0.01584505235000173
-2.413129660422724,2.4494655285139055,0.10983104246148837,0.0001572952048855404,-0.01996526660463698,2.3360838564961712,-4.200571425135296,4.332161839383383,0.002782871484903207,6.034204634245029,0.028300747845323215,-0.408433907453166,0.398526153659551,0.11422773835500874,0.007501079700887203,1.0,0.0,0.03500000000000014,-2.56235199796948,2.6029598067309987,0.10993875610112716,0.0003389631634311866,-0.020286626443516604,2.334996090939896,-4.343169518116758,4.448048123166024,-0.0015120107264929572,6.21650490215287,0.05762265707757708,-0.5086012805605666,0.2912606174174431,-0.11156650203516676,0.005190513101304157,5.208579083081161,0.8377688352072498,0.0310790158935805
-2.56235199796948,2.6029598067309987,0.10993875610112716,0.0003389631634311866,-0.020286626443516604,2.334996090939896,-4.343169518116758,4.448048123166024,-0.0015120107264929572,6.21650490215287,0.05762265707757708,-0.5086012805605666,0.2912606174174431,-0.11156650203516676,0.004541709087789059,1.0,0.0,0.040000000000000036,-2.7383720799299125,2.783927728191896,0.10996958372733742,-0.0015881736960316802,-0.017797225201237447,2.33615887256525,-4.456560857150812,4.5956684300318305,-0.0037916283835793957,6.401578664303846,0.02989309301141274,-0.7245352033754848,0.11090544806981636,0.11618650333466918,-0.04817842148657163,4.626844053774399,-0.6932391016541077,-0.029069540633852562
-2.7383720799299125,2.783927728191896,0.10996958372733742,-0.0015881736960316802,-0.017797225201237447,2.33615887256525,-4.456560857150812,4.5956684300318305,-0.0037916283835793957,6.401578664303846,0.02989309301141274,-0.7245352033754848,0.11090544806981636,0.11618650333466918,0.0,1.0,0.0,0.03000000000000025,-2.873258835301857,2.9243744975958164,0.10995206827282933,0.0030861231063997905,-0.019934390804936006,2.338800343888746,-4.549749462017998,4.73647603202899,-0.0003307911970797939,6.567656228842,-0.017805304575546188,-0.032552610800118086,0.2616841643057048,-0.25904440757656033,0.15580989341438106,5.535918817938407,-1.589946586231951,-0.08804904411652938
-2.873258835301857,2.9243744975958164,0.10995206827282933,0.0030861231063997905,-0.019934390804936006,2.338800343888746,-4.549749462017998,4.73647603202899,-0.0003307911970797939,6.567656228842,-0.017805304575546188,-0.032552610800118086,0.2616841643057048,-0.25904440757656033,0.0,1.0,0.0,0.02499999999999991,-2.988535920817217,3.0432895248763576,0.10999194623457101,0.0013976670293946146,-0.018623229588624002,2.340559535561585,-4.670570505447085,4.779291096661756,-0.0018357918184337824,6.682446436284673,0.027601796478622376,-0.553981401940073,-0.2933882173775735,0.40340715513226055,-0.06753824308020728,4.5916082977069355,1.816284042166749,-0.07036766691356913
-2.988535920817217,3.0432895248763576,0.10999194623457101,0.0013976670293946146,-0.018623229588624002,2.340559535561585,-4.670570505447085,4.779291096661756,-0.0018357918184337824,6.682446436284673,0.027601796478622376,-0.553981401940073,-0.2933882173775735,0.40340715513226055,0.0,1.0,0.0,0.040000000000000036,-3.1777773143501555,3.237615823858429,0.11002188589186515,-0.0017138042407214735,-0.018998979819831372,2.3400738824238267,-4.781697615116532,4.950023947663073,-0.00211248404811476,6.882390852205058,-0.00808222328320074,-0.3559849835162795,0.05534218543012812,-0.0723176521556376,-0.07778678175290213,4.998610398009613,-0.8921004940455771,0.012141328443959754
-3.1777773143501555,3.237615823858429,0.11002188589186515,-0.0017138042407214735,-0.018998979819831372,2.3400738824238267,-4.781697615116532,4.950023947663073,-0.00211248404811476,6.882390852205058,-0.00808222328320074,-0.3559849835162795,0.05534218543012812,-0.0723176521556376,0.0,0.0697711706161499,0.0,0.040000000000000036,-3.3712756008545925,3.437853753178352,0.11008697393368191,0.0009817262519374189,-0.005512115895805801,2.340534105988195,-4.875528902602483,5.022947969205131,-0.0003013476734108414,7.000054246295729,0.0053786960547475005,-0.3089549790881538,1.3777081821396684,-0.24531941886309305,0.06738826231647226,2.941584852266785,0.33652298344870574,-0.011505589109206394
-3.3712756008545925,3.437853753178352,0.11008697393368191,0.0009817262519374189,-0.005512115895805801,2.340534105988195,-4.875528902602483,5.022947969205131,-0.0003013476734108414,7.000054246295729,0.0053786960547475005,-0.3089549790881538,1.3777081821396684,-0.24531941886309305,0.0,-0.0,0.0,0.06499999999999995,-3.6853748295657507,3.76162833229967,0.11046838523375704,-0.00206638557244939,0.015879118527572227,2.3365969747100848,-4.796355642984879,4.931418248676712,0.01051038346767541,6.8791255403275215,0.03930900390697589,-1.1281179905471463,-0.6250580067107195,0.31228178401874573,-0.04689402806748941,-1.8604416302801183,0.5220047361881295,0.06057125043246527
-3.6853748295657507,3.76162833229967,0.11046838523375704,-0.00206638557244939,0.015879118527572227,2.3365969747100848,-4.796355642984879,4.931418248676712,0.01051038346767541,6.8791255403275215,0.03930900390697589,-1.1281179905471463,-0.6250580067107195,0.31228178401874573,0.0,-0.004325921647250652,0.004325921647250652,0.07499999999999973,-4.039610472427419,4.129922421774617,0.1102825437577997,0.005440691152855677,0.017385280856744612,2.3409692921502736,-4.70379352245614,4.8362469922924545,0.005839661398217205,6.746471409915543,0.009054697694068192,-0.22908141531058324,-0.297997862735061,0.16915561094868115,0.10009435633740126,-1.7687217388263876,-0.4033907495054374,-0.058297565869184796
-4.039610472427419,4.129922421774617,0.1102825437577997,0.005440691152855677,0.017385280856744612,2.3409692921502736,-4.70379352245614,4.8362469922924545,0.005839661398217205,6.746471409915543,0.009054697694068192,-0.22908141531058324,-0.297997862735061,0.16915561094868115,0.0,-0.006113874725997448,0.006113874725997448,0.03500000000000014,-4.203689508372992,4.2983498742001975,0.11005306703446352,-0.0020546270035745034,0.017199528558364686,2.337511971890602,-4.645061167874606,4.80925070983911,-0.007709146021925267,6.686210288920293,0.00880997848994669,-0.10537754623018335,0.01346152873575019,0.13411918505973738,-0.21415194732657572,-1.7217463141499914,-0.0069919772606143096,0.09878057884776287
-4.203689508372992,4.2983498742001975,0.11005306703446352,-0.0020546270035745034,0.017199528558364686,2.337511971890602,-4.645061167874606,4.80925070983911,-0.007709146021925267,6.686210288920293,0.00880997848994669,-0.10537754623018335,0.01346152873575019,0.13411918505973738,0.0,-0.006113874725997448,0.006113874725997448,0.06000000000000005,-4.480889931366575,4.583418727063771,0.10986563090793028,-0.003307309599226454,0.017187082934920505,2.333627850397234,-4.550412179112801,4.7362282463914855,0.001353013932792288,6.567939267111404,0.016816220466849607,0.7034836267497846,0.682386945590158,-0.19859846977406997,-0.020878043260865828,-1.9711836968148138,0.13343736628171515,0.06473535822280047
-4.480889931366575,4.583418727063771,0.10986563090793028,-0.003307309599226454,0.017187082934920505,2.333627850397234,-4.550412179112801,4.7362282463914855,0.001353013932792288,6.567939267111404,0.016816220466849607,0.7034836267497846,0.682386945590158,-0.19859846977406997,0.0,-0.006113874725997448,0.006113874725997448,0.015000000000000124,-4.548996821232287,4.654392655216989,0.10986254584670321,0.0011071912312464777,0.017594306551023325,2.33908810210569,-4.530786502909316,4.723682148664087,-0.0004459300871495764,6.5452732578833155,-0.0244408713127493,0.05240485102797161,-0.14831124713575472,-0.2904920107531191,0.2943000553648597,-1.5110672818725601,-2.750472785306571,-0.3640167805637369
-4.548996821232287,4.654392655216989,0.10986254584670321,0.0011071912312464777,0.017594306551023325,2.33908810210569,-4.530786502909316,4.723682148664087,-0.0004459300871495764,6.5452732578833155,-0.0244408713127493,0.05240485102797161,-0.14831124713575472,-0.2904920107531191,0.0,-0.006113874725997448,0.006113874725997448,0.04999999999999982,-4.775986545457533,4.886874565716043,0.11004529045968228,-0.000215039899919595,0.017711871977265755,2.3441962468638913,-4.5248181859683605,4.599963056127695,0.002263719581731133,6.452367793415541,0.02428152185324084,0.3378639880724474,-0.11735303014992138,0.05944195354730642,-0.026444622623321548,-1.8581092893554962,0.9744478633198063,-0.10216289516402668
-4.775986545457533,4.886874565716043,0.11004529045968228,-0.000215039899919595,0.017711871977265755,2.3441962468638913,-4.5248181859683605,4.599963056127695,0.002263719581731133,6.452367793415541,0.02428152185324084,0.3378639880724474,-0.11735303014992138,0.05944195354730642,0.0,-0.006113874725997448,0.006113874725997448,0.04499999999999993,-4.977791080709741,5.0927114278493635,0.11002014001499358,-0.0008936016898686364,0.01785210695814324,2.3447611784476585,-4.459094265707132,4.541269467766418,-0.000915713339502397,6.364466603233195,0.014659660945450792,-1.0514686519158831,-0.49668510142863614,0.24040844465691977,-0.0150791508877565,-1.9533597818299115,-0.2138191312842236,-0.012554035194827742
-4.977791080709741,5.0927114278493635,0.11002014001499358,-0.0008936016898686364,0.01785210695814324,2.3447611784476585,-4.459094265707132,4.541269467766418,-0.000915713339502397,6.364466603233195,0.014659660945450792,-1.0514686519158831,-0.49668510142863614,0.24040844465691977,0.0,-0.006113874725997448,0.006113874725997448,0.03500000000000014,-5.132843240002336,5.250933290957822,0.10995825792482222,0.0025217931906014895,0.017294429002912674,2.3466803468346713,-4.42928333081216,4.477527798157835,-0.00723160136916802,6.298106063584569,0.02580735797966094,-0.4091749275635833,-0.20613846158669474,0.28590093803545413,0.09758271087057463,-1.896015418532157,0.31850562954886,-0.05483338248607926
-5.132843240002336,5.250933290957822,0.10995825792482222,0.0025217931906014895,0.017294429002912674,2.3466803468346713,-4.42928333081216,4.477527798157835,-0.00723160136916802,6.298106063584569,0.02580735797966094,-0.4091749275635833,-0.20613846158669474,0.28590093803545413,0.0,-0.006113874725997448,0.006113874725997448,0.0349999999999997,-5.286761803452174,5.407184591320634,0.10990343993667748,0.000934985434202351,0.01742396353654987,2.3464863515628522,-4.3739189147419,4.446518468407699,-0.000919045676102348,6.237195542784508,0.009215405404593202,-0.34167414784674294,-0.4029613488818334,-0.026424688362761215,-0.045337364468547206,-1.7403005942874876,-0.47405578785908226,0.005542722051973465
-5.286761803452174,5.407184591320634,0.10990343993667748,0.000934985434202351,0.01742396353654987,2.3464863515628522,-4.3739189147419,4.446518468407699,-0.000919045676102348,6.237195542784508,0.009215405404593202,-0.34167414784674294,-0.4029613488818334,-0.026424688362761215,0.0,-0.006113874725997448,0.006113874725997448,0.040000000000000036,-5.460889334196866,5.583801671759779,0.10987149571559288,0.0004906413333120755,0.016756248953781108,2.347915892962121,-4.31966880332157,4.390574952061959,0.0013754156758565284,6.1592764392570185,0.0008513970085477496,0.14179611776689824,-0.5932110696834239,-0.016515985620532046,-0.011108602522256877,-1.9479775881872312,-0.20910020990113612,-0.035738534981721824
-5.460889334196866,5.583801671759779,0.10987149571559288,0.0004906413333120755,0.016756248953781108,2.347915892962121,-4.31966880332157,4.390574952061959,0.0013754156758565284,6.1592764392570185,0.0008513970085477496,0.14179611776689824,-0.5932110696834239,-0.016515985620532046,0.0,-0.006113874725997448,0.006113874725997448,0.03000000000000025,-5.590348899994299,5.7147015918702495,0.10987604545881172,-0.0006543586685961581,0.01743909225133496,2.3476074754798204,-4.288527589366161,4.351096716279426,0.008879215468383092,6.109291611725901,0.00821718126193094,0.12259587873961879,-0.16614459382990485,-0.07907932032851864,-0.03816666673027414,-1.666160917703908,0.24552614177943763,0.010280582743356737
-5.590348899994299,5.7147015918702495,0.10987604545881172,-0.0006543586685961581,0.01743909225133496,2.3476074754798204,-4.288527589366161,4.351096716279426,0.008879215468383092,6.109291611725901,0.00821718126193094,0.12259587873961879,-0.16614459382990485,-0.07907932032851864,-0.0029078898951411247,-0.006113874725997448,0.006113874725997448,0.03500000000000014,-5.7394164692821725,5.86649280404248,0.10993259240687986,0.0003597954736010029,0.01685518765926053,2.3475006385618014,-4.236290573611393,4.308041881734113,0.003862214765973579,6.041968178434302,0.0017915443703202527,0.568181100165375,0.005146138415292543,-0.00632536060242537,0.02897583263420448,-1.9235266654742513,-0.1835896254745903,0.003052483371972808
-5.7394164692821725,5.86649280404248,0.10993259240687986,0.0003597954736010029,0.01685518765926053,2.3475006385618014,-4.236290573611393,4.308041881734113,0.003862214765973579,6.041968178434302,0.0017915443703202527,0.568181100165375,0.005146138415292543,-0.00632536060242537,-0.017211515456438065,-0.006113874725997448,0.006113874725997448,0.040000000000000036,-5.90803870112504,6.037959707753244,0.1100018669056596,0.0038287869954911186,0.016333621612882224,2.3486975435450055,-4.199264976379783,4.253792631468699,0.0023028291756254093,5.977335440878986,0.006254646218724513,0.14405205201308824,-0.14590843912492357,-0.045900378520093904,0.08672478804725281,-1.6158184388828976,0.11157754621010642,-0.02992262458010317
-5.90803870112504,6.037959707753244,0.1100018669056596,0.0038287869954911186,0.016333621612882224,2.3486975435450055,-4.199264976379783,4.253792631468699,0.0023028291756254093,5.977335440878986,0.006254646218724513,0.14405205201308824,-0.14590843912492357,-0.045900378520093904,-0.026182107627391815,-0.006113874725997448,0.006113874725997448,0.054999999999999716,-6.137353875397761,6.270143901047493,0.10993172760209632,0.0017416000826484803,0.01714398966301308,2.3500510965782406,-4.134408171936134,4.190238123350242,-0.0036730244596329398,5.886545292067539,-0.0033146625063027457,-0.5173920497282942,0.1053300320764512,0.16543572164831472,-0.03794885296077544,-1.6507299783899516,-0.1739874313641329,-0.024610055149730022
-6.137353875397761,6.270143901047493,0.10993172760209632,0.0017416000826484803,0.01714398966301308,2.3500510965782406,-4.134408171936134,4.190238123350242,-0.0036730244596329398,5.886545292067539,-0.0033146625063027457,-0.5173920497282942,0.1053300320764512,0.16543572164831472,-0.026182107627391815,-0.006113874725997448,0.006113874725997448,0.040000000000000036,-6.301117597147789,6.437165763862191,0.10987657860708558,0.002202332824212408,0.016762975229915614,2.3511589905589405,-4.06317563986001,4.15997538420122,-0.0010540469924563978,5.814916800356414,-0.03916736453479386,0.4370089023781956,1.0879451600605394,-0.4131052009511366,0.01151831853909818,-1.7907122927781167,-0.896317550712277,-0.027697349517497003
-6.301117597147789,6.437165763862191,0.10987657860708558,0.002202332824212408,0.016762975229915614,2.3511589905589405,-4.06317563986001,4.15997538420122,-0.0010540469924563978,5.814916800356414,-0.03916736453479386,0.4370089023781956,1.0879451600605394,-0.4131052009511366,-0.0315459668636322,-0.006113874725997448,0.006113874725997448,0.03000000000000025,-6.423188038702529,6.5605587925758995,0.10987334947934876,0.0003006703480346249,0.017376402141308776,2.3503312466889166,-4.072093568644505,4.087599380403204,-0.005756897067285299,5.769739327175521,0.02286532118208573,-0.8630798473688436,-0.008764084570239434,0.2812781874793166,-0.06338874920592558,-1.5059157726964334,2.0677561905626356,0.027591462334130894
-6.423188038702529,6.5605587925758995,0.10987334947934876,0.0003006703480346249,0.017376402141308776,2.3503312466889166,-4.072093568644505,4.087599380403204,-0.005756897067285299,5.769739327175521,0.02286532118208573,-0.8630798473688436,-0.008764084570239434,0.2812781874793166,-0.0315459668636322,-0.006113874725997448,0.006113874725997448,0.029999999999999805,-6.544062613939786,6.6828169495894665,0.10991270971353959,-0.0007880137698234179,0.01764974707341026,2.347523758851896,-4.0069094176269955,4.06194546221371,-1.1631941959855396e-05,5.705664956529486,0.010555704516046482,0.3877632575129903,0.7997496488721744,-0.17975199895839258,-0.036289470595268325,-2.1358123548678303,-0.41032055553464425,0.09358292790069339
-6.544062613939786,6.6828169495894665,0.10991270971353959,-0.0007880137698234179,0.01764974707341026,2.347523758851896,-4.0069094176269955,4.06194546221371,-1.1631941959855396e-05,5.705664956529486,0.010555704516046482,0.3877632575129903,0.7997496488721744,-0.17975199895839258,-0.0315459668636322,-0.006113874725997448,0.006113874725997448,0.029999999999999805,-6.663286190149192,6.8043506908143065,0.10989288359192564,-0.0005786391479699985,0.016563248869741788,2.346925788743888,-3.9495266995511646,4.036760835764612,-0.006982875654187121,5.647487225099289,-0.009340126918743419,0.21986709837223412,0.15446065074103033,-0.16863223053419424,0.006979154061780691,-1.9392577143399126,-0.6631943811596677,0.01993233693358885
-6.663286190149192,6.8043506908143065,0.10989288359192564,-0.0005786391479699985,0.016563248869741788,2.346925788743888,-3.9495266995511646,4.036760835764612,-0.006982875654187121,5.647487225099289,-0.009340126918743419,0.21986709837223412,0.15446065074103033,-0.16863223053419424,-0.0315459668636322,-0.006113874725997448,0.006113874725997448,0.03500000000000014,-6.801110340146791,6.944730794163375,0.1098189853286263,-0.0016146663146388387,0.016304613750393635,2.347434112885334,-3.912264686529807,3.9965159054074215,0.0008702323857213007,5.5926596878834545,-0.010581831883389903,-0.2771089518160474,-0.38468887366853544,0.13760077655936861,-0.029600776190538174,-1.5665010633095617,-0.03547728470418511,-0.014523546898459413
-6.801110340146791,6.944730794163375,0.1098189853286263,-0.0016146663146388387,0.016304613750393635,2.347434112885334,-3.912264686529807,3.9965159054074215,0.0008702323857213007,5.5926596878834545,-0.010581831883389903,-0.2771089518160474,-0.38468887366853544,0.13760077655936861,-0.0315459668636322,-0.006113874725997448,0.006113874725997448,0.03000000000000025,-6.917464297668361,7.0644298810381105,0.10979222180457907,0.0003946079832081429,0.01593030593510719,2.3486885734136673,-3.8711733257599152,3.962460361027414,0.0005032001543192055,5.53954396564033,-0.022971363181113702,0.0886914214910051,0.05642570481841714,0.11867779294722343,0.06697580992823217,-1.7705240747708149,-0.4129843765907899,-0.04181535094443673
-6.917464297668361,7.0644298810381105,0.10979222180457907,0.0003946079832081429,0.01593030593510719,2.3486885734136673,-3.8711733257599152,3.962460361027414,0.0005032001543192055,5.53954396564033,-0.022971363181113702,0.0886914214910051,0.05642570481841714,0.11867779294722343,-0.0315459668636322,-0.0,0.0,0.040000000000000036,-7.071587212746101,7.22186109090398,0.10978499687395629,0.000110932967721662,0.015398616893858547,2.346476724493236,-3.8298560032530706,3.914156165954656,-0.001376811190010388,5.476164224197207,-0.0063942753326005075,0.19838856813210348,-0.058359884960360944,0.22535981764237942,-0.007091875387162015,-1.5844935360780563,0.4144271962128295,0.05529622301078114
-7.071587212746101,7.22186109090398,0.10978499687395629,0.000110932967721662,0.015398616893858547,2.346476724493236,-3.8298560032530706,3.914156165954656,-0.001376811190010388,5.476164224197207,-0.0063942753326005075,0.19838856813210348,-0.058359884960360944,0.22535981764237942,-0.10395806282758713,-0.0,0.0,0.0349999999999997,-7.204688949398261,7.358488811133258,0.10980780508456706,0.0012538039559879788,0.015842790437785352,2.3483203610783185,-3.784581200248242,3.877333894000968,-0.0010125669919335417,5.41814059191702,-0.02292407167624555,0.29875230425826343,-0.06275341981617971,-0.02551333346018074,0.03265345680760934,-1.6578180651482342,-0.4722798955327196,-0.05267533100235658
-7.204688949398261,7.358488811133258,0.10980780508456706,0.0012538039559879788,0.015842790437785352,2.3483203610783185,-3.784581200248242,3.877333894000968,-0.0010125669919335417,5.41814059191702,-0.02292407167624555,0.29875230425826343,-0.06275341981617971,-0.02551333346018074,-0.19967520236968994,-0.0,0.0,0.05500000000000016,-7.411477451167084,7.569599107167921,0.10977068848845156,0.001854904664904564,0.015760161658798788,2.3497492489699687,-3.731474404655123,3.803527594128651,0.001724340318217471,5.3282687215835844,-0.016607904395957274,0.2659947486480751,-0.17337929803458685,-0.030370643687726632,0.010929103798483336,-1.6340340060624523,0.11483940509615015,-0.02597977984818516
-7.411477451167084,7.569599107167921,0.10977068848845156,0.001854904664904564,0.015760161658798788,2.3497492489699687,-3.731474404655123,3.803527594128651,0.001724340318217471,5.3282687215835844,-0.016607904395957274,0.2659947486480751,-0.17337929803458685,-0.030370643687726632,-0.21579761803150177,-0.0,0.0,0.03500000000000014,-7.542480838960814,7.700750670074825,0.10985645467614988,0.004703912378879656,0.01576208451211695,2.3587761372152207,-3.7563849886364373,3.6916039036202393,-0.0003824532466431829,5.266624159243774,0.032210702370064404,0.13755032990908383,0.08885922145720142,-0.2634653791429464,0.08140022039928803,-1.761273209708865,1.3948173361720422,-0.25791109272148455
-7.542480838960814,7.700750670074825,0.10985645467614988,0.004703912378879656,0.01576208451211695,2.3587761372152207,-3.7563849886364373,3.6916039036202393,-0.0003824532466431829,5.266624159243774,0.032210702370064404,0.13755032990908383,0.08885922145720142,-0.2634653791429464,-0.2184487134218216,-0.0,0.0,0.0349999999999997,-7.673971151625569,7.828707225101314,0.10986488024997376,-0.0011371141826490105,0.01594268582527808,2.3632366657841524,-3.7417528984907493,3.6344437668488223,-0.00042500368055052584,5.216163700319589,0.03914714827965193,-0.16391792852829398,-0.27451265844346967,-0.063629312328951,-0.16688647318653477,-1.441727397833871,0.1981841688453597,-0.12744367339804805
-7.673971151625569,7.828707225101314,0.10986488024997376,-0.0011371141826490105,0.01594268582527808,2.3632366657841524,-3.7417528984907493,3.6344437668488223,-0.00042500368055052584,5.216163700319589,0.03914714827965193,-0.16391792852829398,-0.27451265844346967,-0.063629312328951,-0.22473737597465515,-0.0,0.0,0.040000000000000036,-7.822945052151588,7.972691220413326,0.1098146090388131,0.0026190753363786326,0.015237625031975198,2.370478962497858,-3.726621267155916,3.554084983934953,-0.0007177105912712367,5.1494542008279645,0.04845178454826904,-0.1372226314140094,-0.17971735446481718,-0.0032973563640739563,0.09390473797569099,-1.6677374872906088,0.23261590671542745,-0.18105741784264479
-7.822945052151588,7.972691220413326,0.1098146090388131,0.0026190753363786326,0.015237625031975198,2.370478962497858,-3.726621267155916,3.554084983934953,-0.0007177105912712367,5.1494542008279645,0.04845178454826904,-0.1372226314140094,-0.17971735446481718,-0.0032973563640739563,-0.22526143491268158,-0.0,0.0,0.05500000000000016,-8.027262805074704,8.165378211634996,0.10976351211479843,0.0018081924214167105,0.01591377488533675,2.3824873803075937,-3.687353301059877,3.471782416549298,-0.0019125620511314528,5.064531105119795,0.019292484861188175,-0.555073780755089,-0.17458393967134553,-0.30477193334680047,-0.01474332572658036,-1.5440562856030728,-0.5301690852196506,-0.21833486926791745
-8.027262805074704,8.165378211634996,0.10976351211479843,0.0018081924214167105,0.01591377488533675,2.3824873803075937,-3.687353301059877,3.471782416549298,-0.0019125620511314528,5.064531105119795,0.019292484861188175,-0.555073780755089,-0.17458393967134553,-0.30477193334680047,-0.23725305497646332,-0.0,0.0,0.03500000000000014,-8.156598121036778,8.284912831763158,0.1098147180983218,0.0013985789127025853,0.01555601800104527,2.389677597245735,-3.700976429683021,3.3674483151424304,0.0008307553175404131,5.003224762873625,0.06838611257439409,-0.05112244627313977,-0.06917745407461123,-0.20956538650255926,-0.011703243106117815,-1.7516097784619973,1.4026750775201633,-0.205434769661178
-8.156598121036778,8.284912831763158,0.1098147180983218,0.0013985789127025853,0.01555601800104527,2.389677597245735,-3.700976429683021,3.3674483151424304,0.0008307553175404131,5.003224762873625,0.06838611257439409,-0.05112244627313977,-0.06917745407461123,-0.20956538650255926,-0.3248935639858246,-0.0,0.0,0.03500000000000014,-8.285749700167914,8.401810232683484,0.10978549758628192,0.00025168958151789426,0.016060791139202762,2.3993652236824525,-3.6883814238953114,3.3019513705374828,0.0007584475636214921,4.950098977545523,0.05966987542412738,0.11403353356732117,0.2917375195523226,-0.3814025771988433,-0.03276826660527676,-1.5178795808029009,-0.24903534715047623,-0.2767893267633592
-8.285749700167914,8.401810232683484,0.10978549758628192,0.00025168958151789426,0.016060791139202762,2.3993652236824525,-3.6883814238953114,3.3019513705374828,0.0007584475636214921,4.950098977545523,0.05966987542412738,0.11403353356732117,0.2917375195523226,-0.3814025771988433,-0.40985217690467834,-0.0,0.0,0.034999999999999254,-8.41490299371792,8.515679546490858,0.10977872341471898,0.0023807160820179594,0.016198443681532962,2.4126303474109334,-3.6946828580586555,3.2005400186883373,0.0036578486342377647,4.887605298988278,0.07383951624787821,0.447113786630964,0.30498310113120153,-0.346543866153736,0.06082932858571744,-1.78553367306418,0.40484688067860375,-0.3790035350994617
-8.41490299371792,8.515679546490858,0.10977872341471898,0.0023807160820179594,0.016198443681532962,2.4126303474109334,-3.6946828580586555,3.2005400186883373,0.0036578486342377647,4.887605298988278,0.07383951624787821,0.447113786630964,0.30498310113120153,-0.346543866153736,-0.42955049872398376,-0.0,0.0,0.055000000000000604,-8.618672900911884,8.687195245271191,0.10997802037659335,0.008391081775084344,0.016544271482662746,2.44169454781186,-3.72061553335852,3.027594073805267,0.008894714371790846,4.796121629182675,0.080765963719855,0.10163845796505844,0.3473753320832747,-0.7893546937086111,0.10927937623756942,-1.6633394510109487,0.12593540858139485,-0.5284400072895669
-8.618672900911884,8.687195245271191,0.10997802037659335,0.008391081775084344,0.016544271482662746,2.44169454781186,-3.72061553335852,3.027594073805267,0.008894714371790846,4.796121629182675,0.080765963719855,0.10163845796505844,0.3473753320832747,-0.7893546937086111,-0.42955049872398376,-0.0,0.0,0.04499999999999993,-8.787083958124486,8.819021264393923,0.11039961181571759,0.024259108481693794,0.01574562150094299,2.480149616744356,-3.7758685044275477,2.8252433644401407,0.012696098565313327,4.714986236890705,0.08993229104274958,0.29849156026162293,0.2590327776324649,-0.7255559874409067,0.3526228157024328,-1.8030087175993406,0.20369616273099087,-0.8545570873888028
-8.787083958124486,8.819021264393923,0.11039961181571759,0.024259108481693794,0.01574562150094299,2.480149616744356,-3.7758685044275477,2.8252433644401407,0.012696098565313327,4.714986236890705,0.08993229104274958,0.29849156026162293,0.2590327776324649,-0.7255559874409067,-0.4348835051059723,-0.0,0.0,0.040000000000000036,-8.939558617916163,8.92781141564273,0.11098976342570835,0.03051223471181418,0.016343480586711694,2.520202511907255,-3.841214272783636,2.61123281919226,0.016988606313944665,4.643346872876426,0.1131094320213557,0.30523132626773997,-0.12416531850897203,-0.9274741993636215,0.1563281557530095,-1.7909841003569833,0.5794285244651526,-1.001322379072477
-8.939558617916163,8.92781141564273,0.11098976342570835,0.03051223471181418,0.016343480586711694,2.520202511907255,-3.841214272783636,2.61123281919226,0.016988606313944665,4.643346872876426,0.1131094320213557,0.30523132626773997,-0.12416531850897203,-0.9274741993636215,-0.4348835051059723,0.0001951334998011589,0.0,0.02999999999999936,-9.055612761014808,9.003606121017947,0.11141137549957486,0.03972665362941757,0.016469365655009265,2.550497298574364,-3.8990177006881943,2.4290325981081864,0.01006573879100156,4.591103456134152,0.155908460402582,0.1330475715354554,0.29420092952529897,-0.9610910577675633,0.3071472972534528,-1.7414472247424837,1.4266342793742401,-1.0098262222369825
-9.055612761014808,9.003606121017947,0.11141137549957486,0.03972665362941757,0.016469365655009265,2.550497298574364,-3.8990177006881943,2.4290325981081864,0.01006573879100156,4.591103456134152,0.155908460402582,0.1330475715354554,0.29420092952529897,-0.9610910577675633,-0.4304136335849762,0.013573954813182354,0.0,0.040000000000000036,-9.212779441933538,9.096451000048463,0.11169100334250201,0.037855890323428294,0.01640327163641954,2.59264489891337,-3.955829469211947,2.20857186436307,-0.00017635124849769979,4.527025883929593,0.18003642901738615,0.14868383087777803,0.2512145425672389,-1.0393884397479236,-0.046769082649731786,-1.601939305113985,0.6031992153701032,-1.053690008475149
-9.212779441933538,9.096451000048463,0.11169100334250201,0.037855890323428294,0.01640327163641954,2.59264489891337,-3.955829469211947,2.20857186436307,-0.00017635124849769979,4.527025883929593,0.18003642901738615,0.14868383087777803,0.2512145425672389,-1.0393884397479236,-0.43223240971565247,0.034351203590631485,0.0,0.04499999999999993,-9.392084151564736,9.190111605818657,0.11158955937394138,0.03967087840425621,0.015875981214902357,2.6451195777083387,-4.0193927621645225,1.9477490578789152,-0.007444427666796011,4.461889662831743,0.20195347415677212,-0.01650093024880439,0.470231143126936,-1.2512372519498534,0.040333068462842674,-1.447471579952227,0.48704544754191126,-1.166103973221531
-9.392084151564736,9.190111605818657,0.11158955937394138,0.03967087840425621,0.015875981214902357,2.6451195777083387,-4.0193927621645225,1.9477490578789152,-0.007444427666796011,4.461889662831743,0.20195347415677212,-0.01650093024880439,0.470231143126936,-1.2512372519498534,-0.4313076138496399,0.07408691942691803,0.0,0.06500000000000039,-9.655144230095567,9.305837188704094,0.11115347632566022,0.03444696142490622,0.01338121331251613,2.7187606691868504,-4.086173149589733,1.6068932847656152,-0.00628002996165785,4.385686052039929,0.21136435365343575,-0.0208037172311461,-0.0863192911672518,-1.0611130684038448,-0.08036795352846093,-1.172363242950978,0.144782761487132,-1.1329398689001735
-9.655144230095567,9.305837188704094,0.11115347632566022,0.03444696142490622,0.01338121331251613,2.7187606691868504,-4.086173149589733,1.6068932847656152,-0.00628002996165785,4.385686052039929,0.21136435365343575,-0.0208037172311461,-0.0863192911672518,-1.0611130684038448,-0.37409311532974243,0.1423373967409134,0.0,0.03500000000000014,-9.798728708294469,9.35944371625556,0.11090415699631864,0.031209763453079836,0.011514172818103737,2.7549780012428973,-4.124111671934059,1.4491528240666633,-0.006544291609766786,4.366124870081853,0.21282530144661393,-0.1513077010748888,0.19070820135341493,-1.155476287427852,-0.0924913706236106,-0.5588909130878736,0.041741365519376405,-1.034780915887048
-9.798728708294469,9.35944371625556,0.11090415699631864,0.031209763453079836,0.011514172818103737,2.7549780012428973,-4.124111671934059,1.4491528240666633,-0.006544291609766786,4.366124870081853,0.21282530144661393,-0.1513077010748888,0.19070820135341493,-1.155476287427852,-0.36247143149375916,0.18987229466438293,0.0,0.03500000000000014,-9.9437525032684,9.407608789536852,0.11070366028063613,0.02659761771643076,0.009345349518456983,2.789264132244974,-4.16758969471655,1.3011961863653532,-0.005831414592291334,4.36060411454274,0.21690351576737132,-0.13471696669942265,-0.1592175981157815,-0.9404056926123497,-0.13177559247568738,-0.15773587254607932,0.11652040916449637,-0.9796037429164691
-9.9437525032684,9.407608789536852,0.11070366028063613,0.02659761771643076,0.009345349518456983,2.789264132244974,-4.16758969471655,1.3011961863653532,-0.005831414592291334,4.36060411454274,0.21690351576737132,-0.13471696669942265,-0.1592175981157815,-0.9404056926123497,-0.34634900093078613,0.23306061327457428,0.0,0.040000000000000036,-10.111046453974925,9.457118034984326,0.11044280945296084,0.020072968996289457,0.0074321383710363505,2.8255337633269755,-4.2064345120445426,1.1649166097326442,-0.008325981422247181,4.360163466437304,0.20024124873722404,-0.001968252871637245,-0.10745435522349718,-0.7738942089240166,-0.1631162180035324,-0.011016202635905071,-0.41655667575368166,-0.9067407770500405
-10.111046453974925,9.457118034984326,0.11044280945296084,0.020072968996289457,0.0074321383710363505,2.8255337633269755,-4.2064345120445426,1.1649166097326442,-0.008325981422247181,4.360163466437304,0.20024124873722404,-0.001968252871637245,-0.10745435522349718,-0.7738942089240166,-0.2819826900959015,0.3186357319355011,0.0,0.019999999999999574,-10.195347802758656,9.479956103683655,0.1103062737314319,0.015659891981288553,0.006248709404390574,2.841028201736883,-4.227354336376185,1.1156716855383324,-0.008368312874149377,4.368145145638222,0.18589239314107853,-0.034883045517191846,-0.10594580360560707,-0.6559099079911085,-0.22065385075004992,0.3990839600458958,-0.7174427798072911,-0.7747219204953858
-10.195347802758656,9.479956103683655,0.1103062737314319,0.015659891981288553,0.006248709404390574,2.841028201736883,-4.227354336376185,1.1156716855383324,-0.008368312874149377,4.368145145638222,0.18589239314107853,-0.034883045517191846,-0.10594580360560707,-0.6559099079911085,-0.2578144967556,0.32726722955703735,0.0,0.020000000000000462,-10.28012849676566,9.501702089369854,0.11015302661838053,0.012869032164388452,0.005326691982935882,2.856739645932182,-4.255422842868073,1.059107490345773,-0.007352548351660215,4.381568500734283,0.179414941080851,-0.29052576609883535,-0.4037949923179197,-0.6528071489472551,-0.13954299084500182,0.6711677548030548,-0.3238726030113695,-0.7855722097649439
-10.28012849676566,9.501702089369854,0.11015302661838053,0.012869032164388452,0.005326691982935882,2.856739645932182,-4.255422842868073,1.059107490345773,-0.007352548351660215,4.381568500734283,0.179414941080851,-0.29052576609883535,-0.4037949923179197,-0.6528071489472551,-0.25602656602859497,0.41799044609069824,0.0,0.034999999999999254,-10.429883685254332,9.537655046004266,0.10983841328781807,0.003927877912774522,0.0033010724807916465,2.8754950506029373,-4.3001572202146985,1.0010985910057613,-0.009656340151062065,4.41206810304462,0.16494108516247108,-0.09206383928610032,-0.3814198820700751,-0.4061685178819702,-0.2554615500461177,0.8714172088667771,-0.41353874052514905,-0.5358687048787315
-10.429883685254332,9.537655046004266,0.10983841328781807,0.003927877912774522,0.0033010724807916465,2.8754950506029373,-4.3001572202146985,1.0010985910057613,-0.009656340151062065,4.41206810304462,0.16494108516247108,-0.09206383928610032,-0.3814198820700751,-0.4061685178819702,-0.25602656602859497,0.4266219437122345,0.0,0.015000000000000568,-10.494564991475215,9.552617613732933,0.10965930099329704,-0.0010942466084122278,0.0017758274841426181,2.88121206980494,-4.318247177099138,1.0087155855622367,-0.012444901353075336,4.432380131090678,0.1370116367080878,0.18633775274705938,-0.13270832840586125,-0.5248028426288409,-0.33480830141243734,1.3541352030705136,-1.8619632302921478,-0.38113461346684213
-10.494564991475215,9.552617613732933,0.10965930099329704,-0.0010942466084122278,0.0017758274841426181,2.88121206980494,-4.318247177099138,1.0087155855622367,-0.012444901353075336,4.432380131090678,0.1370116367080878,0.18633775274705938,-0.13270832840586125,-0.5248028426288409,-0.2546701729297638,0.43093767762184143,0.0,0.025000000000000355,-10.602953581346089,9.578020366873698,0.10942353132343943,0.00012683387022803454,0.00011049236992443677,2.8935101114316755,-4.359187284705821,0.9982758537367759,-0.007430732319680829,4.470853183522907,0.10266583987813693,0.16578807397310075,-0.08296433726907067,-0.39835987376564086,0.0488432191456098,1.5389220972891375,-1.3738318731980153,-0.4919216650694055
