x_pos,y_pos,z_pos,roll,pitch,yaw,u_x,u_y,u_z,comp_u_x,comp_u_y,roll_mder,pitch_mder,yaw_mder,steer,throttle,brake,time_step,act_x_pos,act_y_pos,act_z_pos,act_roll,act_pitch,act_yaw,act_u_x,act_u_y,act_u_z,act_comp_u_x,act_comp_u_y,act_roll_mder,act_pitch_mder,act_yaw_mder,accel_roll,accel_x,accel_y,accel_yaw
-5.88935785012937,4.59273225252653,0.109140118090676,-1.25106836368123E-06,-0.017093990219629,2.34177896797574,-0.255725340225801,0.26208392564304,-0.001262469405862,0.366173212777374,0.000782277677464,0.10500745903324,-0.117918945904413,0.003862490403196,-0.006514622829854,1,0,0.044999999999959,-5.90490476548303,4.60870373133155,0.10926822526157,-8.40898563247288E-06,-0.020504068761128,2.34177676098766,-0.431544429736117,0.442755829371744,0.005253023233998,0.618273682611985,0.000986239497582,0.026318000520032,-0.025412753949122,-0.003190835872607,-0.000159064828196,5.60223266299645,0.00453248489153,-4.90441795521504E-05
-5.90490476548303,4.60870373133155,0.10926822526157,-8.40898563247288E-06,-0.020504068761128,2.34177676098766,-0.431544429736117,0.442755829371744,0.005253023233998,0.618273682611985,0.000986239497582,0.026318000520032,-0.025412753949122,-0.003190835872607,-0.011847655288875,1,0,0.039999999999964,-5.92524819701876,4.62967048752624,0.109519291180868,3.62141565949917E-05,-0.020734682838041,2.34174375600888,-0.582991541526016,0.599463637193171,0.005874569161099,0.836203085290113,0.000435842910876,-0.026641968275683,0.082064526411128,-0.03211658343347,0.001115578555688,5.44823506695815,-0.013759914667676,-0.000825124469629
-5.92524819701876,4.62967048752624,0.109519291180868,3.62141565949917E-05,-0.020734682838041,2.34174375600888,-0.582991541526016,0.599463637193171,0.005874569161099,0.836203085290113,0.000435842910876,-0.026641968275683,0.082064526411128,-0.03211658343347,-0.009165725670755,1,0,0.034999999999968,-5.94806733247546,4.65313197101002,0.109667796642589,5.11298137488797E-05,-0.020741944814674,2.34163299115652,-0.715861022243385,0.737351748931649,0.00276998106757,1.02768893686234,-0.000232100556934,-0.037074856926471,0.113122596274452,-0.006581343330176,0.000426161632969,5.47102433063991,-0.019084099080315,-0.003164710067481
-5.94806733247546,4.65313197101002,0.109667796642589,5.11298137488797E-05,-0.020741944814674,2.34163299115652,-0.715861022243385,0.737351748931649,0.00276998106757,1.02768893686234,-0.000232100556934,-0.037074856926471,0.113122596274452,-0.006581343330176,-0.010984505526722,1,0,0.025000000000091,-5.96722118714432,4.67279938278508,0.109702119262432,2.76317974694668E-05,-0.020814108787308,2.34146488832485,-0.812731083134933,0.832566839690333,0.000278266156846,1.16348170402279,0.003111342131155,0.058748135375064,-0.077337103182583,0.000557826620933,-0.000939920651173,5.43171068639841,0.133737707523085,-0.006724113266749
-5.96722118714432,4.67279938278508,0.109702119262432,2.76317974694668E-05,-0.020814108787308,2.34146488832485,-0.812731083134933,0.832566839690333,0.000278266156846,1.16348170402279,0.003111342131155,0.058748135375064,-0.077337103182583,0.000557826620933,-0.013666435144842,1,0,0.034999999999968,-5.99821749628362,4.70419724489527,0.109675313122877,-5.40645919108919E-06,-0.020788457313926,2.34244390709354,-0.948991173214462,0.96433095103687,-0.001475737070591,1.35294429227559,0.007757059077186,0.087986230274988,-0.083957832347855,-0.033643544080187,-0.000943950190302,5.41321680722791,0.132734769886721,0.027971964819835
-5.99821749628362,4.70419724489527,0.109675313122877,-5.40645919108919E-06,-0.020788457313926,2.34244390709354,-0.948991173214462,0.96433095103687,-0.001475737070591,1.35294429227559,0.007757059077186,0.087986230274988,-0.083957832347855,-0.033643544080187,-0.011847655288875,1,0,0.039999999999964,-6.03915727260614,4.74605112231011,0.109610015353981,2.1319852397926E-05,-0.020697815858382,2.34214001613209,-1.09464835516772,1.12482133633721,-0.00139326186606,1.56954692107236,0.000722982087962,0.020571674750178,0.15506913615309,0.036704875394468,0.000668157789726,5.415065719924,-0.175851924730757,-0.007597274036304
-6.03915727260614,4.74605112231011,0.109610015353981,2.1319852397926E-05,-0.020697815858382,2.34214001613209,-1.09464835516772,1.12482133633721,-0.00139326186606,1.56954692107236,0.000722982087962,0.020571674750178,0.15506913615309,0.036704875394468,-0.011416080407798,1,0,0.019999999999982,-6.06182196418891,4.76938282251271,0.109583661539112,1.09675776191599E-05,-0.020709501210306,2.34165823473763,-1.16714351374536,1.20611072947989,-0.001618805552565,1.67836739139318,-0.003157998171862,-0.060912873338983,0.03686889012855,0.03571228162116,-0.000517613738939,5.44102351604593,-0.194049012991392,-0.024089069723088
-6.06182196418891,4.76938282251271,0.109583661539112,1.09675776191599E-05,-0.020709501210306,2.34165823473763,-1.16714351374536,1.20611072947989,-0.001618805552565,1.67836739139318,-0.003157998171862,-0.060912873338983,0.03686889012855,0.03571228162116,-0.010984505526722,1,0,0.025000000000091,-6.09225072390363,4.80076747646463,0.10956597618762,-3.43336706120876E-06,-0.02074743814125,2.34125997030698,-1.26260775657303,1.30158826673594,-0.000268437338845,1.81336982717969,-0.000482635858608,0.006257892365899,-0.006061535467541,0.008320801947945,-0.000576037787213,5.40009743144076,0.10701449252979,-0.015930577225904
-6.09225072390363,4.80076747646463,0.10956597618762,-3.43336706120876E-06,-0.02074743814125,2.34125997030698,-1.26260775657303,1.30158826673594,-0.000268437338845,1.81336982717969,-0.000482635858608,0.006257892365899,-0.006061535467541,0.008320801947945,-0.010090528987348,1,0,0.024999999999977,-6.12507965263689,4.83454650760721,0.109567080849147,-3.8435432235438E-06,-0.020787635461741,2.34124106269302,-1.35676448218544,1.39990484363525,0.0004367485184,1.94949778069562,-0.001354406221268,0.018047685280766,-0.018307820405761,0.012736678944616,-1.64070464934166E-05,5.44511814064238,-0.034870814506425,-0.000756304558501
-6.12507965263689,4.83454650760721,0.109567080849147,-3.8435432235438E-06,-0.020787635461741,2.34124106269302,-1.35676448218544,1.39990484363525,0.0004367485184,1.94949778069562,-0.001354406221268,0.018047685280766,-0.018307820405761,0.012736678944616,-0.010522103868425,1,0,0.029999999999973,-6.16762754387736,4.87831654778135,0.109583999367794,-3.75759688284406E-05,-0.020819692731627,2.34127474251023,-1.4721437350784,1.51612182763629,0.001060754179661,2.1132516147711,0.000430851648871,0.000600978899524,-0.052627316461868,0.03691950727427,-0.001124414186831,5.45846113585416,0.059508595671356,0.001122660573824
-6.16762754387736,4.87831654778135,0.109583999367794,-3.75759688284406E-05,-0.020819692731627,2.34127474251023,-1.4721437350784,1.51612182763629,0.001060754179661,2.1132516147711,0.000430851648871,0.000600978899524,-0.052627316461868,0.03691950727427,-0.011847655288875,1,0,0.060000000000059,-6.26309093391949,4.9763454668268,0.10962258514027,0.000128091365928,-0.020673245385866,2.34150244572806,-1.70389694377234,1.74638685598743,0.000266244716338,2.43989716755732,0.005801509127666,0.080783640619165,-0.152492523212533,0.025133055623341,0.00276112224593,5.44409254643161,0.089510957979818,0.003795053630525
-6.26309093391949,4.9763454668268,0.10962258514027,0.000128091365928,-0.020673245385866,2.34150244572806,-1.70389694377234,1.74638685598743,0.000266244716338,2.43989716755732,0.005801509127666,0.080783640619165,-0.152492523212533,0.025133055623341,-0.007377772592008,1,0,0.024999999999977,-6.30673243264187,5.0213152033769,0.109625701387562,-0.000397162858728,-0.020242812672124,2.34188289946533,-1.78212048881974,1.85290792807785,-0.000504435967618,2.57080634780916,-0.013264564410223,-0.344138830781681,-0.048788526078021,-0.010281215087723,-0.021010168986253,5.23636721007833,-0.762642941516224,0.015218149490788
-6.30673243264187,5.0213152033769,0.109625701387562,-0.000397162858728,-0.020242812672124,2.34188289946533,-1.78212048881974,1.85290792807785,-0.000504435967618,2.57080634780916,-0.013264564410223,-0.344138830781681,-0.048788526078021,-0.010281215087723,-0.012741631828249,1,0,0.019999999999982,-6.3432099818662,5.05906293448051,0.109624692956499,-1.55986613028776E-05,-0.02064841418215,2.34179992309594,-1.86331365886424,1.92077100246541,0.000477377170169,2.67605952587814,-0.002109307672279,0.34054068815482,-0.327264893950161,0.005110121000718,0.019078209871289,5.26265890345393,0.557762836897665,-0.004148818469533
-6.3432099818662,5.05906293448051,0.109624692956499,-1.55986613028776E-05,-0.02064841418215,2.34179992309594,-1.86331365886424,1.92077100246541,0.000477377170169,2.67605952587814,-0.002109307672279,0.34054068815482,-0.327264893950161,0.005110121000718,-0.011847655288875,1,0,0.029999999999973,-6.4009647856677,5.11833766763919,0.109617540982321,-0.000713943409934,-0.020635401685559,2.34138728182735,-1.97122087797015,2.03868543084691,0.000601926335487,2.83582745626608,-0.00571611584113,0.342958220719104,-0.338329951000785,0.02640170614882,-0.023278158287724,5.32559767960286,-0.120226938961793,-0.013754708952956
-6.4009647856677,5.11833766763919,0.109617540982321,-0.000713943409934,-0.020635401685559,2.34138728182735,-1.97122087797015,2.03868543084691,0.000601926335487,2.83582745626608,-0.00571611584113,0.342958220719104,-0.338329951000785,0.02640170614882,-0.009165725670755,1,0,0.029999999999973,-6.46170046049859,5.18140912763345,0.109614768446892,-8.51320684485918E-05,-0.020517750799749,2.34050289194811,-2.08084902649365,2.15743703658359,-3.53882805970776E-05,2.99740162085826,-0.007124686550263,-0.141473857439309,0.096958962560873,0.080388738802907,0.020960378049531,5.38580548641095,-0.046952356971133,-0.029479662641364
-6.46170046049859,5.18140912763345,0.109614768446892,-8.51320684485918E-05,-0.020517750799749,2.34050289194811,-2.08084902649365,2.15743703658359,-3.53882805970776E-05,2.99740162085826,-0.007124686550263,-0.141473857439309,0.096958962560873,0.080388738802907,-0.012741631828249,1,0,0.035000000000082,-6.53702599815775,5.25919315319266,0.109618707880169,-0.000802218963453,-0.020040397725294,2.33943564013955,-2.21106105830192,2.28993422742641,-0.000648248921204,3.18317198292699,-0.002428288879871,-0.577916066402749,-0.051667751504149,0.017416048629263,-0.020488197000089,5.30772463052259,0.134182790582308,-0.030492908816047
-6.53702599815775,5.25919315319266,0.109618707880169,-0.000802218963453,-0.020040397725294,2.33943564013955,-2.21106105830192,2.28993422742641,-0.000648248921204,3.18317198292699,-0.002428288879871,-0.577916066402749,-0.051667751504149,0.017416048629263,-0.009165725670755,1,0,0.029999999999973,-6.60467851451727,5.33000344723971,0.109633172058898,0.000400193521272,-0.020541984947238,2.33778788426391,-2.31537829392138,2.41335768319753,0.000536936561095,3.34443003266652,-0.007727069887073,-0.042512991131448,0.096329543436202,-0.025819129865028,0.040080416157562,5.37526832465611,-0.176626033573577,-0.054925195854585
-6.60467851451727,5.33000344723971,0.109633172058898,0.000400193521272,-0.020541984947238,2.33778788426391,-2.31537829392138,2.41335768319753,0.000536936561095,3.34443003266652,-0.007727069887073,-0.042512991131448,0.096329543436202,-0.025819129865028,-0.011847655288875,1,0,0.024999999999977,-6.66382186941624,5.39141248118733,0.109645192972966,-0.000632243422316,-0.020195024452137,2.33679387192636,-2.4019744126603,2.51173309706958,0.000296957753568,3.47536765439563,-0.010192976509847,0.183332173503196,0.339374784467618,-0.004223727666337,-0.041297477743575,5.23750486916926,-0.098636264911028,-0.039760493502091
-6.66382186941624,5.39141248118733,0.109645192972966,-0.000632243422316,-0.020195024452137,2.33679387192636,-2.4019744126603,2.51173309706958,0.000296957753568,3.47536765439563,-0.010192976509847,0.183332173503196,0.339374784467618,-0.004223727666337,-0.012741631828249,1,0,0.029999999999973,-6.73765940214481,5.46838867204534,0.10965588373517,-0.000327819063128,-0.020242056301391,2.33613581541758,-2.51806083923495,2.61725229803162,0.001310014217347,3.63189105706539,0.002707627901154,0.129584665143308,-0.188408871847651,0.033038958957863,0.010147478639596,5.21744675566331,0.430020147033763,-0.021935216959499
-6.73765940214481,5.46838867204534,0.10965588373517,-0.000327819063128,-0.020242056301391,2.33613581541758,-2.51806083923495,2.61725229803162,0.001310014217347,3.63189105706539,0.002707627901154,0.129584665143308,-0.188408871847651,0.033038958957863,-0.009165725670755,1,0,0.035000000000082,-6.82801418204649,5.562421193124,0.1096632173391,0.000227385179687,-0.019699045607501,2.33554981405462,-2.64536529017194,2.74227155421466,0.000240312244858,3.81023727413094,0.010134610233553,0.184906791495559,-0.063799366440379,-0.109805395103725,0.015862978366132,5.09560620186086,0.212199495210895,-0.016742896084347
-6.82801418204649,5.562421193124,0.1096632173391,0.000227385179687,-0.019699045607501,2.33554981405462,-2.64536529017194,2.74227155421466,0.000240312244858,3.81023727413094,0.010134610233553,0.184906791495559,-0.063799366440379,-0.109805395103725,-0.010984505526722,1,0,0.039999999999964,-6.93669034046681,5.675603549903,0.109660952142557,-0.000338630552237,-0.020258147399481,2.33522382926913,-2.78180070000758,2.90744182049394,0.001744905787863,4.02388035782698,-0.004465424281094,0.188076537806588,-0.313746898327334,0.105720410828891,-0.014150393298133,5.34107709240587,-0.365000862866498,-0.008149619637317
-6.93669034046681,5.675603549903,0.109660952142557,-0.000338630552237,-0.020258147399481,2.33522382926913,-2.78180070000758,2.90744182049394,0.001744905787863,4.02388035782698,-0.004465424281094,0.188076537806588,-0.313746898327334,0.105720410828891,-0.012279230169952,1,0,0.024999999999977,-7.00761316760741,5.74941555456039,0.109665944316384,-0.000470576458305,-0.020189597424321,2.33523682687728,-2.88206702666516,2.99734218569666,0.00147304389791,4.15816532199267,0.005628438950855,0.021130094116177,0.06913690795611,-0.126339517728721,-0.005277836242724,5.3713985666324,0.403754529278325,0.000519904326133
-7.00761316760741,5.74941555456039,0.109665944316384,-0.000470576458305,-0.020189597424321,2.33523682687728,-2.88206702666516,2.99734218569666,0.00147304389791,4.15816532199267,0.005628438950855,0.021130094116177,0.06913690795611,-0.126339517728721,-0.009165725670755,1,0,0.034999999999968,-7.11047027891834,5.85707599019233,0.109677978856411,0.000259076257817,-0.020441587283562,2.3352966228189,-3.00815470278868,3.13517601470527,0.000346932364914,4.34491914855259,0.000975517245102,0.218450080145611,-0.074668218475384,-0.081691629408424,0.020847220460664,5.33582361600263,-0.132940620164509,0.001708455474833
-7.11047027891834,5.85707599019233,0.109677978856411,0.000259076257817,-0.020441587283562,2.3352966228189,-3.00815470278868,3.13517601470527,0.000346932364914,4.34491914855259,0.000975517245102,0.218450080145611,-0.074668218475384,-0.081691629408424,-0.012741631828249,1,0,0.040000000000077,-7.2335480102986,5.98528581687989,0.109709711506405,0.00027878826915,-0.020017927428339,2.33555927027727,-3.14573700937252,3.28279491093858,0.001447631262901,4.54669046118601,-0.003099932313603,0.312178396696598,-0.150490519697689,-0.075427636638821,0.000492800283312,5.04428281582572,-0.101886238967433,0.006566186459066
-7.2335480102986,5.98528581687989,0.109709711506405,0.00027878826915,-0.020017927428339,2.33555927027727,-3.14573700937252,3.28279491093858,0.001447631262901,4.54669046118601,-0.003099932313603,0.312178396696598,-0.150490519697689,-0.075427636638821,-0.011847655288875,1,0,0.039999999999964,-7.3625762314963,6.1193314919365,0.109723816825726,4.00663073257844E-05,-0.020826096330196,2.33532414847398,-3.29082046758339,3.43289801475371,0.003756370909187,4.75544810004981,-0.00122364142662,0.437695236482308,-0.395328653745193,-0.014124386435516,-0.005968049045605,5.21894097159987,0.046907272174633,-0.00587804508208
-7.3625762314963,6.1193314919365,0.109723816825726,4.00663073257844E-05,-0.020826096330196,2.33532414847398,-3.29082046758339,3.43289801475371,0.003756370909187,4.75544810004981,-0.00122364142662,0.437695236482308,-0.395328653745193,-0.014124386435516,-0.011508560739458,1,0,0.019999999999982,-7.42923901693191,6.18865971934111,0.10973471940808,-0.000228312880816,-0.020096070875265,2.33604682554464,-3.37120798404843,3.50018265967836,0.00200799893795,4.85965810977698,0.006706631327103,-0.083855775494485,0.036767413429697,0.090245524961582,-0.013418959407081,5.21050048636317,0.396513637686518,0.036133853533038
-7.42923901693191,6.18865971934111,0.10973471940808,-0.000228312880816,-0.020096070875265,2.33604682554464,-3.37120798404843,3.50018265967836,0.00200799893795,4.85965810977698,0.006706631327103,-0.083855775494485,0.036767413429697,0.090245524961582,-0.012741631828249,1,0,0.029999999999973,-7.53211563968998,6.29529441166773,0.109753651162445,-0.001314072088417,-0.020294477115969,2.33553149351464,-3.46921012110117,3.61687082345119,0.005261115933556,5.01170357002139,-0.000862622811153,0.685770785364344,-0.364611026871731,-0.040823823158431,-0.036191973586748,5.06818200815158,-0.252308471275457,-0.01717773433357
-7.53211563968998,6.29529441166773,0.109753651162445,-0.001314072088417,-0.020294477115969,2.33553149351464,-3.46921012110117,3.61687082345119,0.005261115933556,5.01170357002139,-0.000862622811153,0.685770785364344,-0.364611026871731,-0.040823823158431,-0.007377772592008,1,0,0.035000000000082,-7.65615207628993,6.42381237944072,0.109819704804552,-0.000330130019425,-0.018983914784743,2.33830466992618,-3.61190355797865,3.70942275131483,0.001746408186906,5.17736462422873,0.023664485960661,-0.228782082166195,0.06056789223733,0.017505776035388,0.028112630542561,4.73317297734143,0.700774536335922,0.07923361175815
-7.65615207628993,6.42381237944072,0.109819704804552,-0.000330130019425,-0.018983914784743,2.33830466992618,-3.61190355797865,3.70942275131483,0.001746408186906,5.17736462422873,0.023664485960661,-0.228782082166195,0.06056789223733,0.017505776035388,-0.009597300551832,0.949382424354553,0,0.059999999999946,-7.87920420568811,6.65437776507325,0.109818698939336,0.000942112429611,-0.016862445876243,2.33858379102096,-3.82782795260508,3.9190222646681,0.001478265606158,5.47813645382172,0.031989670498876,-0.148646799087016,0.035404998908347,-0.170025845692151,0.021204040817288,5.01286382655448,0.138753075637044,0.004652018246306
-7.87920420568811,6.65437776507325,0.109818698939336,0.000942112429611,-0.016862445876243,2.33858379102096,-3.82782795260508,3.9190222646681,0.001478265606158,5.47813645382172,0.031989670498876,-0.148646799087016,0.035404998908347,-0.170025845692151,-0.008271749131382,0.606372892856598,0,0.040000000000077,-8.03396974989292,6.81286012541004,0.109948393262576,0.000458171777504,-0.008173357662082,2.33968454211992,-3.88843402191209,4.00407742197861,0.002740119916478,5.5814377645054,0.010374242881559,0.178711199352072,0.09690231589694,-0.195543184746004,-0.012098516302644,2.5825327670868,-0.540385690431887,0.027518777474025
-8.03396974989292,6.81286012541004,0.109948393262576,0.000458171777504,-0.008173357662082,2.33968454211992,-3.88843402191209,4.00407742197861,0.002740119916478,5.5814377645054,0.010374242881559,0.178711199352072,0.09690231589694,-0.195543184746004,0,0.043845850974321,0,0.05499999999995,-8.2480379442667,7.03277386107828,0.110082072513584,0.00021072209523,0.009612131578957,2.34264083757303,-3.86917152359358,3.97290076406552,0.005383538021229,5.54566726990963,0.001814263742328,-0.05022119312139,-0.075400838775233,0.007680789831309,-0.004499085132258,-0.650372629014526,-0.155635984349804,0.053750826420201
-8.2480379442667,7.03277386107828,0.110082072513584,0.00021072209523,0.009612131578957,2.34264083757303,-3.86917152359358,3.97290076406552,0.005383538021229,5.54566726990963,0.001814263742328,-0.05022119312139,-0.075400838775233,0.007680789831309,0,0,0,0.029999999999973,-8.3635808336956,7.15117929939635,0.110109344402748,-0.002067891528379,0.014567189293229,2.33997823999964,-3.81531783195981,3.94257377973247,-0.004500865574806,5.48639564099471,-0.00101881245333,0.09359739758547,0.736428038673629,-0.302259153916682,-0.075953787453705,-1.97572096383249,-0.094435873188659,-0.088753252446216
-8.3635808336956,7.15117929939635,0.110109344402748,-0.002067891528379,0.014567189293229,2.33997823999964,-3.81531783195981,3.94257377973247,-0.004500865574806,5.48639564099471,-0.00101881245333,0.09359739758547,0.736428038673629,-0.302259153916682,-0.011847655288875,0,0,0.029999999999973,-8.47757036983802,7.26888820690721,0.110028562867596,0.001856100473624,0.015614374577247,2.34297392152856,-3.7973432828136,3.89235849813387,-0.006634582735199,5.43785330425503,0.004703926779232,-0.274203029673222,-0.052985389953228,0.200099784037039,0.130799733400203,-1.61807789132396,0.190757974418901,0.099856050964085
-8.47757036983802,7.26888820690721,0.110028562867596,0.001856100473624,0.015614374577247,2.34297392152856,-3.7973432828136,3.89235849813387,-0.006634582735199,5.43785330425503,0.004703926779232,-0.274203029673222,-0.052985389953228,0.200099784037039,-0.020787421613932,0,0,0.025000000000091,-8.57227248469152,7.36560966482406,0.109972433897754,-0.004244252127978,0.015793251188799,2.34084171441047,-3.75842838359893,3.8709951266229,0.002331944776175,5.39540329547391,0.003234836870102,0.064319026947873,-0.136598260271725,0.143086084250337,-0.244014104063185,-1.69800035123871,-0.058763596365007,-0.085288284723513
-8.57227248469152,7.36560966482406,0.109972433897754,-0.004244252127978,0.015793251188799,2.34084171441047,-3.75842838359893,3.8709951266229,0.002331944776175,5.39540329547391,0.003234836870102,0.064319026947873,-0.136598260271725,0.143086084250337,-0.116504564881325,0,0,0.034999999999968,-8.70278479612667,7.50051413461806,0.109857936047533,0.003214308546987,0.016415139211408,2.34745916925237,-3.73062168811914,3.81148310630665,-0.002283531945234,5.33336943238263,-0.010589959984636,0.262092069617983,0.022842320498536,-0.110573919265437,0.213101733570622,-1.77239608832387,-0.394994195850011,0.189070138340274
-8.70278479612667,7.50051413461806,0.109857936047533,0.003214308546987,0.016415139211408,2.34745916925237,-3.73062168811914,3.81148310630665,-0.002283531945234,5.33336943238263,-0.010589959984636,0.262092069617983,0.022842320498536,-0.110573919265437,-0.129914209246635,0,0,0.039999999999964,-8.85221661805281,7.65085256522749,0.109805577522677,-0.003205720021817,0.0171865757321,2.34066704778861,-3.71383168438829,3.73219735263874,-0.004185474962062,5.26470456039234,0.068765913024672,-0.696004670457236,-0.419352771434707,0.340313237509464,-0.160500714220233,-1.71662179975881,1.98389682523452,-0.169803036594128
-8.85221661805281,7.65085256522749,0.109805577522677,-0.003205720021817,0.0171865757321,2.34066704778861,-3.71383168438829,3.73219735263874,-0.004185474962062,5.26470456039234,0.068765913024672,-0.696004670457236,-0.419352771434707,0.340313237509464,-0.156764328479767,0,0,0.024999999999977,-8.94396122577643,7.74443739100817,0.109832558497269,-0.002678309942367,0.017383631027131,2.33770107553155,-3.63953527601117,3.74293472678428,0.003127016146178,5.22065401520155,0.023431770255729,0.631599538611613,0.400079386589265,-0.014390525515047,0.021096403178003,-1.76202180763323,-1.8133657107594,-0.118638890282786
-8.94396122577643,7.74443739100817,0.109832558497269,-0.002678309942367,0.017383631027131,2.33770107553155,-3.63953527601117,3.74293472678428,0.003127016146178,5.22065401520155,0.023431770255729,0.631599538611613,0.400079386589265,-0.014390525515047,-0.157658308744431,0,0,0.030000000000086,-9.05241218692664,7.8561741249723,0.10978920291688,0.004323684003893,0.017238660859868,2.34357407597254,-3.62171263526689,3.68879220361093,-0.002870885151655,5.16949448144414,0.017808430340826,0.140711489166129,0.994231847914988,-0.34962454253932,0.233399798207979,-1.70531779190876,-0.18744466382954,0.195766681365789
-9.05241218692664,7.8561741249723,0.10978920291688,0.004323684003893,0.017238660859868,2.34357407597254,-3.62171263526689,3.68879220361093,-0.002870885151655,5.16949448144414,0.017808430340826,0.140711489166129,0.994231847914988,-0.34962454253932,-0.161234214901924,0,0,0.034999999999968,-9.17870642722217,7.98397225725932,0.10978482023472,-0.001950212793247,0.016342545892744,2.34355557961168,-3.58686622245203,3.63358870686199,0.001444663579055,5.10564240755899,0.031492769606608,0.068229714852308,-0.250397800666123,-0.040320373914183,-0.179254194204139,-1.82434496814878,0.390981121879821,-0.000528467453049
-9.17870642722217,7.98397225725932,0.10978482023472,-0.001950212793247,0.016342545892744,2.34355557961168,-3.58686622245203,3.63358870686199,0.001444663579055,5.10564240755899,0.031492769606608,0.068229714852308,-0.250397800666123,-0.040320373914183,-0.205933049321175,0,0,0.029999999999973,-9.28539880511524,8.09265889134724,0.109748840799234,0.001012630492799,0.015659876299847,2.34583246601255,-3.5454370439887,3.59533274330056,0.00144578580623,5.04938124916908,0.017040201762373,0.009781629545121,-0.247274627461376,0.085897633817163,0.098761442868263,-1.87537194633208,-0.481752261474927,0.075896213362572
-9.28539880511524,8.09265889134724,0.109748840799234,0.001012630492799,0.015659876299847,2.34583246601255,-3.5454370439887,3.59533274330056,0.00144578580623,5.04938124916908,0.017040201762373,0.009781629545121,-0.247274627461376,0.085897633817163,-0.224737375974655,0,0,0.035000000000082,-9.40927054532864,8.21733971551474,0.10973527317746,0.003292196280057,0.016126279382905,2.35088547633235,-3.53797435451851,3.51714200123618,0.004964268528373,4.9885721071533,0.041215553161185,0.435479979487637,0.260209002743724,-0.349728358918557,0.065130451064366,-1.73740405758961,0.690724325678724,0.144371723422351
-9.40927054532864,8.21733971551474,0.10973527317746,0.003292196280057,0.016126279382905,2.35088547633235,-3.53797435451851,3.51714200123618,0.004964268528373,4.9885721071533,0.041215553161185,0.435479979487637,0.260209002743724,-0.349728358918557,-0.222024619579315,0,0,0.029999999999973,-9.51586684194765,8.32148476408691,0.109832612632072,0.004835701606049,0.015735088036455,2.36114531527375,-3.5614287945631,3.42988754297577,0.005452306341498,4.94400709899022,0.068537736596806,0.045374004751948,-0.234594447702679,-0.182517555360938,0.051450177533138,-1.485500272104,0.910739447854868,0.341994631380442
-9.51586684194765,8.32148476408691,0.109832612632072,0.004835701606049,0.015735088036455,2.36114531527375,-3.5614287945631,3.42988754297577,0.005452306341498,4.94400709899022,0.068537736596806,0.045374004751948,-0.234594447702679,-0.182517555360938,-0.225600525736809,0,0,0.059999999999946,-9.72852218620455,8.52419755651606,0.109823272879421,-0.000677380592936,0.015794029645334,2.37329769888029,-3.51687182365983,3.33850844717108,0.002834959472852,4.8489338866466,0.043199986288502,-0.001029287485375,-0.248788681541151,-0.152003417341437,-0.091884703316512,-1.58455353906185,-0.422295838472108,0.202539726775766
-9.72852218620455,8.52419755651606,0.109823272879421,-0.000677380592936,0.015794029645334,2.37329769888029,-3.51687182365983,3.33850844717108,0.002834959472852,4.8489338866466,0.043199986288502,-0.001029287485375,-0.248788681541151,-0.152003417341437,-0.224274978041649,0,0,0.035000000000082,-9.85117828242229,8.63995326228876,0.109779717019663,0.003606107293712,0.014614721416982,2.38226438808522,-3.51260674366064,3.26431214186373,0.001376460710449,4.79495356780127,0.05059819916854,0.054216956430615,-0.0470596520699,-0.164461703140966,0.122385368189667,-1.54229482414878,0.211377510857717,0.256191120140475
-9.85117828242229,8.63995326228876,0.109779717019663,0.003606107293712,0.014614721416982,2.38226438808522,-3.51260674366064,3.26431214186373,0.001376460710449,4.79495356780127,0.05059819916854,0.054216956430615,-0.0470596520699,-0.164461703140966,-0.227419301867485,0,0,0.034999999999968,-9.97430245130359,8.75249323314064,0.109764962145679,0.000807229617289,0.015909979313566,2.39119633786959,-3.52300426745007,3.16982842088209,-0.001027164562172,4.7383880168631,0.083965992826733,-0.546608659438208,-0.208562989202863,-0.268655951299698,-0.079967933612154,-1.61615859823471,0.953365533092111,0.25519856526779
-9.97430245130359,8.75249323314064,0.109764962145679,0.000807229617289,0.015909979313566,2.39119633786959,-3.52300426745007,3.16982842088209,-0.001027164562172,4.7383880168631,0.083965992826733,-0.546608659438208,-0.208562989202863,-0.268655951299698,-0.304332107305527,0,0,0.039999999999964,-10.1142155478073,8.87828839437031,0.109761417585174,0.002618013434459,0.015684588846598,2.40709316544099,-3.49769180691458,3.09507842416043,-0.003039463611308,4.67023936700111,0.047145336714354,0.11708215240997,0.47310289829799,-0.564046675454244,0.045269595429281,-1.70371624655145,-0.920516402810327,0.397420689285328
-10.1142155478073,8.87828839437031,0.109761417585174,0.002618013434459,0.015684588846598,2.40709316544099,-3.49769180691458,3.09507842416043,-0.003039463611308,4.67023936700111,0.047145336714354,0.11708215240997,0.47310289829799,-0.564046675454244,-0.337440073490143,0,0,0.060000000000059,-10.3250777808098,9.05854053740822,0.109874516375271,0.007340362547241,0.015455198436338,2.43138501723009,-3.53157091465721,2.90989013918002,0.003298534101384,4.57495353126097,0.096197370820033,0.18785358543664,0.174214700142768,-0.631385244029515,0.078705818546285,-1.58809726233411,0.817533901760515,0.404864196484638
-10.3250777808098,9.05854053740822,0.109874516375271,0.007340362547241,0.015455198436338,2.43138501723009,-3.53157091465721,2.90989013918002,0.003298534101384,4.57495353126097,0.096197370820033,0.18785358543664,0.174214700142768,-0.631385244029515,-0.338303238153458,0,0,0.039999999999964,-10.4670157653503,9.172231606003,0.110069359397999,0.010231461691821,0.01528244438581,2.45356391087999,-3.56162239937751,2.77867786710476,0.006427998715447,4.51585464446086,0.115159172394974,-0.1353669619793,-0.181606159634873,-0.366161172163455,0.072277478614582,-1.47747217000397,0.474045039373947,0.554472341247918
-10.4670157653503,9.172231606003,0.110069359397999,0.010231461691821,0.01528244438581,2.45356391087999,-3.56162239937751,2.77867786710476,0.006427998715447,4.51585464446086,0.115159172394974,-0.1353669619793,-0.181606159634873,-0.366161172163455,-0.447861582040787,0,0,0.044999999999959,-10.6278218413408,9.29399552502696,0.11018605293998,0.008581858669075,0.015035279209287,2.47871230761559,-3.58692428357572,2.63360593278535,-0.00270057992616,4.44799021920473,0.131487775729919,-0.132624697019911,0.119467863631203,-0.57771441117819,-0.036657844949957,-1.50809833902644,0.362857851888012,0.55885326079173
-10.6278218413408,9.29399552502696,0.11018605293998,0.008581858669075,0.015035279209287,2.47871230761559,-3.58692428357572,2.63360593278535,-0.00270057992616,4.44799021920473,0.131487775729919,-0.132624697019911,0.119467863631203,-0.57771441117819,-0.458157747983933,0,0,0.065000000000055,-10.8618490787196,9.45751897524707,0.110301584416833,0.018359910999128,0.015914675306111,2.53181882036524,-3.63403476499987,2.37746460487881,0.000760794413245,4.34063150154102,0.132154411613814,-0.109626838437438,0.406713187753583,-0.807203798761452,0.150431574308387,-1.65167257944041,0.010255936675291,0.817023273070879
-10.8618490787196,9.45751897524707,0.110301584416833,0.018359910999128,0.015914675306111,2.53181882036524,-3.63403476499987,2.37746460487881,0.000760794413245,4.34063150154102,0.132154411613814,-0.109626838437438,0.406713187753583,-0.807203798761452,-0.456801354885101,0,0,0.034999999999968,-10.9893381075479,9.53815942893081,0.110529450799685,0.025271354798806,0.016254855264196,2.56540320462696,-3.66021183076826,2.21998610825833,0.008308717158859,4.2787725267648,0.13264475548871,0.220815612961199,0.541125459513107,-1.18124353002933,0.197469822848129,-1.76739927932204,0.014009824997048,0.959553836049954
-10.9893381075479,9.53815942893081,0.110529450799685,0.025271354798806,0.016254855264196,2.56540320462696,-3.66021183076826,2.21998610825833,0.008308717158859,4.2787725267648,0.13264475548871,0.220815612961199,0.541125459513107,-1.18124353002933,-0.4000184237957,0.017057381570339,0,0.034999999999968,-11.118310177751,9.61256081184491,0.110898159080848,0.030349556021666,0.01564196664246,2.60199562528081,-3.70911923655489,2.03348238791518,0.011779283233493,4.22689553667344,0.161152893218923,-0.062743285382259,-0.186912606702567,-1.07649477188468,0.145091463510413,-1.48219971689725,0.814518220863975,1.04549773296812
-11.118310177751,9.61256081184491,0.110898159080848,0.030349556021666,0.01564196664246,2.60199562528081,-3.70911923655489,2.03348238791518,0.011779283233493,4.22689553667344,0.161152893218923,-0.062743285382259,-0.186912606702567,-1.07649477188468,-0.392866611480713,0.051614198833704,0,0.040000000000077,-11.2674376444457,9.69017941052327,0.111106350728869,0.030037301215599,0.01412992200198,2.63858805488991,-3.75037738903285,1.84643047260266,0.003530659667516,4.17593915846727,0.190179376127365,-0.037557958902871,-0.318428769183113,-0.757680039217623,-0.007806370151663,-1.2739094551518,0.725662072709645,0.9148107402256
-11.2674376444457,9.69017941052327,0.111106350728869,0.030037301215599,0.01412992200198,2.63858805488991,-3.75037738903285,1.84643047260266,0.003530659667516,4.17593915846727,0.190179376127365,-0.037557958902871,-0.318428769183113,-0.757680039217623,-0.337440073490143,0.197640642523766,0,0.044999999999959,-11.4370457138942,9.76929782218277,0.110867917317177,0.021642349375654,0.01173505117179,2.68069289680893,-3.79158132172415,1.67638826664226,-0.012454973448107,4.14152065790692,0.184859892658008,0.003292344592202,-0.166877552297465,-0.672885275823952,-0.186554485332287,-0.764855568008476,-0.118210743763593,0.935663153756969
-11.4370457138942,9.76929782218277,0.110867917317177,0.021642349375654,0.01173505117179,2.68069289680893,-3.79158132172415,1.67638826664226,-0.012454973448107,4.14152065790692,0.184859892658008,0.003292344592202,-0.166877552297465,-0.672885275823952,-0.334727317094803,0.212653279304504,0,0.07000000000005,-11.7055577101205,9.87962485404312,0.109954501056918,0.0094224143072,0.007083145245577,2.73037459383081,-3.87509558709539,1.49140069650776,-0.011269072483857,4.14819858584551,0.18190750138257,-0.152829788999595,-0.236274372452085,-0.548436762412155,-0.174570500977788,0.095398970551215,-0.042177018220524,0.709738528883529
-11.7055577101205,9.87962485404312,0.109954501056918,0.0094224143072,0.007083145245577,2.73037459383081,-3.87509558709539,1.49140069650776,-0.011269072483857,4.14819858584551,0.18190750138257,-0.152829788999595,-0.236274372452085,-0.548436762412155,-0.334357410669327,0.227049380540848,0,0.029999999999973,-11.822079163716,9.92351485255102,0.109642544830462,0.005455533070682,0.006581066153307,2.74942723926032,-3.89801763592182,1.43131283080439,-0.006836871106856,4.14912820175616,0.167131908905912,-0.070229258222246,-0.236376267394996,-0.636030352843103,-0.132229374550708,0.03098719702151,-0.492519749222379,0.635088180983923
-11.822079163716,9.92351485255102,0.109642544830462,0.005455533070682,0.006581066153307,2.74942723926032,-3.89801763592182,1.43131283080439,-0.006836871106856,4.14912820175616,0.167131908905912,-0.070229258222246,-0.236376267394996,-0.636030352843103,-0.333833336830139,0.255533337593079,0,0.039999999999964,-11.9789302217682,9.97916023310543,0.109451642120707,0.003625146899343,0.005603128703104,2.77640326013937,-3.94401129999254,1.35128917781175,-0.001670436600275,4.16650874909331,0.146329833830588,-0.29265039168053,-0.242570965732097,-0.666913402802859,-0.045759654283527,0.434513683429256,-0.520051876883566,0.674400521976917
-11.9789302217682,9.97916023310543,0.109451642120707,0.003625146899343,0.005603128703104,2.77640326013937,-3.94401129999254,1.35128917781175,-0.001670436600275,4.16650874909331,0.146329833830588,-0.29265039168053,-0.242570965732097,-0.666913402802859,-0.349061757326126,0.328962713479996,0,0.034999999999968,-12.117530076648,10.025324910585,0.109509695173219,0.003207054132338,0.003884403069308,2.79904707654084,-3.98453296219606,1.28382306391905,0.003686478523384,4.18426035347568,0.129111891818524,0.22843887909673,-0.092544090915483,-0.543593942231479,-0.011945507628715,0.507188696639668,-0.491941200345119,0.646966182899946
-12.117530076648,10.025324910585,0.109509695173219,0.003207054132338,0.003884403069308,2.79904707654084,-3.98453296219606,1.28382306391905,0.003686478523384,4.18426035347568,0.129111891818524,0.22843887909673,-0.092544090915483,-0.543593942231479,-0.34724298119545,0.333525061607361,0,0.065000000000055,-12.3798699594478,10.1035607792174,0.10990320845316,0.011898892113124,0.002704636347225,2.84441791358975,-4.08665912240759,1.11229965546069,0.009886656106423,4.23323456848879,0.13311045956884,0.272818321874079,-0.059075155274015,-0.597000192127461,0.133720584319673,0.753449461739532,0.061516426927874,0.698012877674821
-12.3798699594478,10.1035607792174,0.10990320845316,0.011898892113124,0.002704636347225,2.84441791358975,-4.08665912240759,1.11229965546069,0.009886656106423,4.23323456848879,0.13311045956884,0.272818321874079,-0.059075155274015,-0.597000192127461,-0.349061757326126,0.333309292793274,0,0.034999999999968,-12.5239610550035,10.1407268989917,0.110178593427431,0.013759017379646,0.003034197847408,2.87075026476661,-4.14140305226857,1.00924181418836,0.008092399125825,4.26044757387008,0.13555349921802,0.038354303482218,0.166703190633044,-0.810734142706769,0.053146436186378,0.777514439465901,0.069801132833791,0.752352890768317
-12.5239610550035,10.1407268989917,0.110178593427431,0.013759017379646,0.003034197847408,2.87075026476661,-4.14140305226857,1.00924181418836,0.008092399125825,4.26044757387008,0.13555349921802,0.038354303482218,0.166703190633044,-0.810734142706769,-0.34995573759079,0.345424205064774,0,0.040000000000077,-12.6909795388618,10.1788982632705,0.110310754480462,0.015243221887805,0.00316153485226,2.89846130099997,-4.20136516128133,0.888648008504017,0.004593754135629,4.29173415853259,0.14893761758288,0.053887312652777,0.162910941755737,-0.918981927251475,0.037105112703912,0.782164616561241,0.334602959120844,0.692775905832637
-12.6909795388618,10.1788982632705,0.110310754480462,0.015243221887805,0.00316153485226,2.89846130099997,-4.20136516128133,0.888648008504017,0.004593754135629,4.29173415853259,0.14893761758288,0.053887312652777,0.162910941755737,-0.918981927251475,-0.322211652994156,0.437873721122742,0,0.05499999999995,-12.9251385606546,10.2227797987654,0.110357903625311,0.017170815185945,0.00089802319127,2.94011278411212,-4.30867684485882,0.705608481129075,-0.000971007847167,4.362724780373,0.170915104022947,-0.047844909429254,-0.298324771802098,-0.614211014284557,0.035047150875311,1.29073857891784,0.399590662547041,0.757299692948769
-12.9251385606546,10.2227797987654,0.110357903625311,0.017170815185945,0.00089802319127,2.94011278411212,-4.30867684485882,0.705608481129075,-0.000971007847167,4.362724780373,0.170915104022947,-0.047844909429254,-0.298324771802098,-0.614211014284557,-0.287346571683884,0.484514623880386,0,0.05499999999995,-13.1651537520196,10.2579895834484,0.11011860891771,0.009594504626184,-0.002879132923375,2.97636844470443,-4.42880095965792,0.576401054066528,-0.006785447201546,4.46329004362857,0.159869014640095,0.148992357594298,-0.294082356969117,-0.455372921318277,-0.137751101086701,1.82845933192103,-0.200837988779314,0.659193828951826
-13.1651537520196,10.2579895834484,0.11011860891771,0.009594504626184,-0.002879132923375,2.97636844470443,-4.42880095965792,0.576401054066528,-0.006785447201546,4.46329004362857,0.159869014640095,0.148992357594298,-0.294082356969117,-0.455372921318277,-0.329394280910492,0.544996738433838,0,0.040000000000077,-13.3440468792567,10.2796522622035,0.109764304743579,0.001590181494081,-0.003165651876661,2.99675934904889,-4.50793015445523,0.51307328950376,-0.00715325786612,4.53478260390088,0.142916805194312,0.180727674314104,-0.243055514536842,-0.352846966148823,-0.200108078302188,1.78731400680433,-0.423805236143745,0.50977260861044
-13.3440468792567,10.2796522622035,0.109764304743579,0.001590181494081,-0.003165651876661,2.99675934904889,-4.50793015445523,0.51307328950376,-0.00715325786612,4.53478260390088,0.142916805194312,0.180727674314104,-0.243055514536842,-0.352846966148823,-0.345485866069794,0.562290608882904,0,0.024999999999977,-13.4576364517236,10.2926460763269,0.109544152310655,0.000855212580438,-0.004298677213998,3.00842246167335,-4.5716039815815,0.522401834265957,-0.00782590808131,4.600489666428,0.089227069578116,-0.210213026711161,0.712085710126513,-0.65331968439247,-0.029398756545727,2.62828250108716,-2.14758942464982,0.466524504978805
-13.4576364517236,10.2926460763269,0.109544152310655,0.000855212580438,-0.004298677213998,3.00842246167335,-4.5716039815815,0.522401834265957,-0.00782590808131,4.600489666428,0.089227069578116,-0.210213026711161,0.712085710126513,-0.65331968439247,-0.393760591745377,0.564880013465881,0,0.034999999999968,-13.618970722835,10.3090227802782,0.109569540123697,0.012490042440965,-0.004865632479489,3.03394271468886,-4.6531215611587,0.408718633504205,0.006519330827257,4.67009982217286,0.093588649069031,0.182277966774408,0.489798205917755,-0.829229441291319,0.332423710301078,1.98886159271203,0.124616556883411,0.729150086158082
-13.618970722835,10.3090227802782,0.109569540123697,0.012490042440965,-0.004865632479489,3.03394271468886,-4.6531215611587,0.408718633504205,0.006519330827257,4.67009982217286,0.093588649069031,0.182277966774408,0.489798205917755,-0.829229441291319,-0.433126389980316,0.564880013465881,0,0.035000000000082,-13.7836039015078,10.3204603262134,0.110130956289171,0.027028239671441,-0.005146805575606,3.06683647404408,-4.74558666848389,0.22935006025646,0.026066952707695,4.74946188886381,0.125722092178945,0.469200055291021,0.261183259808505,-0.792695833574981,0.415377063726909,2.26748761973623,0.918098374566831,0.939821695861094
-13.7836039015078,10.3204603262134,0.110130956289171,0.027028239671441,-0.005146805575606,3.06683647404408,-4.74558666848389,0.22935006025646,0.026066952707695,4.74946188886381,0.125722092178945,0.469200055291021,0.261183259808505,-0.792695833574981,-0.449217975139618,0.567469477653503,0,0.034999999999968,-13.9512808100209,10.3256418105303,0.110954811459364,0.036113534991228,-0.004068032240873,3.10235289985658,-4.8260268101345,0.048901248087311,0.025028407118779,4.82423021003549,0.140459904536536,-0.088155448603146,-0.033970419216865,-1.17532165022264,0.259579866279847,2.13623774776423,0.421080353074423,1.01475502321533
-13.9512808100209,10.3256418105303,0.110954811459364,0.036113534991228,-0.004068032240873,3.10235289985658,-4.8260268101345,0.048901248087311,0.025028407118779,4.82423021003549,0.140459904536536,-0.088155448603146,-0.033970419216865,-1.17532165022264,-0.450111955404282,0.564880013465881,0,0.039999999999964,-14.1463448643672,10.3230718453268,0.111669846316306,0.041740991506094,-0.00379139527187,-3.13727900386455,-4.91028617861522,-0.18685242093768,0.016085273965509,4.91104650782404,0.165669493568567,-0.043851792995513,-0.168711508433311,-1.2997270690727,0.140686412871799,2.1704074447157,0.63023972580133,1.08883508646243
-14.1463448643672,10.3230718453268,0.111669846316306,0.041740991506094,-0.00379139527187,-3.13727900386455,-4.91028617861522,-0.18685242093768,0.016085273965509,4.91104650782404,0.165669493568566,-0.043851792995513,-0.168711508433311,-1.2997270690727,-0.499311476945877,0.566606342792511,0,0.044999999999959,-14.3695741187315,10.3079199977296,0.112076406441963,0.048855024885101,-0.003806519450695,-3.08265044263843,-4.99394404239411,-0.494052313481784,0.005642640288798,5.01437528973517,0.199010654774014,0.113603208295219,0.474197118384421,-1.25365693488911,0.158089630644727,2.29619515358283,0.740914693455048,1.2139680272481
-14.3695741187315,10.3079199977296,0.112076406441963,0.048855024885101,-0.003806519450695,-3.08265044263843,-4.99394404239411,-0.494052313481784,0.005642640288798,5.01437528973517,0.199010654774014,0.113603208295219,0.474197118384421,-1.25365693488911,-0.500205457210541,0.562290608882904,0,0.035000000000082,-14.5453413276026,10.2868467392063,0.112109510075796,0.049461482260901,-0.004477327508931,-3.03795167706471,-5.04291512455072,-0.714638648902013,0.001223958837562,5.0897885668584,0.189086479168731,0.065368194747447,-0.676787233514751,-1.40303068162505,0.017327353594241,2.15466506065863,-0.283547874435995,1.27710758781782
-14.5453413276026,10.2868467392063,0.112109510075796,0.049461482260901,-0.004477327508931,-3.03795167706471,-5.04291512455072,-0.714638648902013,0.001223958837562,5.0897885668584,0.189086479168731,0.065368194747447,-0.676787233514751,-1.40303068162505,-0.504397928714752,0.559701144695282,0,0.039999999999964,-14.7481973520328,10.2524413013696,0.11206769393935,0.052733146662906,-0.002758254308946,-2.98622114154571,-5.07721100700433,-1.00281330198924,0.002302929612221,5.17123397149172,0.205049604687334,-0.095706423557817,0.025187310530697,-1.63828276715472,0.081791610050201,2.03613511583483,0.399078137965441,1.29326338797618
-14.7481973520328,10.2524413013696,0.11206769393935,0.052733146662906,-0.002758254308946,-2.98622114154571,-5.07721100700433,-1.00281330198924,0.002302929612221,5.17123397149172,0.205049604687334,-0.095706423557817,0.025187310530697,-1.63828276715472,-0.504212915897369,0.557080864906311,0,0.034999999999968,-14.9264512511089,10.2127866982086,0.112121656836204,0.056885892227052,-0.002290387856743,-2.93452691653543,-5.0952430721974,-1.27511994925594,0.003772439126079,5.24855132281705,0.200354339911858,0.009968284212606,-0.403194181533455,-1.46030626304242,0.118649873261434,2.20906718072556,-0.134150422156579,1.47697785743789
-14.9264512511089,10.2127866982086,0.112121656836204,0.056885892227052,-0.002290387856743,-2.93452691653543,-5.0952430721974,-1.27511994925594,0.003772439126079,5.24855132281705,0.200354339911858,0.009968284212606,-0.403194181533455,-1.46030626304242,-0.502856552600861,0.550175666809082,0,0.075000000000046,-15.3082483986479,10.0958860479162,0.111962198930033,0.057236427494279,-0.000331533450723,-2.82879380730607,-5.06731082231135,-1.84754539253233,-0.004968444723906,5.38995675431539,0.198567706314827,0.017943807931911,-0.565937612526894,-1.5309055499203,0.004673803563027,1.88540575331009,-0.023821781293728,1.40977478972389
-15.3082483986479,10.0958860479162,0.111962198930033,0.057236427494279,-0.000331533450723,-2.82879380730607,-5.06731082231135,-1.84754539253233,-0.004968444723906,5.38995675431539,0.198567706314827,0.017943807931911,-0.565937612526894,-1.5309055499203,-0.502856552600861,0.502640783786774,0,0.034999999999968,-15.4850599473134,10.0269174239861,0.112056429060823,0.061255115940483,-0.0010212332955,-2.77590845551318,-5.0210395732487,-2.11583690481912,0.006817338654063,5.44564361414536,0.180471137974584,-0.137670203720896,0.097807640326999,-1.3788608850852,0.114819669891643,1.5910531380007,-0.517044809721711,1.51101005122675
-15.4850599473134,10.0269174239861,0.112056429060823,0.061255115940483,-0.0010212332955,-2.77590845551318,-5.0210395732487,-2.11583690481912,0.006817338654063,5.44564361414536,0.180471137974584,-0.137670203720896,0.097807640326999,-1.3788608850852,-0.504675328731537,0.496906995773315,0,0.035000000000082,-15.6598180897895,9.9479814268308,0.112188285920141,0.062185686903894,0.000291202534282,-2.72855281263386,-4.95755533182718,-2.40703298758054,0.00248210235624,5.50682104202342,0.214673432350401,0.06223551390202,0.593343553169652,-1.32802852804026,0.026587741811676,1.7479265107977,0.977208410735365,1.35301836797746
-15.6598180897895,9.9479814268308,0.112188285920141,0.062185686903894,0.000291202534282,-2.72855281263386,-4.95755533182718,-2.40703298758054,0.00248210235624,5.50682104202342,0.214673432350401,0.06223551390202,0.593343553169652,-1.32802852804026,-0.505569338798523,0.491450667381287,0,0.034999999999968,-15.832024528752,9.85970672856456,0.112344672548018,0.062947725578585,0.001275148700198,-2.67479912606424,-4.87781991338708,-2.65859524286439,0.002856454711977,5.55240537664357,0.17902599318625,-0.060108645624406,-0.509108634327367,-1.55795572860034,0.021772533562611,1.30240956057672,-1.01849826183383,1.53581961627617
-15.832024528752,9.85970672856456,0.112344672548018,0.062947725578585,0.001275148700198,-2.67479912606424,-4.87781991338708,-2.65859524286439,0.002856454711977,5.55240537664357,0.17902599318625,-0.060108645624406,-0.509108634327367,-1.55795572860034,-0.504212915897369,0.449957817792892,0,0.074999999999932,-16.1877135227047,9.63788325237243,0.112734674326237,0.065146124705063,0.004006139880184,-2.54536402373561,-4.60555449416178,-3.26694224932135,-0.00456789720735,5.64538093444362,0.117123712864073,0.369275010876398,-1.0255459721123,-1.4851632135928,0.029311988353069,1.2396741040018,-0.825363737629776,1.72580136438338
-16.1877135227047,9.63788325237243,0.112734674326237,0.065146124705063,0.004006139880184,-2.54536402373561,-4.60555449416178,-3.26694224932135,-0.00456789720735,5.64538093444362,0.117123712864073,0.369275010876398,-1.0255459721123,-1.4851632135928,-0.505106925964356,0.439569175243378,0,0.045000000000073,-16.3904896791106,9.48388154983424,0.112520768698872,0.065227219601974,0.005087060399261,-2.48355120114876,-4.40451811135343,-3.59487066031609,-0.010431299020214,5.68332688195031,0.150566963650149,-0.056257118636406,-0.832823856226083,-1.36364402904987,0.001802108820256,0.843243277925093,0.743183350800497,1.37361827970549
-16.3904896791106,9.48388154983424,0.112520768698872,0.065227219601974,0.005087060399261,-2.48355120114876,-4.40451811135343,-3.59487066031609,-0.010431299020214,5.68332688195031,0.150566963650149,-0.056257118636406,-0.832823856226083,-1.36364402904987,-0.505569338798523,0.410222083330154,0,0.029999999999973,-16.5210586399938,9.37371558665472,0.112279769917837,0.058853281837179,0.003973694891868,-2.44688816633687,-4.28942589432894,-3.75388820893078,-0.004338708963504,5.69840425957972,0.137985805403935,0.064596907466828,-0.011250063026619,-1.32515343718272,-0.212464592160024,0.502579254314012,-0.419371941540873,1.22210116039758
-16.5210586399938,9.37371558665472,0.112279769917837,0.058853281837179,0.003973694891868,-2.44688816633687,-4.28942589432894,-3.75388820893078,-0.004338708963504,5.69840425957972,0.137985805403935,0.064596907466828,-0.011250063026619,-1.32515343718272,-0.505569338798523,0.411917567253113,0,0.034999999999968,-16.6684714663026,9.23871831998611,0.112104790158789,0.055386032760565,0.002379897991471,-2.40212902478159,-4.14069382084929,-3.96148397795406,-0.006637391814269,5.72888057425148,0.136484400464849,-0.463749814547728,0.282566379981686,-1.30378029447283,-0.099064259331922,0.870751847765488,-0.042897283973913,1.27883261586633
-16.6684714663026,9.23871831998611,0.112104790158789,0.055386032760565,0.002379897991471,-2.40212902478159,-4.14069382084929,-3.96148397795406,-0.006637391814269,5.72888057425148,0.136484400464849,-0.463749814547728,0.282566379981686,-1.30378029447283,-0.501099407672882,0.410222083330154,0,0.035000000000082,-16.8105051566696,9.09680414461561,0.112103276840585,0.055968361675818,0.003724666788695,-2.35750698023554,-3.97530924749735,-4.15992817378548,-0.006711215675973,5.75230525310308,0.138095254859721,-1.03576611251148,-0.054699768034291,-1.38599785892398,0.016637969007179,0.669276538615658,0.046024411281952,1.27491555845557
-16.8105051566696,9.09680414461561,0.112103276840585,0.055968361675818,0.003724666788695,-2.35750698023554,-3.97530924749735,-4.15992817378548,-0.006711215675973,5.75230525310308,0.138095254859721,-1.03576611251148,-0.054699768034291,-1.38599785892398,-0.411640137434006,0.409790515899658,0,0.039999999999964,-16.9656881803288,8.92622085088152,0.11212516174514,0.060139481029235,0.002889895656723,-2.30584696987482,-3.76429849804999,-4.37700417403138,0.009258654555875,5.77127929316459,0.142982663980996,0.017619973296723,0.222413799602827,-1.30388366655233,0.104277983835528,0.474351001538174,0.12218522803199,1.29150025901907
-16.9656881803288,8.92622085088152,0.11212516174514,0.060139481029235,0.002889895656723,-2.30584696987482,-3.76429849804999,-4.37700417403138,0.009258654555875,5.77127929316459,0.142982663980996,0.017619973296723,0.222413799602827,-1.30388366655233,-0.344561070203781,0.408495783805847,0,0.044999999999959,-17.1304520875161,8.72378618256685,0.112321412944099,0.058298725132339,0.00168354060239,-2.25052900915103,-3.54456772450792,-4.62546519694221,0.002241475269137,5.82547551163374,0.150743839351411,0.39141475128605,-0.142099712902945,-1.02428695458988,-0.040905686597741,1.20436041042668,0.172470563787157,1.22928801608537
-17.1304520875161,8.72378618256685,0.112321412944099,0.058298725132339,0.00168354060239,-2.25052900915103,-3.54456772450792,-4.62546519694221,0.002241475269137,5.82547551163374,0.150743839351411,0.39141475128605,-0.142099712902945,-1.02428695458988,-0.306120067834854,0.413674682378769,0,0.065000000000055,-17.3507245746471,8.41308536052804,0.112083727545785,0.046856093381585,0.002636633985124,-2.17972103948168,-3.23118659044193,-4.9161150296284,-0.003812583527149,5.88070267838982,0.161523296056152,0.428203633742895,-0.148145916000183,-1.36996630947813,-0.176040488472982,0.849648719323478,0.165837795457408,1.08935337952757
-17.3507245746471,8.41308536052804,0.112083727545785,0.046856093381585,0.002636633985124,-2.17972103948168,-3.23118659044193,-4.9161150296284,-0.003812583527149,5.88070267838982,0.161523296056152,0.428203633742895,-0.148145916000183,-1.36996630947813,-0.298968255519867,0.418853580951691,0,0.034999999999968,-17.4616237795939,8.23843665945592,0.111818869548727,0.040719063014727,0.001293796230741,-2.14546021074375,-3.09966609034835,-5.06342899772331,-0.014351011329711,5.93494780480671,0.150458103340277,-0.329822930494551,-0.384584099278515,-1.01430684320012,-0.175343724767529,1.54986075476975,-0.316148363310993,0.978880821084466
-17.4616237795939,8.23843665945592,0.111818869548727,0.040719063014727,0.001293796230741,-2.14546021074375,-3.09966609034835,-5.06342899772331,-0.014351011329711,5.93494780480671,0.150458103340277,-0.329822930494551,-0.384584099278515,-1.01430684320012,-0.304332107305527,0.420579880475998,0,0.085000000000036,-17.7119600284244,7.79537120468733,0.111001758190018,0.037376076688395,0.001087648387259,-2.06939856035145,-2.7754830139966,-5.36530726184928,-0.000468252995715,6.03932249627814,0.128108395451037,-0.321169724340533,-0.235833394085411,-1.11023266035738,-0.039329250898009,1.22793754672216,-0.262937739873297,0.894842945791446
-17.7119600284244,7.79537120468733,0.111001758190018,0.037376076688395,0.001087648387259,-2.06939856035145,-2.7754830139966,-5.36530726184928,-0.000468252995715,6.03932249627814,0.128108395451037,-0.321169724340533,-0.235833394085411,-1.11023266035738,-0.449217975139618,0.430937677621841,0,0.074999999999932,-17.9056368900571,7.38225940100612,0.111674496917259,0.052361628237435,0.00033647041808,-1.98425107934216,-2.36239350961519,-5.65588176388967,0.01872920624388,6.12845882475741,0.109059867159084,-0.443473731207092,0.432287850513268,-0.929318621771359,0.199807353987379,1.18848437972469,-0.253980377226271,1.13529974679159
-17.9056368900571,7.38225940100612,0.111674496917259,0.052361628237435,0.00033647041808,-1.98425107934216,-2.36239350961519,-5.65588176388967,0.01872920624388,6.12845882475741,0.109059867159084,-0.443473731207092,0.432287850513268,-0.929318621771359,-0.463983982801437,0.430074542760849,0,0.035000000000082,-17.9845972132859,7.1821772078964,0.112419931779749,0.050851985426928,0.000830667332136,-1.94382131515495,-2.1523463024229,-5.76698114527646,0.018426874666343,6.1547695188893,0.097356586212196,0.284625722834114,-0.055441163246488,-1.37000627958486,-0.043132651728655,0.751734118052224,-0.334379455624608,1.15513611963177
-17.9845972132859,7.1821772078964,0.112419931779749,0.050851985426928,0.000830667332136,-1.94382131515495,-2.1523463024229,-5.76698114527646,0.018426874666343,6.1547695188893,0.097356586212196,0.284625722834114,-0.055441163246488,-1.37000627958486,-0.463552415370941,0.435253441333771,0,0.034999999999968,-18.0563998895785,6.97813682300553,0.11275635919056,0.056286710103164,0.002342873961279,-1.90438010774734,-1.93396193001599,-5.88488258329643,-0.000983848251841,6.1937180266254,0.099542817884641,0.195647743034344,-0.392420052304221,-1.29074121062826,0.155277847892572,1.11281450674687,0.062463762069928,1.12689164021832
-18.0563998895785,6.97813682300553,0.11275635919056,0.056286710103164,0.002342873961279,-1.90438010774734,-1.93396193001599,-5.88488258329643,-0.000983848251841,6.1937180266254,0.099542817884641,0.195647743034344,-0.392420052304221,-1.29074121062826,-0.463552415370941,0.437873721122742,0,0.034999999999968,-18.1202686197096,6.7700829803974,0.112586105030615,0.054824952240991,0.001341976970183,-1.86739862461788,-1.71211134898891,-6.00113658635266,-0.009068116677358,6.23950049613092,0.116615428563333,0.163375392687454,-0.152981910461778,-0.956675783254948,-0.041764510347829,1.30807055730173,0.487788876534489,1.05661380369984
-18.1202686197096,6.7700829803974,0.112586105030615,0.054824952240991,0.001341976970183,-1.86739862461788,-1.71211134898891,-6.00113658635266,-0.009068116677358,6.23950049613092,0.116615428563333,0.163375392687454,-0.152981910461778,-0.956675783254948,-0.460839658975601,0.435253441333771,0,0.039999999999964,-18.1835485753588,6.52759021797844,0.112253299392195,0.052753342742562,0.000761473383601,-1.82818703241896,-1.45554484185363,-6.1212078262991,-0.007013549557604,6.29008055998572,0.150607397832224,0.427882407986928,-0.477515345021328,-0.978034714082649,-0.051790237460775,1.26450159637121,0.849799231723049,0.980289804973908
-18.1835485753588,6.52759021797844,0.112253299392195,0.052753342742562,0.000761473383601,-1.82818703241896,-1.45554484185363,-6.1212078262991,-0.007013549557604,6.29008055998572,0.150607397832224,0.427882407986928,-0.477515345021328,-0.978034714082649,-0.451899886131287,0.434390276670456,0,0.080000000000041,-18.2796858885108,6.03086254099609,0.112015576089234,0.059294434125372,0.001169058311521,-1.73285545968851,-0.913062261016122,-6.30294544020233,0.007844003822999,6.36768202094896,0.115886128344481,0.77678310215639,-0.217453824478988,-1.20484178492702,0.081763642285081,0.970018262039932,-0.434015868596567,1.19164465913002
-18.2796858885108,6.03086254099609,0.112015576089234,0.059294434125372,0.001169058311521,-1.73285545968851,-0.913062261016122,-6.30294544020233,0.007844003822999,6.36768202094896,0.115886128344481,0.77678310215639,-0.217453824478988,-1.20484178492702,-0.448323994874954,0.428779810667038,0,0.034999999999968,-18.3077053891986,5.80906674145506,0.112252433563107,0.058182383549665,0.000797008014211,-1.69127584574402,-0.68241803722383,-6.36424968600416,0.006899668350383,6.40013462671728,0.087436852796502,0.029902498810072,0.069400781909909,-1.19417484592526,-0.031772873591645,0.927217307667208,-0.812836444228699,1.18798896984366
-18.3077053891986,5.80906674145506,0.112252433563107,0.058182383549665,0.000797008014211,-1.69127584574402,-0.68241803722383,-6.36424968600416,0.006899668350383,6.40013462671728,0.087436852796502,0.029902498810072,0.069400781909909,-1.19417484592526,-0.418791949748993,0.422306180000305,0,0.035000000000082,-18.3270010680368,5.58512867109933,0.112561232184066,0.055446558688068,0.00285184805927,-1.6509247607477,-0.43410295449772,-6.41700513025622,0.010952109476866,6.43116252755121,0.080924415718428,0.592916241092674,-0.092866204884672,-1.39762368256342,-0.078166424616876,0.886511452395953,-0.186069630801675,1.15288814274923
-18.3270010680368,5.58512867109933,0.112561232184066,0.055446558688068,0.00285184805927,-1.6509247607477,-0.43410295449772,-6.41700513025622,0.010952109476866,6.43116252755121,0.080924415718428,0.592916241092674,-0.092866204884672,-1.39762368256342,-0.386608779430389,0.424063324928284,0,0.039999999999964,-18.3382088024401,5.3272951648416,0.112716502611726,0.058741585163721,0.002276108638011,-1.60318707919742,-0.12324167713217,-6.47161848717579,-0.000559790801539,6.47221509229613,0.08640690708483,-0.470466278589949,-0.020109899680354,-1.36924833476325,0.082375661891399,1.02631411862386,0.137062284160167,1.19344203875822
