x_pos,y_pos,z_pos,roll,pitch,yaw,u_x,u_y,u_z,comp_u_x,comp_u_y,roll_mder,pitch_mder,yaw_mder,steer,throttle,brake,time_step,act_x_pos,act_y_pos,act_z_pos,act_roll,act_pitch,act_yaw,act_u_x,act_u_y,act_u_z,act_comp_u_x,act_comp_u_y,act_roll_mder,act_pitch_mder,act_yaw_mder
0.9479026994474964,-0.2843355672368132,0.10909608449929073,-4.693354565845679e-06,-0.01984199661897112,-0.8297955284678367,0.2781243960490919,-0.3120474136950658,0.0001861737938685451,0.4179678850244065,-0.005441981227105291,-0.08401338805480887,0.09373579034187397,0.027036351624980474,0.003555252216756344,1.0,0.0,0.06000000000130967,0.9665426268961514,-0.30532796558759545,0.10934820543933424,-1.1264101691037504e-05,-0.021443394746504814,-0.8316496656064304,0.4629728296760497,-0.5240630384756666,0.007547609545996913,0.6991905996449267,-0.010881851072512938,-0.013991721338924826,0.009977999612327433,0.047640290082781776
0.9665426268961514,-0.30532796558759545,0.10934820543933424,-1.1264101691037504e-05,-0.021443394746504814,-0.8316496656064304,0.4629728296760497,-0.5240630384756666,0.007547609545996913,0.6991905996449267,-0.010881851072512938,-0.013991721338924826,0.009977999612327433,0.047640290082781776,0.0006267083808779716,1.0,0.0,0.019999999998617568,0.9739133920295604,-0.31369483994456043,0.10945994730299768,1.2686820049425694e-05,-0.02150836847274306,-0.8324524599967819,0.5184555872615763,-0.5862558642744711,0.007015029745096369,0.782539390957955,-0.011146118521970838,-0.027681305069193148,0.039256726241220924,0.05782058508863068
0.9739133920295604,-0.31369483994456043,0.10945994730299768,1.2686820049425694e-05,-0.02150836847274306,-0.8324524599967819,0.5184555872615763,-0.5862558642744711,0.007015029745096369,0.782539390957955,-0.011146118521970838,-0.027681305069193148,0.039256726241220924,0.05782058508863068,0.0015823384746909142,1.0,0.0,0.020000000000436557,0.9850237574818479,-0.3263190196358458,0.10958881357315148,-2.1064396283724877e-05,-0.021613032595853184,-0.8337441785163455,0.5892414109590509,-0.672016811472172,0.005670617067431445,0.8936308152213011,-0.015362336318117398,-0.07783779995074785,0.08664578535399058,0.0724726102733507
0.9850237574818479,-0.3263190196358458,0.10958881357315148,-2.1064396283724877e-05,-0.021613032595853184,-0.8337441785163455,0.5892414109590509,-0.672016811472172,0.005670617067431445,0.8936308152213011,-0.015362336318117398,-0.07783779995074785,0.08664578535399058,0.0724726102733507,0.0006267083808779716,1.0,0.0,0.040000000000873115,1.0008879293550894,-0.34452395464838537,0.10969330353037862,-2.8954628463924572e-05,-0.021494825561809667,-0.8359464250146239,0.6769285328711209,-0.7786762357669639,0.0026631320445114626,1.0315885489896883,-0.019849039185962924,0.017878394014058326,-0.031474219099878985,0.08545097306078661
1.0008879293550894,-0.34452395464838537,0.10969330353037862,-2.8954628463924572e-05,-0.021494825561809667,-0.8359464250146239,0.6769285328711209,-0.7786762357669639,0.0026631320445114626,1.0315885489896883,-0.019849039185962924,0.017878394014058326,-0.031474219099878985,0.08545097306078661,0.0231919102370739,1.0,0.0,0.019999999998617568,1.0151631974611721,-0.3610245921365304,0.10972698343633974,-3.2029171074463956e-05,-0.021556831532625425,-0.8380594084951616,0.7465967897132271,-0.8653620280128679,0.0006217860924824757,1.142667320311382,-0.02386631578283116,5.741908482667212e-05,-0.020873042241781034,0.09847828575786284
1.0151631974611721,-0.3610245921365304,0.10972698343633974,-3.2029171074463956e-05,-0.021556831532625425,-0.8380594084951616,0.7465967897132271,-0.8653620280128679,0.0006217860924824757,1.142667320311382,-0.02386631578283116,5.741908482667212e-05,-0.020873042241781034,0.09847828575786284,0.05855022370815277,1.0,0.0,0.020000000000436557,1.030824363307845,-0.3792691746703551,0.10972333781835425,-3.744051160040596e-05,-0.02162228879183698,-0.8404899164232176,0.817152718668548,-0.9517464201313196,-0.0010085207991721856,1.2541434501298874,-0.026153782833162054,0.0017718924797724873,-0.019679996106185964,0.11096072961770441
1.030824363307845,-0.3792691746703551,0.10972333781835425,-3.744051160040596e-05,-0.02162228879183698,-0.8404899164232176,0.817152718668548,-0.9517464201313196,-0.0010085207991721856,1.2541434501298874,-0.026153782833162054,0.0017718924797724873,-0.019679996106185964,0.11096072961770441,0.13416831195354462,0.8716372847557068,0.0,0.020000000000436557,1.0663012595196228,-0.4210172061213013,0.10965993434639246,-1.468215361800907e-05,-0.021657146980078815,-0.8462723596433386,0.9489188006294004,-1.132942114406007,-0.001956035187694112,1.477287570382984,-0.04032566397015269,0.02317351450917178,-0.018648963759833704,0.18943818352177355
1.0663012595196228,-0.4210172061213013,0.10965993434639246,-1.468215361800907e-05,-0.021657146980078815,-0.8462723596433386,0.9489188006294004,-1.132942114406007,-0.001956035187694112,1.477287570382984,-0.04032566397015269,0.02317351450917178,-0.018648963759833704,0.18943818352177355,0.31089821457862854,0.3333092927932739,0.0,0.020000000000436557,1.090917098749868,-0.4506954002263177,0.1096367497664216,-4.65161676448404e-05,-0.017951842745817976,-0.8514909336634924,1.0105225927137305,-1.233342108750104,-0.0003286945553970175,1.593593569683354,-0.052423298874619495,0.25713080797090365,-0.3674877151766798,0.19446505956603277
1.090917098749868,-0.4506954002263177,0.1096367497664216,-4.65161676448404e-05,-0.017951842745817976,-0.8514909336634924,1.0105225927137305,-1.233342108750104,-0.0003286945553970175,1.593593569683354,-0.052423298874619495,0.25713080797090365,-0.3674877151766798,0.19446505956603277,0.3924350440502167,0.013573954813182354,0.0,0.020000000000436557,1.1061341811122176,-0.46931809096431193,0.10967344957459665,-0.0002847877501524513,-0.010104680202359207,-0.8551857780183304,1.0150675166039393,-1.248658119425742,0.0027904953655638956,1.6083170966233382,-0.05315335531643328,0.3482240612283702,-0.3275888852717324,0.2818912827450358
1.1061341811122176,-0.46931809096431193,0.10967344957459665,-0.0002847877501524513,-0.010104680202359207,-0.8551857780183304,1.0150675166039393,-1.248658119425742,0.0027904953655638956,1.6083170966233382,-0.05315335531643328,0.3482240612283702,-0.3275888852717324,0.2818912827450358,0.4807845950126648,-0.0,0.0,0.019999999998617568,1.1212178258695644,-0.4880815928456816,0.1097525370062187,-0.0007020857747346746,-0.001333275213800662,-0.8595025234027956,0.9922782878544233,-1.2491862873243782,0.005868121614639107,1.5940545205372803,-0.06381823047712376,0.3180525207398359,-0.3505608172152551,0.29632647331851436
1.1212178258695644,-0.4880815928456816,0.1097525370062187,-0.0007020857747346746,-0.001333275213800662,-0.8595025234027956,0.9922782878544233,-1.2491862873243782,0.005868121614639107,1.5940545205372803,-0.06381823047712376,0.3180525207398359,-0.3505608172152551,0.29632647331851436,0.48765894770622253,-0.0,0.0,0.020000000000436557,1.1310234065348013,-0.5005658267157346,0.10981951162676881,-0.0007520325849846845,0.0030170919431730067,-0.8626744083866691,0.9690967967608652,-1.2482925558178197,0.00634129295490957,1.5784926251763793,-0.0757887766502211,0.20535799543000724,-0.26856392298094073,0.3216258197535171
1.1310234065348013,-0.5005658267157346,0.10981951162676881,-0.0007520325849846845,0.0030170919431730067,-0.8626744083866691,0.9690967967608652,-1.2482925558178197,0.00634129295490957,1.5784926251763793,-0.0757887766502211,0.20535799543000724,-0.26856392298094073,0.3216258197535171,0.4856860339641571,-0.0,0.0,0.020000000000436557,1.1546110039109472,-0.5317132398398704,0.10994196161210995,0.00018430061051304865,0.008932122071523106,-0.8715316176420171,0.9294014971188533,-1.23768665905272,0.002172097307898172,1.5454350350779333,-0.08535784203877828,0.09794510221827138,-0.14049404913077018,0.3654540060032228
1.1546110039109472,-0.5317132398398704,0.10994196161210995,0.00018430061051304865,0.008932122071523106,-0.8715316176420171,0.9294014971188533,-1.23768665905272,0.002172097307898172,1.5454350350779333,-0.08535784203877828,0.09794510221827138,-0.14049404913077018,0.3654540060032228,0.4326639771461487,-0.0,0.0,0.020000000000436557,1.1820167393895442,-0.5684408163297058,0.10992827034228228,-3.659854823875017e-06,0.011824094072483663,-0.8824473762539021,0.8933799387517477,-1.2155975109979495,-0.003305648154212755,1.5063321705740993,-0.08227038107368023,0.06320801899538787,-0.07672921960417023,0.36483523074340374
1.1820167393895442,-0.5684408163297058,0.10992827034228228,-3.659854823875017e-06,0.011824094072483663,-0.8824473762539021,0.8933799387517477,-1.2155975109979495,-0.003305648154212755,1.5063321705740993,-0.08227038107368023,0.06320801899538787,-0.07672921960417023,0.36483523074340374,0.3707946538925171,-0.0,0.0,0.019999999998617568,1.2039853608961018,-0.59857668392369,0.10981396720898798,-3.6954719293560907e-06,0.012676672137234682,-0.8913910723895777,0.8648799644945832,-1.1964196081382852,-0.0054490316514603804,1.474180931711539,-0.07891648940505602,-0.011458665851416704,0.014319218470629645,0.3497809183605278
1.2039853608961018,-0.59857668392369,0.10981396720898798,-3.6954719293560907e-06,0.012676672137234682,-0.8913910723895777,0.8648799644945832,-1.1964196081382852,-0.0054490316514603804,1.474180931711539,-0.07891648940505602,-0.011458665851416704,0.014319218470629645,0.3497809183605278,0.33152133226394653,-0.0,0.0,0.040000000000873115,1.2252787455729681,-0.6282284750074562,0.10966551110427908,-3.6150110969873174e-06,0.013044188355317543,-0.89988686039108,0.8399797502573466,-1.176456150127449,-0.006078507442553097,1.4436812418726883,-0.07348146623486351,0.028409950286165435,-0.03566426863175045,0.32619743760391096
1.2252787455729681,-0.6282284750074562,0.10966551110427908,-3.6150110969873174e-06,0.013044188355317543,-0.89988686039108,0.8399797502573466,-1.176456150127449,-0.006078507442553097,1.4436812418726883,-0.07348146623486351,0.028409950286165435,-0.03566426863175045,0.32619743760391096,0.12140601873397827,-0.0,0.0,0.020000000000436557,1.2501606985566873,-0.6630481620596479,0.1095152140776717,0.00013952905137141908,0.01316986113860206,-0.9085158963524551,0.8197859871069486,-1.146297853011173,-0.004221215416480271,1.4080614842392047,-0.05840110510107521,0.003428678792718355,-0.04998598286808452,0.23641068880509297
1.2501606985566873,-0.6630481620596479,0.1095152140776717,0.00013952905137141908,0.01316986113860206,-0.9085158963524551,0.8197859871069486,-1.146297853011173,-0.004221215416480271,1.4080614842392047,-0.05840110510107521,0.003428678792718355,-0.04998598286808452,0.23641068880509297,0.12186842411756516,-0.0,0.0,0.019999999998617568,1.2786298661342244,-0.7023144123448463,0.10943641067077717,0.0005272449943528352,0.013915409309723533,-0.9150560489093945,0.8119270857347007,-1.0932787269779702,-0.0008331798916569565,1.3615985972525078,-0.023091716528198858,0.000626737391974654,-0.008344757485681446,0.10176261420742246
1.2786298661342244,-0.7023144123448463,0.10943641067077717,0.0005272449943528352,0.013915409309723533,-0.9150560489093945,0.8119270857347007,-1.0932787269779702,-0.0008331798916569565,1.3615985972525078,-0.023091716528198858,0.000626737391974654,-0.008344757485681446,0.10176261420742246,0.31287112832069397,-0.0,0.0,0.020000000000436557,1.294694722672185,-0.7239699851557418,0.10943587714261402,0.00027292967682662826,0.014017345116989426,-0.9170120737555059,0.7939101720616336,-1.0738829744184837,0.0006271234294637704,1.3352872557850635,-0.02293356899430654,-0.06466915641059949,0.014268902598203483,0.06852193140379517
1.294694722672185,-0.7239699851557418,0.10943587714261402,0.00027292967682662826,0.014017345116989426,-0.9170120737555059,0.7939101720616336,-1.0738829744184837,0.0006271234294637704,1.3352872557850635,-0.02293356899430654,-0.06466915641059949,0.014268902598203483,0.06852193140379517,0.5230172872543335,-0.0,0.0,0.020000000000436557,1.3026061405004334,-0.7346401208341741,0.10944226749857247,0.00021367047528043443,0.014116468433261784,-0.918168472319773,0.7889170425562332,-1.060893663444126,0.0005727903797146418,1.3219607871755188,-0.017468323956654874,0.12269235621398233,0.017894173590954392,0.17353571042271615
1.3026061405004334,-0.7346401208341741,0.10944226749857247,0.00021367047528043443,0.014116468433261784,-0.918168472319773,0.7889170425562332,-1.060893663444126,0.0005727903797146418,1.3219607871755188,-0.017468323956654874,0.12269235621398233,0.017894173590954392,0.17353571042271615,0.5750528573989868,0.002383834682404995,0.0,0.020000000000436557,1.314318991933792,-0.750441863857429,0.10945863639597384,1.3547385966366505e-06,0.014079562208051712,-0.9199348470704879,0.7714699852326733,-1.0489006397824987,0.001067643404619064,1.3018777014368432,-0.021747201028127994,0.0832800544166842,0.01612286061747638,0.1647466986594921
1.314318991933792,-0.750441863857429,0.10945863639597384,1.3547385966366505e-06,0.014079562208051712,-0.9199348470704879,0.7714699852326733,-1.0489006397824987,0.001067643404619064,1.3018777014368432,-0.021747201028127994,0.0832800544166842,0.01612286061747638,0.1647466986594921,0.6850427985191345,0.012310056947171688,0.0,0.019999999998617568,1.329458027251654,-0.7712897795009269,0.10948870362014354,1.500309384726495e-05,0.014072818552259172,-0.9224964807502205,0.7436208788420416,-1.037171826597107,0.0014614239170747875,1.2757637822868473,-0.033528810622329375,0.025307035334646056,-0.0016803552305154747,0.16770602073431304
1.329458027251654,-0.7712897795009269,0.10948870362014354,1.500309384726495e-05,0.014072818552259172,-0.9224964807502205,0.7436208788420416,-1.037171826597107,0.0014614239170747875,1.2757637822868473,-0.033528810622329375,0.025307035334646056,-0.0016803552305154747,0.16770602073431304,0.7498406767845154,0.015331081114709377,0.0,0.020000000000436557,1.3404685365017386,-0.786762880474853,0.10951253739754865,2.0475414292550566e-05,0.013893469893332146,-0.9249339549472664,0.7258742540497998,-1.0265406426693626,0.0016823824962438165,1.2566703876306153,-0.038192415434222804,-0.030242224523061925,0.04971340858744597,0.16289644465478578
1.3404685365017386,-0.786762880474853,0.10951253739754865,2.0475414292550566e-05,0.013893469893332146,-0.9249339549472664,0.7258742540497998,-1.0265406426693626,0.0016823824962438165,1.2566703876306153,-0.038192415434222804,-0.030242224523061925,0.04971340858744597,0.16289644465478578,0.7507963180541992,0.022267106920480728,0.0,0.020000000000436557,1.354662481405489,-0.8072025108195874,0.1095397571957911,-1.0005560413030773e-05,0.013803070922962634,-0.929050616808121,0.6951732231618053,-1.0175655355189088,0.0013173534143063464,1.231249960404628,-0.052239489666904504,-0.020593306565552125,-0.003115476677513966,0.21581976786825446
1.354662481405489,-0.8072025108195874,0.1095397571957911,-1.0005560413030773e-05,0.013803070922962634,-0.929050616808121,0.6951732231618053,-1.0175655355189088,0.0013173534143063464,1.231249960404628,-0.052239489666904504,-0.020593306565552125,-0.003115476677513966,0.21581976786825446,0.74786776304245,0.049887899309396744,0.0,0.020000000000436557,1.3714451618857737,-0.8325459252185681,0.10956234236016468,2.052889672340095e-05,0.01358910976211494,-0.9362426417862276,0.6510295436764524,-1.0094084540751962,0.0003876830544178901,1.1988554534444584,-0.07409787881261565,0.029763391107022676,-0.0039536372209155665,0.3472729224852996
1.3714451618857737,-0.8325459252185681,0.10956234236016468,2.052889672340095e-05,0.01358910976211494,-0.9362426417862276,0.6510295436764524,-1.0094084540751962,0.0003876830544178901,1.1988554534444584,-0.07409787881261565,0.029763391107022676,-0.0039536372209155665,0.3472729224852996,0.7458948493003845,0.22529226541519165,0.0,0.019999999998617568,1.3901610242327784,-0.8627770620751314,0.10955780968485501,-5.246745298874409e-05,0.011459321023658074,-0.9480514964833702,0.6008179658698412,-1.0129945866024426,-0.0014233813301911692,1.1732730485406944,-0.10281349213917651,-0.142142679565131,0.19506046492380058,0.4534795095252319
1.3901610242327784,-0.8627770620751314,0.10955780968485501,-5.246745298874409e-05,0.011459321023658074,-0.9480514964833702,0.6008179658698412,-1.0129945866024426,-0.0014233813301911692,1.1732730485406944,-0.10281349213917651,-0.142142679565131,0.19506046492380058,0.4534795095252319,0.7458948493003845,0.42144304513931274,0.0,0.020000000000436557,1.4019986240022675,-0.8832742773841769,0.10951123809549015,-0.0008015356787339388,0.007522260256437143,-0.9584964064313549,0.5846705244226205,-1.0394743034069502,-0.002706291790866743,1.1866712499367673,-0.1189865292606544,-0.026586943016467912,0.22653570857734687,0.6163636611667926
1.4019986240022675,-0.8832742773841769,0.10951123809549015,-0.0008015356787339388,0.007522260256437143,-0.9584964064313549,0.5846705244226205,-1.0394743034069502,-0.002706291790866743,1.1866712499367673,-0.1189865292606544,-0.026586943016467912,0.22653570857734687,0.6163636611667926,0.7724059224128723,0.4339587092399597,0.0,0.020000000000436557,1.4136093052481087,-0.9045166285311752,0.10944700442572547,-0.0024871006447297426,0.003459685777905168,-0.9712915317809583,0.5751806670888903,-1.0840007226486224,-0.0026534013819251093,1.2195037072381836,-0.13675187211838524,-0.05967228870364986,0.19102558543187068,0.6569828466279733
1.4136093052481087,-0.9045166285311752,0.10944700442572547,-0.0024871006447297426,0.003459685777905168,-0.9712915317809583,0.5751806670888903,-1.0840007226486224,-0.0026534013819251093,1.2195037072381836,-0.13675187211838524,-0.05967228870364986,0.19102558543187068,0.6569828466279733,0.8008898496627808,0.45945245027542114,0.0,0.039999999999054126,1.4278990311312434,-0.9322989084170769,0.1094139316323536,-0.003972811810439364,0.001004881524543821,-0.98859121760038,0.5641024350862773,-1.140622043458406,-1.2471146980212516e-05,1.262888397733823,-0.1560227488630908,0.05953160586631517,0.040327678317974264,0.7497489213422801
1.4278990311312434,-0.9322989084170769,0.1094139316323536,-0.003972811810439364,0.001004881524543821,-0.98859121760038,0.5641024350862773,-1.140622043458406,-1.2471146980212516e-05,1.262888397733823,-0.1560227488630908,0.05953160586631517,0.040327678317974264,0.7497489213422801,0.8166115283966064,0.4931461215019226,0.0,0.040000000000873115,1.4446066083361018,-0.9676328117556187,0.1094505034776983,-0.004400871935332068,-0.0009793461201816802,-1.011331969418656,0.5499621446323637,-1.214077176598156,0.002564322399735432,1.3208610535599394,-0.17823531763852357,-0.009091945700218552,0.01658239358002474,0.786295435869347
1.4446066083361018,-0.9676328117556187,0.1094505034776983,-0.004400871935332068,-0.0009793461201816802,-1.011331969418656,0.5499621446323637,-1.214077176598156,0.002564322399735432,1.3208610535599394,-0.17823531763852357,-0.009091945700218552,0.01658239358002474,0.786295435869347,0.8421052694320679,0.4896935224533081,0.0,0.020000000000436557,1.4636122182777438,-1.0117458483194397,0.10955134540804531,-0.003954959474914694,-0.002389813555181731,-1.04037807309206,0.5339784531800311,-1.304238985011602,0.0028490398516219017,1.3951673356005316,-0.19919945822703938,-0.08507379566499074,0.07956386269776544,0.8547892023206111
1.4636122182777438,-1.0117458483194397,0.10955134540804531,-0.003954959474914694,-0.002389813555181731,-1.04037807309206,0.5339784531800311,-1.304238985011602,0.0028490398516219017,1.3951673356005316,-0.19919945822703938,-0.08507379566499074,0.07956386269776544,0.8547892023206111,0.8352617025375366,0.4896935224533081,0.0,0.039999999999054126,1.492697048955872,-1.0872053909592432,0.10962747308984577,-0.0013152745749430896,-0.003278178784358055,-1.087849327044622,0.5212095705099458,-1.4376403347707152,-8.422629795446987e-05,1.5152628183180565,-0.20602849311111443,-0.004703749543455715,-0.04724813967618955,0.8854927039118718
1.492697048955872,-1.0872053909592432,0.10962747308984577,-0.0013152745749430896,-0.003278178784358055,-1.087849327044622,0.5212095705099458,-1.4376403347707152,-8.422629795446987e-05,1.5152628183180565,-0.20602849311111443,-0.004703749543455715,-0.04724813967618955,0.8854927039118718,0.8381902575492859,0.5000821352005005,0.0,0.040000000000873115,1.4979039726029786,-1.1017088159523467,0.1096232590571645,-0.001068123090250009,-0.003400266496888072,-1.0967571913016556,0.5191222797465045,-1.4614612086212093,-0.0005142636649073211,1.5372793237083289,-0.20525371259160463,0.03414047972965452,-0.08040319574727682,0.8938373033918856
1.4979039726029786,-1.1017088159523467,0.1096232590571645,-0.001068123090250009,-0.003400266496888072,-1.0967571913016556,0.5191222797465045,-1.4614612086212093,-0.0005142636649073211,1.5372793237083289,-0.20525371259160463,0.03414047972965452,-0.08040319574727682,0.8938373033918856,0.8352617025375366,0.49746188521385193,0.0,0.020000000000436557,1.5082242694191557,-1.1314565811782777,0.10960401399636213,-0.0008934284695911112,-0.003599610471375308,-1.1148241952821154,0.5120395103328854,-1.5117205784577679,-0.0010715053767342822,1.5827422983621493,-0.20593781694950997,0.05790831151103106,-0.0588065847360727,0.930261392081405
1.5082242694191557,-1.1314565811782777,0.10960401399636213,-0.0008934284695911112,-0.003599610471375308,-1.1148241952821154,0.5120395103328854,-1.5117205784577679,-0.0010715053767342822,1.5827422983621493,-0.20593781694950997,0.05790831151103106,-0.0588065847360727,0.930261392081405,0.8367105722427368,0.5005137324333191,0.0,0.039999999999054126,1.5258921827703933,-1.1858782707644526,0.10957241328901621,-0.0015628994846090245,-0.0034359588030201185,-1.1472068146596102,0.4946729833196428,-1.596686331844297,-0.00028773202303253743,1.658898325021044,-0.20534105767509547,0.05701868794222688,0.04790368800614455,0.9708414023827444
1.5258921827703933,-1.1858782707644526,0.10957241328901621,-0.0015628994846090245,-0.0034359588030201185,-1.1472068146596102,0.4946729833196428,-1.596686331844297,-0.00028773202303253743,1.658898325021044,-0.20534105767509547,0.05701868794222688,0.04790368800614455,0.9708414023827444,0.8352617025375366,0.504829466342926,0.0,0.040000000000873115,1.5586470463685274,-1.30395218761197,0.10965077748992907,-0.005385127669575128,-0.003105832658520324,-1.2149633900411085,0.4321623983526592,-1.7759325108531894,0.0019496103567740904,1.8152350888799154,-0.2135935246077486,-0.05378314297632451,0.04418348101907574,0.9156578350302687
1.5586470463685274,-1.30395218761197,0.10965077748992907,-0.005385127669575128,-0.003105832658520324,-1.2149633900411085,0.4321623983526592,-1.7759325108531894,0.0019496103567740904,1.8152350888799154,-0.2135935246077486,-0.05378314297632451,0.04418348101907574,0.9156578350302687,0.8156250715255737,0.5009453296661377,0.0,0.05999999999949068,1.575270112885386,-1.3770232378320189,0.10968473260813136,-0.002706516834647712,-0.0032768961344021553,-1.2505118467037164,0.39967461164864265,-1.8738675529249902,-0.00038021566555582805,1.90440587996843,-0.2106125481619121,-0.07812099802024412,0.02194783258832397,0.8739348744951745
1.575270112885386,-1.3770232378320189,0.10968473260813136,-0.002706516834647712,-0.0032768961344021553,-1.2505118467037164,0.39967461164864265,-1.8738675529249902,-0.00038021566555582805,1.90440587996843,-0.2106125481619121,-0.07812099802024412,0.02194783258832397,0.8739348744951745,0.6968186497688293,0.49921900033950806,0.0,0.039999999999054126,1.588878711490283,-1.4440825225647185,0.10962825681869778,-0.0017240004986540014,-0.003145372876339518,-1.2814971141968667,0.37333004123569785,-1.9568392599273365,-0.0021222473295997805,1.9820247393469135,-0.20043238635214178,0.1238841520686058,-0.06883573378835221,0.9739520752987979
1.588878711490283,-1.4440825225647185,0.10962825681869778,-0.0017240004986540014,-0.003145372876339518,-1.2814971141968667,0.37333004123569785,-1.9568392599273365,-0.0021222473295997805,1.9820247393469135,-0.20043238635214178,0.1238841520686058,-0.06883573378835221,0.9739520752987979,0.3826012909412384,0.5009453296661377,0.0,0.040000000000873115,1.599638049460962,-1.5037862703716058,0.10958965466700102,-0.0031010183593609664,-0.002829935790330271,-1.3088525530660067,0.3426658952171098,-2.0231684634508924,-0.0008204805420530268,2.04289129309257,-0.19293965858204637,-0.07214743296017335,-0.006944143791587848,0.7934844557064576
1.599638049460962,-1.5037862703716058,0.10958965466700102,-0.0031010183593609664,-0.002829935790330271,-1.3088525530660067,0.3426658952171098,-2.0231684634508924,-0.0008204805420530268,2.04289129309257,-0.19293965858204637,-0.07214743296017335,-0.006944143791587848,0.7934844557064576,0.19209182262420654,0.5294292569160461,0.0,0.020000000000436557,1.6126865965764754,-1.5865358746300657,0.10956166830541472,-0.0008201505609702597,-0.003020279794765482,-1.341073630625227,0.3090238539381047,-2.112918011424227,-0.0015617535930661421,2.127777814020163,-0.18022163984173933,-0.06568821939828774,0.11053495314162232,0.7710996950308212
1.6126865965764754,-1.5865358746300657,0.10956166830541472,-0.0008201505609702597,-0.003020279794765482,-1.341073630625227,0.3090238539381047,-2.112918011424227,-0.0015617535930661421,2.127777814020163,-0.18022163984173933,-0.06568821939828774,0.11053495314162232,0.7710996950308212,0.11548727750778198,0.5415441393852234,0.0,0.019999999998617568,1.618865271211451,-1.6292673094761232,0.10952362757449971,0.00010810189608995093,-0.003490044402600263,-1.3560212403433007,0.3156038839274054,-2.1576718994919504,-0.002384690005770321,2.175361920229916,-0.15150694182404983,0.0985482102167603,-0.05820490894763645,0.7444820821477822
1.618865271211451,-1.6292673094761232,0.10952362757449971,0.00010810189608995093,-0.003490044402600263,-1.3560212403433007,0.3156038839274054,-2.1576718994919504,-0.002384690005770321,2.175361920229916,-0.15150694182404983,0.0985482102167603,-0.05820490894763645,0.7444820821477822,0.08703416585922241,0.578721284866333,0.0,0.020000000000436557,1.6251000699032119,-1.6728924123714282,0.10948490783410231,-5.2035619678346714e-05,-0.0038892028038860324,-1.3695162216539847,0.31029959109628796,-2.203794157173375,-0.0014771867131711369,2.221339024396637,-0.13655571067745909,0.08315456639627664,0.017647910398564472,0.7010263938627533
1.6251000699032119,-1.6728924123714282,0.10948490783410231,-5.2035619678346714e-05,-0.0038892028038860324,-1.3695162216539847,0.31029959109628796,-2.203794157173375,-0.0014771867131711369,2.221339024396637,-0.13655571067745909,0.08315456639627664,0.017647910398564472,0.7010263938627533,0.07427188009023666,0.589942216873169,0.0,0.020000000000436557,1.626677073373262,-1.683939768939308,0.10947599039632494,-5.527020905400807e-05,-0.004089230425725439,-1.3726628218922405,0.3131689674849003,-2.21491998008012,-0.0019168598538058662,2.2332306740746257,-0.12894214487850397,-0.05636851200300182,0.06614885480766784,0.5471731471484439
1.626677073373262,-1.683939768939308,0.10947599039632494,-5.527020905400807e-05,-0.004089230425725439,-1.3726628218922405,0.3131689674849003,-2.21491998008012,-0.0019168598538058662,2.2332306740746257,-0.12894214487850397,-0.05636851200300182,0.06614885480766784,0.5471731471484439,0.061509594321250916,0.5985736846923828,0.0,0.039999999999054126,1.6343824218133527,-1.7400956649319286,0.10944122390389655,-0.00019312660624182972,-0.004595548408797025,-1.3864483234176195,0.303296530654545,-2.2773321547582746,-0.001375618810692555,2.29434093962717,-0.1192903238061,0.1446485827667507,-0.11461233605918877,0.5769579888623766
1.6343824218133527,-1.7400956649319286,0.10944122390389655,-0.00019312660624182972,-0.004595548408797025,-1.3864483234176195,0.303296530654545,-2.2773321547582746,-0.001375618810692555,2.29434093962717,-0.1192903238061,0.1446485827667507,-0.11461233605918877,0.5769579888623766,0.048716481775045395,0.7860621809959412,0.0,0.020000000000436557,1.6567378494176594,-1.8934385874245137,0.10940940756384412,-0.00024171968319800356,-0.009169951185795853,-1.4061294868057623,0.3899656546962451,-2.452760892176249,0.00047037382141635123,2.48350705959597,-0.01737500989582985,-0.026328159225456987,0.33687941734968163,0.11132822500569454
1.6567378494176594,-1.8934385874245137,0.10940940756384412,-0.00024171968319800356,-0.009169951185795853,-1.4061294868057623,0.3899656546962451,-2.452760892176249,0.00047037382141635123,2.48350705959597,-0.01737500989582985,-0.026328159225456987,0.33687941734968163,0.11132822500569454,0.039900023490190506,0.8612486720085144,0.0,0.020000000000436557,1.6607391210065927,-1.9181729876341724,0.10940348703212252,-3.89552418093463e-05,-0.010339154058644957,-1.4067753427210843,0.40424037695516896,-2.49072845292765,-0.00026113390110434065,2.5233066195668186,-0.007887473264354572,-0.019376033456342437,-0.007523547925048478,0.07230443379202867
1.6607391210065927,-1.9181729876341724,0.10940348703212252,-3.89552418093463e-05,-0.010339154058644957,-1.4067753427210843,0.40424037695516896,-2.49072845292765,-0.00026113390110434065,2.5233066195668186,-0.007887473264354572,-0.019376033456342437,-0.007523547925048478,0.07230443379202867,0.033025652170181274,0.9087527394294739,0.0,0.040000000000873115,1.666930155963474,-1.9560424091179738,0.1093932134458834,2.6544935999696036e-05,-0.012551718697102423,-1.407333459978448,0.4225513812933055,-2.5544657756118654,-0.00034566230265324627,2.5891781691160927,0.0012153920554651698,-0.010801755174904554,-0.05002734638507406,0.02672777398240549
1.666930155963474,-1.9560424091179738,0.1093932134458834,2.6544935999696036e-05,-0.012551718697102423,-1.407333459978448,0.4225513812933055,-2.5544657756118654,-0.00034566230265324627,2.5891781691160927,0.0012153920554651698,-0.010801755174904554,-0.05002734638507406,0.02672777398240549,0.034998565912246704,0.9692656993865967,0.0,0.019999999998617568,1.6801565384380694,-2.0348260000025884,0.10939249314940719,-2.7881788686453297e-05,-0.01599455133341985,-1.406976430255393,0.4486856318698671,-2.6962002465025234,0.0007363489945215046,2.7332774837510683,0.0029601192810562726,-0.008963441037124304,-0.05133662030063193,-0.008749298016718813
1.6801565384380694,-2.0348260000025884,0.10939249314940719,-2.7881788686453297e-05,-0.01599455133341985,-1.406976430255393,0.4486856318698671,-2.6962002465025234,0.0007363489945215046,2.7332774837510683,0.0029601192810562726,-0.008963441037124304,-0.05133662030063193,-0.008749298016718813,0.034998565912246704,1.0,0.0,0.020000000000436557,1.696557437214917,-2.132296728133006,0.1094469218798548,-0.0002266491992117827,-0.018761799311424618,-1.4065229917266977,0.48411789300396824,-2.8726280599814062,0.0032325105898616605,2.9131256227023234,0.007823789001398462,0.09490296519584532,0.27210558192447826,0.0956578119502729
1.696557437214917,-2.132296728133006,0.1094469218798548,-0.0002266491992117827,-0.018761799311424618,-1.4065229917266977,0.48411789300396824,-2.8726280599814062,0.0032325105898616605,2.9131256227023234,0.007823789001398462,0.09490296519584532,0.27210558192447826,0.0956578119502729,0.039900023490190506,1.0,0.0,0.040000000000873115,1.709212089972814,-2.2057553511100445,0.1095088395300223,6.834743104131321e-05,-0.019643725175733946,-1.4052059694061287,0.5192066753793421,-3.001051621398116,0.002733317817904063,3.0455841304413687,0.017427290621947478,-0.05481678489667174,-0.13057034493830572,-0.09523976793690192
1.709212089972814,-2.2057553511100445,0.1095088395300223,6.834743104131321e-05,-0.019643725175733946,-1.4052059694061287,0.5192066753793421,-3.001051621398116,0.002733317817904063,3.0455841304413687,0.017427290621947478,-0.05481678489667174,-0.13057034493830572,-0.09523976793690192,0.03891356661915779,1.0,0.0,0.039999999999054126,1.7224535870861164,-2.282528206864357,0.10957329420764969,-0.0001570385358363957,-0.020129037903685226,-1.404480937955194,0.5284302293196627,-3.134709351962378,0.002361188856461166,3.178936369186031,0.0021884253602699744,0.04671325073541805,-0.07733347141160346,-0.024493020198272566
1.7224535870861164,-2.282528206864357,0.10957329420764969,-0.0001570385358363957,-0.020129037903685226,-1.404480937955194,0.5284302293196627,-3.134709351962378,0.002361188856461166,3.178936369186031,0.0021884253602699744,0.04671325073541805,-0.07733347141160346,-0.024493020198272566,0.031052738428115845,1.0,0.0,0.020000000000436557,1.7534916731222534,-2.463062447265619,0.10968832579027676,-1.106901176192398e-05,-0.02088801583884148,-1.4031737206628276,0.5633635183790274,-3.4315814081672165,0.0012198802209243825,3.477475895263758,-0.017053227812375504,-0.2740868657031971,0.13933325634393132,-0.12685145030142067
1.7534916731222534,-2.463062447265619,0.10968832579027676,-1.106901176192398e-05,-0.02088801583884148,-1.4031737206628276,0.5633635183790274,-3.4315814081672165,0.0012198802209243825,3.477475895263758,-0.017053227812375504,-0.2740868657031971,0.13933325634393132,-0.12685145030142067,0.03401210904121399,1.0,0.0,0.020000000000436557,1.7592761489606534,-2.4976490952569077,0.10969643865716208,0.0005187928270050539,-0.02096953789812707,-1.403312024893776,0.5882819527387657,-3.4851689761553906,-0.0014387297679649275,3.5344699139682794,-0.0009356961108437645,-0.42096917248492977,-0.3721255862344932,-0.09541114943490248
1.7592761489606534,-2.4976490952569077,0.10969643865716208,0.0005187928270050539,-0.02096953789812707,-1.403312024893776,0.5882819527387657,-3.4851689761553906,-0.0014387297679649275,3.5344699139682794,-0.0009356961108437645,-0.42096917248492977,-0.3721255862344932,-0.09541114943490248,0.031052738428115845,1.0,0.0,0.039999999999054126,1.7744365171783016,-2.586385058534617,0.10971055922381656,1.613183505651096e-05,-0.020560898922008818,-1.4039799479750228,0.6154899458056134,-3.611423242233827,-3.9348636444572205e-05,3.663489121060002,0.00729162598473132,-0.23069923225061498,0.00026012392700201315,-0.21814508484049427
1.7744365171783016,-2.586385058534617,0.10971055922381656,1.613183505651096e-05,-0.020560898922008818,-1.4039799479750228,0.6154899458056134,-3.611423242233827,-3.9348636444572205e-05,3.663489121060002,0.00729162598473132,-0.23069923225061498,0.00026012392700201315,-0.21814508484049427,0.033025652170181274,1.0,0.0,0.020000000000436557,1.7933997905873724,-2.697070721532969,0.10971246335254767,-0.00016163219269210824,-0.021043061660547934,-1.404068027132999,0.6378765690195126,-3.768757752136435,0.00045464864602610955,3.8223564324957855,0.003579741704584194,0.014018294116496388,0.3482005914006535,0.06061773525125378
1.7933997905873724,-2.697070721532969,0.10971246335254767,-0.00016163219269210824,-0.021043061660547934,-1.404068027132999,0.6378765690195126,-3.768757752136435,0.00045464864602610955,3.8223564324957855,0.003579741704584194,0.014018294116496388,0.3482005914006535,0.06061773525125378,0.034998565912246704,1.0,0.0,0.020000000000436557,1.813508694217946,-2.8123454582923757,0.10971138000392358,-9.70036086274547e-05,-0.02028512321972654,-1.4033537710750836,0.696815135411604,-3.916637252891414,-0.0014952986674867524,3.977992078000957,0.0343180861517739,-0.08176019042353531,-0.05042505233164522,-0.21535486005720056
1.813508694217946,-2.8123454582923757,0.10971138000392358,-9.70036086274547e-05,-0.02028512321972654,-1.4033537710750836,0.696815135411604,-3.916637252891414,-0.0014952986674867524,3.977992078000957,0.0343180861517739,-0.08176019042353531,-0.05042505233164522,-0.21535486005720056,0.033025652170181274,1.0,0.0,0.019999999998617568,1.8170050895466723,-2.832020244411469,0.10970828804894825,7.394871612815626e-06,-0.021044351836804465,-1.4027963674436152,0.7040433711188464,-3.9482545265107634,-0.0009708818923166579,4.010391367444187,0.03394045459718964,0.03783263833445766,-0.12570344493538205,-0.08262657909952122
1.8170050895466723,-2.832020244411469,0.10970828804894825,7.394871612815626e-06,-0.021044351836804465,-1.4027963674436152,0.7040433711188464,-3.9482545265107634,-0.0009708818923166579,4.010391367444187,0.03394045459718964,0.03783263833445766,-0.12570344493538205,-0.08262657909952122,0.033025652170181274,1.0,0.0,0.040000000000873115,1.8384076997927714,-2.952747492625106,0.10971334421286619,-0.0007670517280041202,-0.020346382488536652,-1.401476065612585,0.7244673173524365,-4.093177903479543,0.001981720149023272,4.156725277076883,0.02435599218109752,0.23595886261066853,-0.1782468572126218,0.14076497871654484
1.8384076997927714,-2.952747492625106,0.10971334421286619,-0.0007670517280041202,-0.020346382488536652,-1.401476065612585,0.7244673173524365,-4.093177903479543,0.001981720149023272,4.156725277076883,0.02435599218109752,0.23595886261066853,-0.1782468572126218,0.14076497871654484,0.14005622267723083,1.0,0.0,0.039999999999054126,1.8876617145802825,-3.230419395152903,0.10973731257258221,-0.0011311985292665272,-0.020566958521063623,-1.3972952368464813,0.7974630117728352,-4.435924846365303,0.002859095633445996,4.506993243112933,0.019707975066070582,-0.2404221609844574,0.560920820681156,-0.14661658050409668
1.8876617145802825,-3.230419395152903,0.10973731257258221,-0.0011311985292665272,-0.020566958521063623,-1.3972952368464813,0.7974630117728352,-4.435924846365303,0.002859095633445996,4.506993243112933,0.019707975066070582,-0.2404221609844574,0.560920820681156,-0.14661658050409668,0.33349424600601196,1.0,0.0,0.020000000000436557,1.9152986085962933,-3.3891139316115915,0.10975812810095287,-0.00017056546225607436,-0.021057469382945084,-1.3990350597840835,0.7760321750538577,-4.628788681063957,0.002079029375128383,4.693315112588449,-0.026530069986743343,-0.29623770641960245,0.4494271534104182,-0.052865439114781726
1.9152986085962933,-3.3891139316115915,0.10975812810095287,-0.00017056546225607436,-0.021057469382945084,-1.3990350597840835,0.7760321750538577,-4.628788681063957,0.002079029375128383,4.693315112588449,-0.026530069986743343,-0.29623770641960245,0.4494271534104182,-0.052865439114781726,0.5092685222625732,1.0,0.0,0.040000000000873115,1.9420107472308015,-3.55435777642119,0.10982595634888218,-0.00393638878593295,-0.01992554858769824,-1.4086248147497586,0.7396254916658501,-4.817826320456123,0.0018427353311234879,4.874032714573642,-0.04797310983904601,0.0989094773256905,0.026482876446086483,0.31794221003228645
1.9420107472308015,-3.55435777642119,0.10982595634888218,-0.00393638878593295,-0.01992554858769824,-1.4086248147497586,0.7396254916658501,-4.817826320456123,0.0018427353311234879,4.874032714573642,-0.04797310983904601,0.0989094773256905,0.026482876446086483,0.31794221003228645,0.7095809578895569,0.6849811673164368,0.0,0.039999999999054126,1.965922576303761,-3.725418899170026,0.11012873199169484,-0.018899530588819862,-0.013346583873155024,-1.4334530702871444,0.6151293702970949,-4.955886967830777,0.013908758040352964,4.99343704285924,-0.06918293950247056,0.16950194066531185,-0.2757007415091268,0.628965063634662
1.965922576303761,-3.725418899170026,0.11012873199169484,-0.018899530588819862,-0.013346583873155024,-1.4334530702871444,0.6151293702970949,-4.955886967830777,0.013908758040352964,4.99343704285924,-0.06918293950247056,0.16950194066531185,-0.2757007415091268,0.628965063634662,0.7076080441474915,0.3324461281299591,0.0,0.040000000000873115,1.985964338547312,-3.924922602894022,0.11107369547759124,-0.04055727565301735,0.000360242541792963,-1.4778948129853406,0.3600694423837503,-5.003503056383666,0.02793771182520516,5.01532963572365,-0.10564792289161623,0.9537599758291309,-0.41783899411815445,1.6158219531882712
1.985964338547312,-3.924922602894022,0.11107369547759124,-0.04055727565301735,0.000360242541792963,-1.4778948129853406,0.3600694423837503,-5.003503056383666,0.02793771182520516,5.01532963572365,-0.10564792289161623,0.9537599758291309,-0.41783899411815445,1.6158219531882712,0.705635130405426,-0.0,0.0,0.039999999999054126,1.9941575041581991,-4.099396648697643,0.11234099118594557,-0.055297741865480955,0.012932206852866944,-1.5313731580540315,0.09798661719619575,-4.952916592638286,0.03815210758192594,4.952930156109368,-0.09729860987512415,-0.550069903874165,-0.0327603628246584,1.922247674324637
1.9941575041581991,-4.099396648697643,0.11234099118594557,-0.055297741865480955,0.012932206852866944,-1.5313731580540315,0.09798661719619575,-4.952916592638286,0.03815210758192594,4.952930156109368,-0.09729860987512415,-0.550069903874165,-0.0327603628246584,1.922247674324637,0.6575453281402588,-0.003462771885097027,0.003462771885097027,0.040000000000873115,1.9947677799755006,-4.148828949145422,0.11266156113289094,-0.05644921825909501,0.014317419198406631,-1.5493905581718623,0.012264082922487018,-4.935951598576341,0.02362821315703978,4.93508330021419,-0.09338849589367709,0.6328747584055409,-0.49912413664810296,1.979215597545187
1.9947677799755006,-4.148828949145422,0.11266156113289094,-0.05644921825909501,0.014317419198406631,-1.5493905581718623,0.012264082922487018,-4.935951598576341,0.02362821315703978,4.93508330021419,-0.09338849589367709,0.6328747584055409,-0.49912413664810296,1.979215597545187,0.5416366457939148,-0.003462771885097027,0.003462771885097027,0.020000000000436557,1.9903291240270988,-4.319978124377192,0.11334064993649542,-0.0678425132348273,0.01702095822918916,-1.6178024608596289,-0.2760455519308005,-4.850840600347053,0.014968689031531035,4.85845349125896,-0.04780533432332287,-0.21254377930225676,-0.0036620179424341204,1.946510486026098
1.9903291240270988,-4.319978124377192,0.11334064993649542,-0.0678425132348273,0.01702095822918916,-1.6178024608596289,-0.2760455519308005,-4.850840600347053,0.014968689031531035,4.85845349125896,-0.04780533432332287,-0.21254377930225676,-0.0036620179424341204,1.946510486026098,0.5023633241653442,-0.0016748188063502312,0.0016748188063502312,0.05999999999949068,1.9729656033580127,-4.511624293319458,0.11314832027617863,-0.06056456542539978,0.01580096107208627,-1.70373150203539,-0.5953095239515032,-4.72891649689233,-0.02508948628125765,4.766098551675267,0.03673226928345552,0.9175507404840023,-0.22056447090836168,2.0690825295189668
1.9729656033580127,-4.511624293319458,0.11314832027617863,-0.06056456542539978,0.01580096107208627,-1.70373150203539,-0.5953095239515032,-4.72891649689233,-0.02508948628125765,4.766098551675267,0.03673226928345552,0.9175507404840023,-0.22056447090836168,2.0690825295189668,0.48374396562576294,-0.00038009416311979294,0.00038009416311979294,0.020000000000436557,1.9427592623591856,-4.697821049206577,0.11244221693371634,-0.06808133745956366,0.01503479382569954,-1.795724985165726,-0.9323057064326642,-4.576455933365756,-0.015780363695452153,4.669113604474796,0.11189722424588033,-0.7798764309614087,0.39289655647006866,2.427067289044526
1.9427592623591856,-4.697821049206577,0.11244221693371634,-0.06808133745956366,0.01503479382569954,-1.795724985165726,-0.9323057064326642,-4.576455933365756,-0.015780363695452153,4.669113604474796,0.11189722424588033,-0.7798764309614087,0.39289655647006866,2.427067289044526,0.5151564478874207,-0.003462771885097027,0.003462771885097027,0.039999999999054126,1.893131877572408,-4.899195489864422,0.11218970464142508,-0.0765481283438799,0.017989680350196803,-1.8919357060644904,-1.2999840108701537,-4.359222614467177,0.014959760733655472,4.546700640754799,0.14245530653505933,0.22272869530551695,-0.1155948055380574,1.9398225809724063
1.893131877572408,-4.899195489864422,0.11218970464142508,-0.0765481283438799,0.017989680350196803,-1.8919357060644904,-1.2999840108701537,-4.359222614467177,0.014959760733655472,4.546700640754799,0.14245530653505933,0.22272869530551695,-0.1155948055380574,1.9398225809724063,0.5730799436569214,-0.003462771885097027,0.003462771885097027,0.040000000000873115,1.8501771501444857,-5.027240997993889,0.11301560468391636,-0.08208193719351871,0.019638743898360345,-1.9593369037913484,-1.5681253031936135,-4.181180262093644,0.03228124550946468,4.463593069266498,0.13274887055497975,0.743279220842553,-0.7690727027955759,2.266940658621236
1.8501771501444857,-5.027240997993889,0.11301560468391636,-0.08208193719351871,0.019638743898360345,-1.9593369037913484,-1.5681253031936135,-4.181180262093644,0.03228124550946468,4.463593069266498,0.13274887055497975,0.743279220842553,-0.7690727027955759,2.266940658621236,0.5789678692817688,-0.003462771885097027,0.003462771885097027,0.019999999998617568,1.8422848092844024,-5.048077406062216,0.11318958326694503,-0.08039735654007014,0.019177561179998134,-1.9702252597630252,-1.601230214800722,-4.155528920067897,0.03272448274660471,4.45112518370231,0.14086662245724368,0.21158861272244786,-0.09658616215799665,1.96079539833356
1.8422848092844024,-5.048077406062216,0.11318958326694503,-0.08039735654007014,0.019177561179998134,-1.9702252597630252,-1.601230214800722,-4.155528920067897,0.03272448274660471,4.45112518370231,0.14086662245724368,0.21158861272244786,-0.09658616215799665,1.96079539833356,0.5730799436569214,-0.003462771885097027,0.003462771885097027,0.020000000000436557,1.7821019693130573,-5.189852795849583,0.11390057515614843,-0.06953213764206802,0.017089804363318226,-2.0489292076130363,-1.8326500538610888,-3.9526819221241922,-0.00393562101151726,4.352653732200991,0.19158832156798855,0.06372724096242417,0.20808639529434003,2.3127830506852742
1.7821019693130573,-5.189852795849583,0.11390057515614843,-0.06953213764206802,0.017089804363318226,-2.0489292076130363,-1.8326500538610888,-3.9526819221241922,-0.00393562101151726,4.352653732200991,0.19158832156798855,0.06372724096242417,0.20808639529434003,2.3127830506852742,0.5730799436569214,-0.0025996221229434013,0.0025996221229434013,0.05999999999949068,1.6916853029186587,-5.36080918575864,0.11356283489459698,-0.08360432448314559,0.01949120756612789,-2.158832313526218,-2.1850939841358583,-3.627383142193548,0.006679717071810393,4.230230794145816,0.19414326678283356,0.0404199565813215,-0.06040497127861971,2.4188883722059273
1.6916853029186587,-5.36080918575864,0.11356283489459698,-0.08360432448314559,0.01949120756612789,-2.158832313526218,-2.1850939841358583,-3.627383142193548,0.006679717071810393,4.230230794145816,0.19414326678283356,0.0404199565813215,-0.06040497127861971,2.4188883722059273,0.5701513886451721,-0.003462771885097027,0.003462771885097027,0.020000000000436557,1.611239755055081,-5.483095768736124,0.11385359954625132,-0.0852897173919771,0.01963327266612538,-2.2330883386587814,-2.4174038177991237,-3.355589871300601,0.01051203550121578,4.132691704240946,0.1571110447518802,0.16700456596319202,-0.12223005015750638,1.769747061889589
1.611239755055081,-5.483095768736124,0.11385359954625132,-0.0852897173919771,0.01963327266612538,-2.2330883386587814,-2.4174038177991237,-3.355589871300601,0.01051203550121578,4.132691704240946,0.1571110447518802,0.16700456596319202,-0.12223005015750638,1.769747061889589,0.562290608882904,-0.0,0.0,0.020000000000436557,1.5095264301245166,-5.610902321345462,0.11428297085804509,-0.08146655190944446,0.018535491697016956,-2.300241491872386,-2.662987063581366,-3.0416716255480893,0.0023014607093888723,4.042464842127513,0.04176575905025892,-0.3883033368502808,0.2132394645685155,1.6822130068253955
1.5095264301245166,-5.610902321345462,0.11428297085804509,-0.08146655190944446,0.018535491697016956,-2.300241491872386,-2.662987063581366,-3.0416716255480893,0.0023014607093888723,4.042464842127513,0.04176575905025892,-0.3883033368502808,0.2132394645685155,1.6822130068253955,0.5121970772743225,-0.0012432439252734184,0.0012432439252734184,0.039999999999054126,1.4826072435644821,-5.6408741120668795,0.11428306871335744,-0.08126442810033734,0.01832538473122991,-2.3135887525860612,-2.720768324754462,-2.95975240534626,-0.0009998726050757661,4.020287242753823,-0.0022502646598936416,-0.26721625857849374,0.3196742552378195,1.2113062520806466
1.4826072435644821,-5.6408741120668795,0.11428306871335744,-0.08126442810033734,0.01832538473122991,-2.3135887525860612,-2.720768324754462,-2.95975240534626,-0.0009998726050757661,4.020287242753823,-0.0022502646598936416,-0.26721625857849374,0.3196742552378195,1.2113062520806466,0.3668796420097351,-0.0021372204646468163,0.0021372204646468163,0.020000000000436557,1.3984456222174089,-5.725848819643002,0.11411908142805341,-0.07981521534364827,0.01833232926222979,-2.345319165000123,-2.883813876979645,-2.708062528643927,-0.007686654864131448,3.952468395904001,-0.16726839356483958,0.08071253325123065,-0.05713630484345788,0.8557653927247797
1.3984456222174089,-5.725848819643002,0.11411908142805341,-0.07981521534364827,0.01833232926222979,-2.345319165000123,-2.883813876979645,-2.708062528643927,-0.007686654864131448,3.952468395904001,-0.16726839356483958,0.08071253325123065,-0.05713630484345788,0.8557653927247797,0.28636011481285095,-0.0016748188063502312,0.0016748188063502312,0.040000000000873115,1.280054513135397,-5.828606037470471,0.11296786741619141,-0.05744743842753115,0.015708711629729196,-2.3884548236455103,-3.0218748848195522,-2.432107918830062,-0.05245246390222903,3.8679927239851475,-0.2924192803784218,-0.5288221410103763,0.43558808600730886,1.2071270089693542
1.280054513135397,-5.828606037470471,0.11296786741619141,-0.05744743842753115,0.015708711629729196,-2.3884548236455103,-3.0218748848195522,-2.432107918830062,-0.05245246390222903,3.8679927239851475,-0.2924192803784218,-0.5288221410103763,0.43558808600730886,1.2071270089693542,0.2146570235490799,-0.0023221811279654503,0.0023221811279654503,0.039999999999054126,1.143037287677867,-5.93188343743094,0.11097084954083272,-0.031287622937675875,0.017183382258154144,-2.439134196678792,-3.0696316868888047,-2.189402526900924,-0.03729400722861829,3.7574794662416062,-0.31220214401034396,-0.40279705809713356,0.7592848946209659,0.7404634444852647
1.143037287677867,-5.93188343743094,0.11097084954083272,-0.031287622937675875,0.017183382258154144,-2.439134196678792,-3.0696316868888047,-2.189402526900924,-0.03729400722861829,3.7574794662416062,-0.31220214401034396,-0.40279705809713356,0.7592848946209659,0.7404634444852647,0.10963018983602524,-0.0016748188063502312,0.0016748188063502312,0.020000000000436557,1.0509856263892932,-5.996636440449919,0.1098404436821965,-0.004321731202342899,0.015191779407165684,-2.4566959461112816,-3.058048231164527,-2.138315715695761,-0.035947129189569674,3.721094217856637,-0.278407805123831,-0.469079616442429,0.7587196776036469,0.34353681429645716
1.0509856263892932,-5.996636440449919,0.1098404436821965,-0.004321731202342899,0.015191779407165684,-2.4566959461112816,-3.058048231164527,-2.138315715695761,-0.035947129189569674,3.721094217856637,-0.278407805123831,-0.469079616442429,0.7587196776036469,0.34353681429645716,0.09979645162820816,-0.0021372204646468163,0.0021372204646468163,0.040000000000873115,0.9607247326592852,-6.061526393384928,0.10904223709137803,0.009738866100451255,0.015241506432078718,-2.469768916291958,-2.96116103004577,-2.1881113109331314,-0.012226306006769161,3.679576825934811,-0.13046124688477123,-0.4087944726160276,0.5468708543203941,0.46374501760078035
0.9607247326592852,-6.061526393384928,0.10904223709137803,0.009738866100451255,0.015241506432078718,-2.469768916291958,-2.96116103004577,-2.1881113109331314,-0.012226306006769161,3.679576825934811,-0.13046124688477123,-0.4087944726160276,0.5468708543203941,0.46374501760078035,0.06835313886404037,-0.0016748188063502312,0.0016748188063502312,0.019999999998617568,0.8586622701891624,-6.1383970418950105,0.10893596562858751,-0.0014855852837133143,0.015624956341918711,-2.4900227161160267,-2.8955534630337847,-2.1771396692225027,0.004703835825788066,3.6226439803120645,-0.024851327891592057,0.17586668322834845,-0.12214670351004833,0.35013540794877757
0.8586622701891624,-6.1383970418950105,0.10893596562858751,-0.0014855852837133143,0.015624956341918711,-2.4900227161160267,-2.8955534630337847,-2.1771396692225027,0.004703835825788066,3.6226439803120645,-0.024851327891592057,0.17586668322834845,-0.12214670351004833,0.35013540794877757,0.05855022370815277,-0.003462771885097027,0.003462771885097027,0.020000000000436557,0.8441683165281937,-6.149238809717421,0.10896378374691634,-0.0024925658854270645,0.015472793657942529,-2.4918529982028184,-2.901194109057051,-2.1627245306019334,0.00693812015645226,3.6184538548973344,-0.03311123183016518,0.29403183687627776,-0.2781769142993702,0.3209398319055013
0.8441683165281937,-6.149238809717421,0.10896378374691634,-0.0024925658854270645,0.015472793657942529,-2.4918529982028184,-2.901194109057051,-2.1627245306019334,0.00693812015645226,3.6184538548973344,-0.03311123183016518,0.29403183687627776,-0.2781769142993702,0.3209398319055013,0.04085565358400345,-0.0016748188063502312,0.0016748188063502312,0.040000000000873115,0.7571176729212752,-6.213010792459208,0.10924264299732958,0.0009906988429220244,0.015167025562341546,-2.4959663470055227,-2.890923705427719,-2.106626831500114,0.00897647056411513,3.57660231441609,-0.05685386806199744,-0.13197366880056863,0.033644642616053544,0.17164897889772066
0.7571176729212752,-6.213010792459208,0.10924264299732958,0.0009906988429220244,0.015167025562341546,-2.4959663470055227,-2.890923705427719,-2.106626831500114,0.00897647056411513,3.57660231441609,-0.05685386806199744,-0.13197366880056863,0.033644642616053544,0.17164897889772066,0.027137737721204758,0.08012896776199341,0.0,0.019999999998617568,0.587785845620143,-6.340064017185551,0.10976463812828166,0.0008242617302194272,0.014558426479672282,-2.4976011947947656,-2.768606843508135,-2.1209566361439642,0.003964124182151002,3.4874764942742313,0.033891122848216826,0.19751084146980835,0.02703450991551401,-0.052931656591688206
0.587785845620143,-6.340064017185551,0.10976463812828166,0.0008242617302194272,0.014558426479672282,-2.4976011947947656,-2.768606843508135,-2.1209566361439642,0.003964124182151002,3.4874764942742313,0.033891122848216826,0.19751084146980835,0.02703450991551401,-0.052931656591688206,0.0231919102370739,0.22960801422595978,0.0,0.040000000000873115,0.5739588204627992,-6.350669985398778,0.10977593760856821,0.0007070711877422346,0.01410429636757983,-2.4970297821764444,-2.7618939446465274,-2.121507845148857,0.003519022842482372,3.482460444595281,0.03637238420199407,0.1606909547404725,0.1269999482656763,-0.11345328155192828
0.5739588204627992,-6.350669985398778,0.10977593760856821,0.0007070711877422346,0.01410429636757983,-2.4970297821764444,-2.7618939446465274,-2.121507845148857,0.003519022842482372,3.482460444595281,0.03637238420199407,0.1606909547404725,0.1269999482656763,-0.11345328155192828,0.026151280850172043,0.5657432079315186,0.0,0.020000000000436557,0.5049382934820503,-6.4036002433003585,0.109739911942271,0.00015266063006199175,0.009748788451877564,-2.4940401836141715,-2.769088024617567,-2.1094633086438934,-0.002964613842989964,3.4810256500802588,0.012015077135552277,0.25361837864736836,0.36497509142587603,-0.15767524975964992
0.5049382934820503,-6.4036002433003585,0.109739911942271,0.00015266063006199175,0.009748788451877564,-2.4940401836141715,-2.769088024617567,-2.1094633086438934,-0.002964613842989964,3.4810256500802588,0.012015077135552277,0.25361837864736836,0.36497509142587603,-0.15767524975964992,0.024178367108106613,0.6314042210578918,0.0,0.039999999999054126,0.42136007560477573,-6.467331747349222,0.10953540149095528,0.0006657242614389688,0.0020320473215728924,-2.4923461002302836,-2.8083998207560916,-2.140516976984556,-0.006946271771896059,3.5311290362180117,0.007086011572545292,-0.08125235025570277,0.23889385129541596,-0.07149567575310858
0.42136007560477573,-6.467331747349222,0.10953540149095528,0.0006657242614389688,0.0020320473215728924,-2.4923461002302836,-2.8083998207560916,-2.140516976984556,-0.006946271771896059,3.5311290362180117,0.007086011572545292,-0.08125235025570277,0.23889385129541596,-0.07149567575310858,0.0231919102370739,0.8422285318374634,0.0,0.020000000000436557,0.32193470362361687,-6.543772902565233,0.10927218156354057,-0.00042714918476627307,-0.006166848372909872,-2.490110704928434,-2.8915189745351744,-2.214709679979982,-0.007236273413431051,3.6422191420864105,0.007788948151936648,0.13201649798226667,-0.4220371818987884,0.11857496163863541
0.32193470362361687,-6.543772902565233,0.10927218156354057,-0.00042714918476627307,-0.006166848372909872,-2.490110704928434,-2.8915189745351744,-2.214709679979982,-0.007236273413431051,3.6422191420864105,0.007788948151936648,0.13201649798226667,-0.4220371818987884,0.11857496163863541,0.02121899649500847,1.0,0.0,0.039999999999054126,0.15826549305376147,-6.669906358101546,0.1092180609882161,-0.0010096315182352969,-0.017452035620229872,-2.4867075863086305,-3.078507274349007,-2.390648980261476,0.0035612056027397726,3.8976873463164665,0.021046030730075937,0.47878615279433584,0.16947609539767686,0.056086302759584206
0.15826549305376147,-6.669906358101546,0.1092180609882161,-0.0010096315182352969,-0.017452035620229872,-2.4867075863086305,-3.078507274349007,-2.390648980261476,0.0035612056027397726,3.8976873463164665,0.021046030730075937,0.47878615279433584,0.16947609539767686,0.056086302759584206,0.022236280143260956,1.0,0.0,0.020000000000436557,0.06425348599216107,-6.743365399503464,0.10935904924284373,-0.0010315979011222335,-0.01956327481248566,-2.4860565606963725,-3.190117517720749,-2.504042264350545,0.00694053834843586,4.055298799334458,0.04036194543254079,0.2601192701643683,-0.2128306036746104,0.11802617486315581
0.06425348599216107,-6.743365399503464,0.10935904924284373,-0.0010315979011222335,-0.01956327481248566,-2.4860565606963725,-3.190117517720749,-2.504042264350545,0.00694053834843586,4.055298799334458,0.04036194543254079,0.2601192701643683,-0.2128306036746104,0.11802617486315581,0.0231919102370739,1.0,0.0,0.040000000000873115,-0.033778277458786476,-6.8195390969254595,0.10956132705436414,0.0005731772218418438,-0.019402133596280322,-2.483896504979598,-3.3229856493074608,-2.5801500442378376,0.005863952482780474,4.207053036568914,0.010612435164303324,-0.26403859012057,-0.1238838624914957,0.04214768487870769
-0.033778277458786476,-6.8195390969254595,0.10956132705436414,0.0005731772218418438,-0.019402133596280322,-2.483896504979598,-3.3229856493074608,-2.5801500442378376,0.005863952482780474,4.207053036568914,0.010612435164303324,-0.26403859012057,-0.1238838624914957,0.04214768487870769,0.022236280143260956,1.0,0.0,0.019999999998617568,-0.13503265717665336,-6.899352130305624,0.10973343466125837,3.841436132408555e-05,-0.020164435312676865,-2.4802696200848326,-3.4203614715834316,-2.72665290047803,0.006158505065719633,4.373887357397464,0.05116659824785774,0.33099307698352015,0.04047563848260186,0.013746767544087652
-0.13503265717665336,-6.899352130305624,0.10973343466125837,3.841436132408555e-05,-0.020164435312676865,-2.4802696200848326,-3.4203614715834316,-2.72665290047803,0.006158505065719633,4.373887357397464,0.05116659824785774,0.33099307698352015,0.04047563848260186,0.013746767544087652,0.01927690953016281,1.0,0.0,0.040000000000873115,-0.15221457531506744,-6.913027406878715,0.10974655256946178,-0.0006956606491380191,-0.02021795735011339,-2.4797206258459052,-3.4489059421683055,-2.7398241210674237,0.0021517895718447533,4.404526858308499,0.041612098550714016,-0.0847692219471562,-0.060821508741282955,-0.17486607221997644
-0.15221457531506744,-6.913027406878715,0.10974655256946178,-0.0006956606491380191,-0.02021795735011339,-2.4797206258459052,-3.4489059421683055,-2.7398241210674237,0.0021517895718447533,4.404526858308499,0.041612098550714016,-0.0847692219471562,-0.060821508741282955,-0.17486607221997644,0.01730399578809738,1.0,0.0,0.040000000000873115,-0.2574939483750569,-6.996700065947417,0.10981601633614188,0.0006292524070266176,-0.018716420145175293,-2.4748498632075617,-3.5505435978907443,-2.837369114674208,0.00043075793452826416,4.544872961218717,0.033957323408356554,-0.6101073920199922,0.1475512595694361,-0.25017737986219835
-0.2574939483750569,-6.996700065947417,0.10981601633614188,0.0006292524070266176,-0.018716420145175293,-2.4748498632075617,-3.5505435978907443,-2.837369114674208,0.00043075793452826416,4.544872961218717,0.033957323408356554,-0.6101073920199922,0.1475512595694361,-0.25017737986219835,0.013358167372643948,1.0,0.0,0.019999999998617568,-0.49628652363655235,-7.190252454906307,0.10979722817853718,0.0022351994603747156,-0.01987867746363566,-2.4630294171878857,-3.79310670816898,-3.099231165944329,-0.0033795398330116327,4.898150547242858,0.031836081129089866,-0.32037006246777294,-0.32120030089355606,-0.1799319062869963
