x_pos,y_pos,z_pos,roll,pitch,yaw,u_x,u_y,u_z,comp_u_x,comp_u_y,roll_mder,pitch_mder,yaw_mder,steer,throttle,brake,time_step,act_x_pos,act_y_pos,act_z_pos,act_roll,act_pitch,act_yaw,act_u_x,act_u_y,act_u_z,act_comp_u_x,act_comp_u_y,act_roll_mder,act_pitch_mder,act_yaw_mder,accel_roll,accel_x,accel_y,accel_yaw
-8.89784423646622,-10.728734973622,0.109133387251342,1.5290351730282E-05,-0.01800759915634,1.21862326035058,0.1067342778632,0.331343478444014,-0.002298952857078,0.347824132349054,0.014109561792808,-0.041851520649649,-0.144084064217771,-0.07052976731165,-1,1,0,0.029999999998836,-8.8942207341031,-10.7162156704712,0.109187139546759,0.00055890566807,-0.01985322668158,1.22301717157337,0.134301010519941,0.497156781977944,0.005465441780751,0.513164189027773,0.043175715313249,0.030818245487635,-0.021147351459105,-0.220759053612242,0.018120510545354,5.51133522283783,0.968871784052319,-5.00764287688074
-8.8942207341031,-10.7162156704712,0.109187139546759,0.00055890566807,-0.01985322668158,1.22301717157337,0.134301010519941,0.497156781977944,0.005465441780751,0.513164189027773,0.043175715313249,0.030818245487635,-0.021147351459105,-0.220759053612242,-1,1,0,0.029999999998836,-8.88986932876691,-10.6988787748185,0.109420177301027,0.002373854568041,-0.019488891145619,1.23225501422966,0.150151937487186,0.655405122139456,0.008973321847686,0.668071596518651,0.07603828235048,0.046076523120797,-0.069924327595049,-0.395228905914676,0.060498296668041,5.16358024989632,1.09541890128351,-5.81566174364014
-8.88986932876691,-10.6988787748185,0.109420177301027,0.002373854568041,-0.019488891145619,1.23225501422966,0.150151937487186,0.655405122139456,0.008973321847686,0.668071596518651,0.07603828235048,0.046076523120797,-0.069924327595049,-0.395228905914676,-1,1,0,0.035000000003493,-8.88451937042162,-10.6724373194111,0.109724927756061,0.003091622755986,-0.019984841473856,1.24852903722321,0.154796270396502,0.851927969809192,0.007003470716634,0.857097274212981,0.122993551085236,-0.044445332045349,-0.041775382782163,-0.517625689762882,0.020507662510669,5.40073364787053,1.34157910657346,-3.49705096674263
-8.88451937042162,-10.6724373194111,0.109724927756061,0.003091622755986,-0.019984841473856,1.24852903722321,0.154796270396502,0.851927969809192,0.007003470716634,0.857097274212981,0.122993551085236,-0.044445332045349,-0.041775382782163,-0.517625689762882,-1,1,0,0.055000000000291,-8.87545257078981,-10.6170597236349,0.109848580556783,0.001084726534407,-0.020314215870594,1.28247736804812,0.177853699575305,1.15699031052924,-0.001026666169597,1.15980456888512,0.15846728086382,-0.032129750945126,-0.04167881378445,-0.703052008666665,-0.036489022210323,5.50376899400983,0.644976905061755,-3.37138761641458
-8.87545257078981,-10.6170597236349,0.109848580556783,0.001084726534407,-0.020314215870594,1.28247736804812,0.177853699575305,1.15699031052924,-0.001026666169597,1.15980456888512,0.15846728086382,-0.032129750945126,-0.04167881378445,-0.703052008666665,-1,1,0,0.019999999996799,-8.87186303406065,-10.5927746072354,0.109808968426202,0.001416114099775,-0.020366593063123,1.2973043415479,0.1775746274289,1.26715109219011,-0.002324829676098,1.26801771599446,0.171276707900637,-0.020984805583046,-0.111737761166443,-0.767519487719373,0.016569378271046,5.4106573563331,0.640471351943366,-3.22337395315138
-8.87186303406065,-10.5927746072354,0.109808968426202,0.001416114099775,-0.020366593063123,1.2973043415479,0.1775746274289,1.26715109219011,-0.002324829676098,1.26801771599446,0.171276707900637,-0.020984805583046,-0.111737761166443,-0.767519487719373,-1,1,0,0.029999999998836,-8.86660962547626,-10.5521744663903,0.109731166985365,0.00205271870649,-0.020505916711744,1.32191616985642,0.168630545340196,1.43405733477477,-0.002552996168219,1.43140927381948,0.189800397962291,-0.014511063871566,-0.185278907156157,-0.868667851350948,0.021220153558002,5.44638526104521,0.61745633541242,-3.37161212118333
-8.86660962547626,-10.5521744663903,0.109731166985365,0.00205271870649,-0.020505916711744,1.32191616985642,0.168630545340196,1.43405733477477,-0.002552996168219,1.43140927381948,0.189800397962291,-0.014511063871566,-0.185278907156157,-0.868667851350948,-1,1,0,0.035000000003493,-8.86098737044749,-10.4984756992071,0.10968542481233,0.003833218169129,-0.020439366596645,1.35430162095664,0.146919934742675,1.62944840696447,7.48997450420591E-05,1.62297073478719,0.206527412728096,0.050097265283178,-0.072461436709105,-0.966110027568178,0.050871413213159,5.47318459853129,0.477914707546736,-2.78406217735734
-8.86098737044749,-10.4984756992071,0.10968542481233,0.003833218169129,-0.020439366596645,1.35430162095664,0.146919934742675,1.62944840696447,7.48997450420591E-05,1.62297073478719,0.206527412728096,0.050097265283178,-0.072461436709105,-0.966110027568178,-1,1,0,0.034999999996217,-8.85643777553867,-10.4379262887634,0.109731469167489,0.006519171984271,-0.019641061070666,1.3900921225564,0.108429031371045,1.82382114157622,0.002763747374068,1.81361166767837,0.221117910096251,0.05419505868102,0.115779945589063,-1.06793591630814,0.076741537583777,5.44688379747958,0.416871353420937,-2.90931110717058
-8.85643777553867,-10.4379262887634,0.109731469167489,0.006519171984271,-0.019641061070666,1.3900921225564,0.108429031371045,1.82382114157622,0.002763747374068,1.81361166767837,0.221117910096251,0.05419505868102,0.115779945589063,-1.06793591630814,-1,1,0,0.040000000000873,-8.85359266079607,-10.3604175646705,0.109884333008862,0.011272856311241,-0.018872674770251,1.43651161434443,0.027237298456848,2.04441966377846,0.004702642408661,2.02966103628244,0.246717875047853,0.05450845967932,0.137629110722728,-1.23032796807866,0.118842108171671,5.40123421498405,0.639999123776068,-4.05980129417446
-8.85359266079607,-10.3604175646705,0.109884333008862,0.011272856311241,-0.018872674770251,1.43651161434443,0.027237298456848,2.04441966377846,0.004702642408661,2.02966103628244,0.246717875047853,0.05450845967932,0.137629110722728,-1.23032796807866,-1,1,0,0.029999999998836,-8.85394297716369,-10.2964961379071,0.110024189608729,0.014624841816743,-0.018823136852233,1.47459347904872,-0.054780351756483,2.20891029088501,0.004724102126177,2.19343455232458,0.266702877346558,0.003051959413104,0.082856495144891,-1.28271300385788,0.11173285018772,5.45911720161638,0.666166743316012,-1.74616785937502
-8.85394297716369,-10.2964961379071,0.110024189608729,0.014624841816743,-0.018823136852233,1.47459347904872,-0.054780351756483,2.20891029088501,0.004724102126177,2.19343455232458,0.266702877346558,0.003051959413104,0.082856495144891,-1.28271300385788,-1,1,0,0.030000000006112,-8.85700545169892,-10.2278123248454,0.11014805969038,0.016062871532967,-0.019120088786148,1.51374699990154,-0.1512593833963,2.36639236859369,0.003143121094976,2.3539179862548,0.285941177849587,0.025514474513471,-0.136469982352761,-1.29332175394025,0.047934323864367,5.34944779658423,0.641276683303666,-0.353625002673518
-8.85700545169892,-10.2278123248454,0.11014805969038,0.016062871532967,-0.019120088786148,1.51374699990154,-0.1512593833963,2.36639236859369,0.003143121094976,2.3539179862548,0.285941177849587,0.025514474513471,-0.136469982352761,-1.29332175394025,-1,1,0,0.059999999997672,-8.87155410313283,-10.0764743656149,0.110206310640248,0.014549828751488,-0.019358029268378,1.592373781798,-0.344796706720811,2.67352046622383,-0.001951006703007,2.68033737088999,0.287033152255504,0.050445418813897,-0.132784218271343,-1.29986883072348,-0.025217379692283,5.4403230774643,0.018199573432658,-0.109117946391487
-8.87155410313283,-10.0764743656149,0.110206310640248,0.014549828751488,-0.019358029268378,1.592373781798,-0.344796706720811,2.67352046622383,-0.001951006703007,2.68033737088999,0.287033152255504,0.050445418813897,-0.132784218271343,-1.29986883072348,-1,1,0,0.034999999996217,-8.8856932171194,-9.97987937711053,0.110163425085666,0.018215353381702,-0.018889056053269,1.64056437917851,-0.479081656711414,2.83963458371223,0.000672690983217,2.86612379531282,0.279961055780047,0.051441960717087,0.153592356054962,-1.48631093693272,0.104729275160278,5.30818355551184,-0.202059899320629,-5.32691732083983
-8.8856932171194,-9.97987937711053,0.110163425085666,0.018215353381702,-0.018889056053269,1.64056437917851,-0.479081656711414,2.83963458371223,0.000672690983217,2.86612379531282,0.279961055780047,0.051441960717087,0.153592356054962,-1.48631093693272,-1,1,0,0.035000000003493,-8.90533857366646,-9.87774499782356,0.110325514620504,0.024553208661498,-0.017745535368629,1.69146355508282,-0.647587637440095,2.98389289045207,0.007937731344963,3.04014874082633,0.283693784753446,-0.202659434697292,0.163069586641367,-1.45718997396387,0.18108157940467,4.97214129988977,0.10664939922934,0.83202751331285
-8.90533857366646,-9.87774499782356,0.110325514620504,0.024553208661498,-0.017745535368629,1.69146355508282,-0.647587637440095,2.98389289045207,0.007937731344963,3.04014874082633,0.283693784753446,-0.202659434697292,0.163069586641367,-1.45718997396387,-1,1,0,0.034999999996217,-8.93100900140573,-9.7703153595604,0.110564935695774,0.025931942622649,-0.018776487272827,1.73847262259146,-0.825720018470484,3.14185953236743,0.006455118099922,3.2356014988449,0.28978925222246,0.100358983843334,-0.132681834715946,-1.32689917436251,0.039392398894282,5.58436451541988,0.174156213419235,3.72259427472698
-8.93100900140573,-9.7703153595604,0.110564935695774,0.025931942622649,-0.018776487272827,1.73847262259146,-0.825720018470484,3.14185953236743,0.006455118099922,3.2356014988449,0.28978925222246,0.100358983843334,-0.132681834715946,-1.32689917436251,-1,0.961497366428375,0,0.060000000004948,-8.99129566531149,-9.57600559815611,0.11091149960397,0.041033688776115,-0.012976441143405,1.83658850810458,-1.2144210197323,3.31656139562733,0.004196319704699,3.51909588822439,0.30060278377833,-0.046212725370768,0.065753264881367,-1.70323668942081,0.251695769203678,4.72490648926862,0.180225525916293,-6.27229191712121
-8.99129566531149,-9.57600559815611,0.11091149960397,0.041033688776115,-0.012976441143405,1.83658850810458,-1.2144210197323,3.31656139562733,0.004196319704699,3.51909588822439,0.30060278377833,-0.046212725370768,0.065753264881367,-1.70323668942081,-1,0.935572028160095,0,0.040000000000873,-9.04549127949697,-9.44112709505257,0.110928786032599,0.03611554461646,-0.013300201349488,1.89428184095515,-1.47637145423494,3.41955648865561,-0.002418536014004,3.71149407520891,0.312811412316806,-0.124178976936377,0.33753361681022,-1.56778426492149,-0.122953603988691,4.80995467450797,0.305215713455247,3.38631061240906
-9.04549127949697,-9.44112709505257,0.110928786032599,0.03611554461646,-0.013300201349488,1.89428184095515,-1.47637145423494,3.41955648865561,-0.002418536014004,3.71149407520891,0.312811412316806,-0.124178976936377,0.33753361681022,-1.56778426492149,-1,0.836186528205872,0,0.044999999998254,-9.11866901605055,-9.28548901586272,0.111036972551106,0.045818554387673,-0.009729044086698,1.96956492811233,-1.80140970503152,3.47247591945569,0.003172461385573,3.89948315341609,0.311764450836746,-0.13052226027323,0.230319278996325,-1.67677065595799,0.215622439368665,4.17753507143265,-0.02326581066891,-2.42191980090493
-9.11866901605055,-9.28548901586272,0.111036972551106,0.045818554387673,-0.009729044086698,1.96956492811233,-1.80140970503152,3.47247591945569,0.003172461385573,3.89948315341609,0.311764450836746,-0.13052226027323,0.230319278996325,-1.67677065595799,-1,0.83359706401825,0,0.034999999996217,-9.18607235541754,-9.16341484102321,0.11116713525647,0.044067400619933,-0.010008122084466,2.02654909402968,-2.05260227668542,3.49673568287398,0.003326933897898,4.04325275666971,0.304045535769105,0.301043979200892,-0.195652261991834,-1.49265414244482,-0.050032964797972,4.10770295054753,-0.220540430527859,5.26047181523057
-9.18607235541754,-9.16341484102321,0.11116713525647,0.044067400619933,-0.010008122084466,2.02654909402968,-2.05260227668542,3.49673568287398,0.003326933897898,4.04325275666971,0.304045535769105,0.301043979200892,-0.195652261991834,-1.49265414244482,-0.924998462200165,0.773114919662476,0,0.035000000003493,-9.26206543017199,-9.04068177501386,0.111198296296993,0.044242886892668,-0.00975403885775,2.07856375082235,-2.29719056777548,3.5062099770526,0.002010137131368,4.18079663629524,0.302543209810233,0.256912510004018,-0.080062453788348,-1.46230498574826,0.005013893506207,3.92982513176578,-0.042923598820631,0.867118762672406
-9.26206543017199,-9.04068177501386,0.111198296296993,0.044242886892668,-0.00975403885775,2.07856375082235,-2.29719056777548,3.5062099770526,0.002010137131368,4.18079663629524,0.302543209810233,0.256912510004018,-0.080062453788348,-1.46230498574826,-0.226494506001472,0.399833470582962,0,0.065000000002328,-9.42395742436002,-8.81493416717464,0.111470973401922,0.04822577405893,-0.001137981973705,2.17930933520124,-2.68424135923499,3.38394099451419,0.011210130905688,4.31096131969524,0.267994084025867,0.369921162079329,0.349483512870906,-1.56185507565452,0.061275187171072,2.00253359069757,-0.531525012048136,-1.53153984465684
-9.42395742436002,-8.81493416717464,0.111470973401922,0.04822577405893,-0.001137981973705,2.17930933520124,-2.68424135923499,3.38394099451419,0.011210130905688,4.31096131969524,0.267994084025867,0.369921162079329,0.349483512870906,-1.56185507565452,-0.047637544572353,0.327267229557037,0,0.044999999998254,-9.5503945706545,-8.66637722083438,0.111931943188903,0.047277809454019,0.00426032409969,2.24786642430932,-2.92129844296561,3.21321951262692,0.008670936040475,4.33464969083459,0.26377317328975,-0.552554067539013,-0.516347596596109,-1.16480225604893,-0.021065880109955,0.526408247561466,-0.093798016361782,8.8233959915778
-9.5503945706545,-8.66637722083438,0.111931943188903,0.047277809454019,0.00426032409969,2.24786642430932,-2.92129844296561,3.21321951262692,0.008670936040475,4.33464969083459,0.26377317328975,-0.552554067539013,-0.516347596596109,-1.16480225604893,-0.028833210468292,0.067181721329689,0,0.069999999999709,-9.7586982842876,-8.44623611187232,0.110551177306815,-0.006173630360299,0.011795239519866,2.28507043636855,-2.92739580220203,3.132590938302,-0.033364918318507,4.28453506034246,0.159785750860827,-0.095856687796456,-0.36574491213683,-0.416132625477816,-0.763591997350579,-0.715923292747669,-1.48553460613365,10.6952804367746
-9.7586982842876,-8.44623611187232,0.110551177306815,-0.006173630360299,0.011795239519866,2.28507043636855,-2.92739580220203,3.132590938302,-0.033364918318507,4.28453506034246,0.159785750860827,-0.095856687796456,-0.36574491213683,-0.416132625477816,-0.026182107627392,0.347119688987732,0,0.034999999996217,-9.85968266748967,-8.33537031784065,0.109564503111837,-0.004050753823091,0.007265813300224,2.29896382882973,-2.86450019644088,3.19408051610724,-0.023222964755971,4.29037975919291,0.012379042513753,0.427247194248165,-0.019740128064717,-0.302610211930688,0.060653615355377,0.166991395745275,-4.21162023894311,3.24349753026857
-9.85968266748967,-8.33537031784065,0.109564503111837,-0.004050753823091,0.007265813300224,2.29896382882973,-2.86450019644088,3.19408051610724,-0.023222964755971,4.29037975919291,0.012379042513753,0.427247194248165,-0.019740128064717,-0.302610211930688,-0.027507659047842,0.603752613067627,0,0.040000000000873,-9.97674698732793,-8.2076536513609,0.108946590325163,0.00552360396448,-0.002565409884895,2.3137027933025,-3.00181715237969,3.19201480846418,-0.002966363765854,4.38146029519645,0.051676255597731,0.413158640428103,-0.45594223668746,-0.205650443334018,0.239358944684045,2.27701340003875,0.982430327078004,2.42399421486383
-9.97674698732793,-8.2076536513609,0.108946590325163,0.00552360396448,-0.002565409884895,2.3137027933025,-3.00181715237969,3.19201480846418,-0.002966363765854,4.38146029519645,0.051676255597731,0.413158640428103,-0.45594223668746,-0.205650443334018,-0.025257304310799,0.604615747928619,0,0.025000000001455,-10.0527514398178,-8.12760131322094,0.108952143729771,-0.001155916147066,-0.004740835713448,2.31510295036224,-3.06213891024966,3.21930979081227,0.004145947606908,4.44247108884733,0.071420302718258,-0.002293161988052,-0.581648478686295,0.04120864564679,-0.267180804446302,2.44043174589321,0.789761884775119,9.87436355865757
-10.0527514398178,-8.12760131322094,0.108952143729771,-0.001155916147066,-0.004740835713448,2.31510295036224,-3.06213891024966,3.21930979081227,0.004145947606908,4.44247108884733,0.071420302718258,-0.002293161988052,-0.581648478686295,0.04120864564679,-0.026182107627392,0.604184150695801,0,0.035000000003493,-10.1599303019343,-8.01257433543044,0.109296822470563,-0.000994874264021,-0.004999232299321,2.31837741970958,-3.0667091824316,3.33445274716548,0.009489817235533,4.53022673525073,-0.018057129041355,-0.212766852298986,0.094147255540283,-0.303770462528606,0.004601196657971,2.50730418270409,-2.55649805001956,-9.85654594688495
-10.1599303019343,-8.01257433543044,0.109296822470563,-0.000994874264021,-0.004999232299321,2.31837741970958,-3.0667091824316,3.33445274716548,0.009489817235533,4.53022673525073,-0.018057129041355,-0.212766852298986,0.094147255540283,-0.303770462528606,-0.028833210468292,0.603752613067627,0,0.040000000000873,-10.2850224094093,-7.87866702198038,0.109692614268248,0.000801824846989,-0.00591119594735,2.32207274111037,-3.18698847992869,3.35575517995724,0.008474067347435,4.6277965813267,0.038564243398546,0.266463518349926,-0.402660838077159,-0.084517398282343,0.044917477774281,2.43924615184597,1.41553431096663,5.48132660603694
-10.2850224094093,-7.87866702198038,0.109692614268248,0.000801824846989,-0.00591119594735,2.32207274111037,-3.18698847992869,3.35575517995724,0.008474067347435,4.6277965813267,0.038564243398546,0.266463518349926,-0.402660838077159,-0.084517398282343,-0.027939233928919,0.602889478206635,0,0.029999999998836,-10.3810311051182,-7.77645884633304,0.10981276846013,6.54163950759932E-05,-0.005868106689178,2.32305555056468,-3.2026036475094,3.44770378627419,0.003515868857033,4.7056379381801,-0.017410217976261,0.388916112703639,-0.01522470021169,-0.232049771958072,-0.024546948398068,2.59471189521418,-1.86581537923266,-4.91774578938182
-10.3810311051182,-7.77645884633304,0.10981276846013,6.54163950759932E-05,-0.005868106689178,2.32305555056468,-3.2026036475094,3.44770378627419,0.003515868857033,4.7056379381801,-0.017410217976261,0.388916112703639,-0.01522470021169,-0.232049771958072,-0.027939233928919,0.610688626766205,0,0.029999999998836,-10.4783939959621,-7.67251709358161,0.109821606154479,0.00089159815236,-0.007215255433077,2.32416973909637,-3.28596717218589,3.48283602402834,0.00076369595107,4.78826980659285,0.01411687728213,0.125710111720218,-0.376757298575175,0.098276476232092,0.027539391910527,2.75439561386498,1.0509031753205,11.0108749400994
-10.4783939959621,-7.67251709358161,0.109821606154479,0.00089159815236,-0.007215255433077,2.32416973909637,-3.28596717218589,3.48283602402834,0.00076369595107,4.78826980659285,0.01411687728213,0.125710111720218,-0.376757298575175,0.098276476232092,-0.027939233928919,0.618456959724426,0,0.029999999998836,-10.5777074324043,-7.56709700597382,0.109732491248311,0.000954423118608,-0.005171668261437,2.32447209582411,-3.33346818435175,3.52902856237763,-0.004061613999833,4.85446252345622,0.015695175105067,-0.517923408672096,-0.031115802267346,0.007361234404555,0.00209416554169,2.20642389553142,0.052609927433255,-3.03050806103549
-10.5777074324043,-7.56709700597382,0.109732491248311,0.000954423118608,-0.005171668261437,2.32447209582411,-3.33346818435175,3.52902856237763,-0.004061613999833,4.85446252345622,0.015695175105067,-0.517923408672096,-0.031115802267346,0.007361234404555,-0.027939233928919,0.675455689430237,0,0.029999999998836,-10.6786340755672,-7.46015214507353,0.109634596657039,-8.14688491139149E-05,-0.006991479536356,2.32383627782046,-3.38444761349256,3.60069907802203,-0.00261921185517,4.94160611501892,0.006964406059252,0.397175146848434,-0.439565050552087,-0.003705645087848,-0.034529732258738,2.9047863855361,-0.291025634871761,-0.368895983094425
-10.6786340755672,-7.46015214507353,0.109634596657039,-8.14688491139149E-05,-0.006991479536356,2.32383627782046,-3.38444761349256,3.60069907802203,-0.00261921185517,4.94160611501892,0.006964406059252,0.397175146848434,-0.439565050552087,-0.003705645087848,-0.027939233928919,0.694475829601288,0,0.029999999998836,-10.7809180508123,-7.35111018570633,0.109574850064616,0.002295868861948,-0.007560818618945,2.32493835040777,-3.45620358695107,3.65196180990707,0.000672384749202,5.02810280641486,0.018720672964367,-0.051075645361523,0.232937519109969,-0.055903022754349,0.079244590371804,2.88322304664304,0.391875563519025,-1.73991258895089
-10.7809180508123,-7.35111018570633,0.109574850064616,0.002295868861948,-0.007560818618945,2.32493835040777,-3.45620358695107,3.65196180990707,0.000672384749202,5.02810280641486,0.018720672964367,-0.051075645361523,0.232937519109969,-0.055903022754349,-0.027939233928919,0.823239266872406,0,0.029999999998836,-10.8853939361127,-7.24041596792765,0.109597101708997,-0.001258983263941,-0.009645985273436,2.32426517640812,-3.49372856653038,3.74553720924775,0.006339580048954,5.12200904154323,-0.014548566917169,0.66838271340566,-0.362133901113363,-0.124781624512675,-0.118495070867575,3.13020783773376,-1.10897466276091,-2.29595339203327
-10.8853939361127,-7.24041596792765,0.109597101708997,-0.001258983263941,-0.009645985273436,2.32426517640812,-3.49372856653038,3.74553720924775,0.006339580048954,5.12200904154323,-0.014548566917169,0.66838271340566,-0.362133901113363,-0.124781624512675,-0.028463289141655,0.837481200695038,0,0.030000000006112,-10.9916904857412,-7.12710233811528,0.109614595263594,-0.00026205532236,-0.010397333198198,2.32530138476703,-3.58662056731979,3.80296495654584,0.000915102705101,5.22745802826725,0.0084921929621,-0.567797341539437,-0.201857288135751,0.049084713762131,0.03323093137926,3.5149662234182,0.768025329152522,5.79554460797949
-10.9916904857412,-7.12710233811528,0.109614595263594,-0.00026205532236,-0.010397333198198,2.32530138476703,-3.58662056731979,3.80296495654584,0.000915102705101,5.22745802826725,0.0084921929621,-0.567797341539437,-0.201857288135751,0.049084713762131,-0.027600139379501,0.838375210762024,0,0.049999999995635,-11.1743883571159,-6.93310068361538,0.109673072098746,-0.000854732028927,-0.013363953815787,2.32508369991259,-3.71960657140492,3.95727113865282,0.004334903250876,5.43097294552606,0.000880804879726,-0.016512186788907,0.089751064899726,-0.018307485851068,-0.011853534132367,4.07029834553154,-0.152227761660772,-1.34784399238166
-11.1743883571159,-6.93310068361538,0.109673072098746,-0.000854732028927,-0.013363953815787,2.32508369991259,-3.71960657140492,3.95727113865282,0.004334903250876,5.43097294552606,0.000880804879726,-0.016512186788907,0.089751064899726,-0.018307485851068,-0.033303093165159,0.83359706401825,0,0.020000000004075,-11.2490540886636,-6.85315278317533,0.109690908969014,0.001150132109544,-0.013522643752538,2.32657550759894,-3.75348098618183,4.0353688057474,-0.000214630820836,5.51103577394554,-0.036133230138548,0.015097518349811,0.451684017331767,-0.056211730527182,0.100243206903125,4.00314142015821,-1.85070175053667,-1.89521223341958
-11.2490540886636,-6.85315278317533,0.109690908969014,0.001150132109544,-0.013522643752538,2.32657550759894,-3.75348098618183,4.0353688057474,-0.000214630820836,5.51103577394554,-0.036133230138548,0.015097518349811,0.451684017331767,-0.056211730527182,-0.025257304310799,0.837049663066864,0,0.034999999996217,-11.3832597653386,-6.71113691964774,0.109789083023112,1.91302386214467E-05,-0.014542617475769,2.3277973012011,-3.91050644664951,4.08695358657163,-0.001406968738371,5.65632080957406,0.035849508469228,-0.293534157771724,-0.467766104991512,0.329156908654927,-0.032314339172706,4.15100101840662,2.05664967473019,11.0105325492505
-11.3832597653386,-6.71113691964774,0.109789083023112,1.91302386214467E-05,-0.014542617475769,2.3277973012011,-3.91050644664951,4.08695358657163,-0.001406968738371,5.65632080957406,0.035849508469228,-0.293534157771724,-0.467766104991512,0.329156908654927,-0.027939233928919,0.826691865921021,0,0.065000000002328,-11.641000848979,-6.43771208841959,0.109897511096965,0.00151169694743,-0.012558980658363,2.32398809902956,-4.03836593579724,4.28850083434252,-0.003076905196183,5.89062598943256,0.012817573315929,-0.142616982134005,0.18683230479881,0.068928306692598,0.022962564750081,3.60469507461697,-0.354337463884213,-4.0035169531232
-11.641000848979,-6.43771208841959,0.109897511096965,0.00151169694743,-0.012558980658363,2.32398809902956,-4.03836593579724,4.28850083434252,-0.003076905196183,5.89062598943256,0.012817573315929,-0.142616982134005,0.18683230479881,0.068928306692598,-0.028833210468292,0.821482121944428,0,0.040000000000873,-11.805431498565,-6.26376936681403,0.109862184855773,0.000262722765188,-0.013776964877535,2.32450141609591,-4.17928115438049,4.39918263167231,-0.001989276252756,6.06777097822367,0.036798777070174,-0.697343261123238,-0.444704851462197,0.076254262209668,-0.03122435455538,4.42862471968098,0.59953009384304,0.18314888792276
-11.805431498565,-6.26376936681403,0.109862184855773,0.000262722765188,-0.013776964877535,2.32450141609591,-4.17928115438049,4.39918263167231,-0.001989276252756,6.06777097822367,0.036798777070174,-0.697343261123238,-0.444704851462197,0.076254262209668,-0.027939233928919,0.820649802684784,0,0.029999999998836,-11.9314804372692,-6.13019979550641,0.109834537405671,-0.000492442793625,-0.014768785422115,2.3239815412078,-4.23606224757637,4.51090122863538,-0.000976686988957,6.18808763812306,0.004964146911189,0.042574473353932,0.052266960355508,-0.063909319814635,-0.025172185294727,4.01055533013539,-1.06115433867399,-4.67211940099138
-11.9314804372692,-6.13019979550641,0.109834537405671,-0.000492442793625,-0.014768785422115,2.3239815412078,-4.23606224757637,4.51090122863538,-0.000976686988957,6.18808763812306,0.004964146911189,0.042574473353932,0.052266960355508,-0.063909319814635,-0.027939233928919,0.819786667823792,0,0.065000000002328,-12.2129172117755,-5.83085076573545,0.109818411189584,0.001697011808778,-0.013218597596859,2.32616626515705,-4.4169458376934,4.68843649421365,0.001229483875665,6.44133877971937,0.001420659999967,0.570624912182703,-0.143858068953055,-0.261782087710442,0.033683916958834,3.8961714090344,-0.054515183247618,-3.04419642905723
-12.2129172117755,-5.83085076573545,0.109818411189584,0.001697011808778,-0.013218597596859,2.32616626515705,-4.4169458376934,4.68843649421365,0.001229483875665,6.44133877971937,0.001420659999967,0.570624912182703,-0.143858068953055,-0.261782087710442,-0.027939233928919,0.824102401733398,0,0.069999999999709,-12.528875973172,-5.49607647973595,0.109943816627109,0.001321987937994,-0.012199224398637,2.32533505479538,-4.61974331137857,4.86403513833101,-0.000173199833299,6.70818103305295,0.034253725848279,-0.160339979092896,0.163439603395872,-0.163110817681216,-0.005357483868362,3.81203219049558,0.46904379783497,1.40958957185195
-12.528875973172,-5.49607647973595,0.109943816627109,0.001321987937994,-0.012199224398637,2.32533505479538,-4.61974331137857,4.86403513833101,-0.000173199833299,6.70818103305295,0.034253725848279,-0.160339979092896,0.163439603395872,-0.163110817681216,-0.027939233928919,0.602889478206635,0,0.029999999998836,-12.6676824625146,-5.34848204259028,0.109963427749983,0.001401854014857,-0.006967330611478,2.32499172575284,-4.64513021543792,4.94112297153748,0.006519251726676,6.78173471560037,0.002277158411305,0.103605902421934,0.590293037952914,-0.106291191231579,0.002662202562209,2.45178941834271,-1.06588558127382,1.89398754839473
-12.6676824625146,-5.34848204259028,0.109963427749983,0.001401854014857,-0.006967330611478,2.32499172575284,-4.64513021543792,4.94112297153748,0.006519251726676,6.78173471560037,0.002277158411305,0.103605902421934,0.590293037952914,-0.106291191231579,-0.026182107627392,0.507850527763367,0,0.034999999996217,-12.8318164835364,-5.17494954149206,0.1100488863011,-0.002447118232965,-0.003029938316974,2.32081240984933,-4.69339145385856,4.98161022280874,0.005870661195971,6.8441868974159,0.038333593435434,-0.05929611243375,0.052570051480896,0.20063753301107,-0.109970635663936,1.78434805206495,1.03018385794363,8.76939212216652
-12.8318164835364,-5.17494954149206,0.1100488863011,-0.002447118232965,-0.003029938316974,2.32081240984933,-4.69339145385856,4.98161022280874,0.005870661195971,6.8441868974159,0.038333593435434,-0.05929611243375,0.052570051480896,0.20063753301107,-0.026182107627392,0.50698733329773,0,0.035000000003493,-12.9963918995431,-4.99897070442685,0.110094052324243,-2.3067683750802E-05,-0.001889213292855,2.32219544982851,-4.72813062494714,5.04015067004248,0.000919525215643,6.91072599600454,0.01428955701748,-0.08233972516282,0.169350704656562,0.185265472540162,0.06925858711348,1.90111710234302,-0.686972469015849,-0.439201727696402
-12.9963918995431,-4.99897070442685,0.110094052324243,-2.3067683750802E-05,-0.001889213292855,2.32219544982851,-4.72813062494714,5.04015067004248,0.000919525215643,6.91072599600454,0.01428955701748,-0.08233972516282,0.169350704656562,0.185265472540162,-0.027939233928919,0.509576797485352,0,0.040000000000873,-13.1865791595166,-4.79656663259057,0.110154854145996,-0.002388613759792,-0.005010607616078,2.32016187427074,-4.75648989353876,5.11923410117363,0.008428418271585,6.98789891115247,-0.004764186133598,0.107132297921481,0.094410592325507,-0.162512944630484,-0.059138651899751,1.929322878656,-0.476343578766552,-8.69446042907636
-13.1865791595166,-4.79656663259057,0.110154854145996,-0.002388613759792,-0.005010607616078,2.32016187427074,-4.75648989353876,5.11923410117363,0.008428418271585,6.98789891115247,-0.004764186133598,0.107132297921481,0.094410592325507,-0.162512944630484,-0.027939233928919,0.50698733329773,0,0.059999999997672,-13.4747706411672,-4.48848943349252,0.109976944308665,-0.003130004406914,-0.002936807420209,2.31981615368855,-4.84036335357007,5.17096224389454,-0.003852412405648,7.08289481081121,0.023854168412068,0.016516046872933,-0.211921942389684,0.334604419232802,-0.012356510785834,1.58326499437378,0.476972575779601,8.28528939804294
-13.4747706411672,-4.48848943349252,0.109976944308665,-0.003130004406914,-0.002936807420209,2.31981615368855,-4.84036335357007,5.17096224389454,-0.003852412405648,7.08289481081121,0.023854168412068,0.016516046872933,-0.211921942389684,0.334604419232802,-0.027076084166765,0.50180846452713,0,0.040000000000873,-13.6685284281194,-4.27978735217552,0.109929695593863,0.001869838849696,-0.001134818142482,2.32595412627538,-4.8627998722823,5.23656242322578,0.008707458216646,7.14605352317273,-0.048245768307939,-0.22773145367758,0.108393852500647,-0.151307707817554,0.124996081412503,1.57896780900355,-1.80249841796083,-12.1478031759938
-13.6685284281194,-4.27978735217552,0.109929695593863,0.001869838849696,-0.001134818142482,2.32595412627538,-4.8627998722823,5.23656242322578,0.008707458216646,7.14605352317273,-0.048245768307939,-0.22773145367758,0.108393852500647,-0.151307707817554,-0.023500178009272,0.32554093003273,0,0.059999999997672,-13.9620608810247,-3.9647147393649,0.110041366151409,-0.000466725795407,0.00249779540832,2.32473778449788,-4.89502897736627,5.2801222807037,0.005328292514707,7.19992328825693,-0.045876264611356,-0.159105050320732,0.000355180601727,0.108496403763333,-0.038942744086557,0.897829418104813,0.039491728277923,4.33006852651615
-13.9620608810247,-3.9647147393649,0.110041366151409,-0.000466725795407,0.00249779540832,2.32473778449788,-4.89502897736627,5.2801222807037,0.005328292514707,7.19992328825693,-0.045876264611356,-0.159105050320732,0.000355180601727,0.108496403763333,-0.024363327771425,0.251217573881149,0,0.029999999998836,-14.1093359552352,-3.80666794101456,0.11016530088577,6.09801665242259E-05,0.005977338293078,2.32320819523105,-4.88282994985414,5.28299403087695,0.00044223970382,7.19374470389342,-0.045731659486173,0.663430344661482,0.940695134979578,-0.199103280119952,0.017590198731731,-0.20595281212469,0.00482017083962,-10.2533227965074
-14.1093359552352,-3.80666794101456,0.11016530088577,6.09801665242259E-05,0.005977338293078,2.32320819523105,-4.88282994985414,5.28299403087695,0.00044223970382,7.19374470389342,-0.045731659486173,0.663430344661482,0.940695134979578,-0.199103280119952,-0.024794902652502,0.254701018333435,0,0.035000000003493,-14.2810630847601,-3.62255138145879,0.11027415802633,0.003718165658276,0.007674592360592,2.3231353546292,-4.92451883608055,5.23292951242213,0.002079612668645,7.18568431762208,0.019440585661204,0.347978417742349,-0.144597660424087,-0.194608860649487,0.104491014039634,-0.230296750586905,1.86206414688211,0.128411984857606
-14.2810630847601,-3.62255138145879,0.11027415802633,0.003718165658276,0.007674592360592,2.3231353546292,-4.92451883608055,5.23292951242213,0.002079612668645,7.18568431762208,0.019440585661204,0.347978417742349,-0.144597660424087,-0.194608860649487,-0.022606201469898,0.252943873405457,0,0.025000000001455,-14.4046652206816,-3.4920296485353,0.110211602295688,0.000535169150298,0.00847734806924,2.31771292349872,-4.94717763100122,5.22326398112426,-0.008041583666177,7.1937747401893,0.081597283062973,-0.892023061558525,-0.350891966146207,0.070653088328501,-0.127319860311736,0.32361690267016,2.48626789592603,10.6104779585019
-14.4046652206816,-3.4920296485353,0.110211602295688,0.000535169150298,0.00847734806924,2.31771292349872,-4.94717763100122,5.22326398112426,-0.008041583666177,7.1937747401893,0.081597283062973,-0.892023061558525,-0.350891966146207,0.070653088328501,-0.019554350525141,0.253807038068771,0,0.069999999999709,-14.7476272754986,-3.12450462087637,0.110118297860541,0.001131387121912,0.006863942488537,2.32378501583927,-4.90702609571578,5.24408596874691,-0.003453472714538,7.1818737920039,-0.005620264350611,0.059734120497582,-0.028420413035047,-0.011817105109373,0.008517399594525,-0.170013545506412,-1.24596496305638,-1.17814562054596
-14.7476272754986,-3.12450462087637,0.110118297860541,0.001131387121912,0.006863942488537,2.32378501583927,-4.90702609571578,5.24408596874691,-0.003453472714538,7.1818737920039,-0.005620264350611,0.059734120497582,-0.028420413035047,-0.011817105109373,0,0.221839666366577,0,0.069999999999709,-15.0910642112004,-2.75853714921976,0.10997338150044,-1.71547310941399E-05,0.012528159181023,2.32180761849748,-4.87093381718655,5.21835948443122,-0.003227721107392,7.13843623625788,-0.000247073498185,0.131833203547938,1.12832250132862,-0.160719096278471,-0.016407740757297,-0.620536510660133,0.07675986932069,-2.12717130242453
-15.0910642112004,-2.75853714921976,0.10997338150044,-1.71547310941399E-05,0.012528159181023,2.32180761849748,-4.87093381718655,5.21835948443122,-0.003227721107392,7.13843623625788,-0.000247073498185,0.131833203547938,1.12832250132862,-0.160719096278471,0,0.06024569645524,0,0.034999999996217,-15.2612611425833,-2.57728364823501,0.110269991462724,0.000289854317741,0.015379080060921,2.32057107559017,-4.84318897119883,5.15111763472581,0.006411537922259,7.0703132590871,0.034098620240779,0.995629006606398,0.753852491234995,-0.010996953884763,0.008771687110524,-1.94637077651829,0.981305535505067,4.27777549742551
-15.2612611425833,-2.57728364823501,0.110269991462724,0.000289854317741,0.015379080060921,2.32057107559017,-4.84318897119883,5.15111763472581,0.006411537922259,7.0703132590871,0.034098620240779,0.995629006606398,0.753852491234995,-0.010996953884763,0,0.013573954813182,0,0.040000000000873,-15.4546908022303,-2.37237761403041,0.110270238987536,-0.000601389664401,0.014709703272937,2.31966901982643,-4.80666413153605,5.10782319947499,0.001928616764189,7.01370171576735,0.043198989944803,0.24937018880529,-0.080705491511919,0.04287353256595,-0.022281099553075,-1.41528858296286,0.22750924259561,1.34676216123843
-15.4546908022303,-2.37237761403041,0.110270238987536,-0.000601389664401,0.014709703272937,2.31966901982643,-4.80666413153605,5.10782319947499,0.001928616764189,7.01370171576735,0.043198989944803,0.24937018880529,-0.080705491511919,0.04287353256595,0,-0.019307736307383,0.019307736307383,0.044999999998254,-15.6706842343332,-2.14428059222451,0.110138262046376,0.00141463028121,0.015239111481894,2.32688896455264,-4.78858452298057,5.02187753026716,0.003322054046702,6.93889928029507,0.03837239439753,0.522884679888031,-0.401256181648175,-0.162789143485343,0.044800443237538,-1.66227634389288,-0.107257678832447,-4.57028169020608
-15.6706842343332,-2.14428059222451,0.110138262046376,0.00141463028121,0.015239111481894,2.32688896455264,-4.78858452298057,5.02187753026716,0.003322054046702,6.93889928029507,0.03837239439753,0.522884679888031,-0.401256181648175,-0.162789143485343,0.004541709087789,-0.090610072016716,0.090610072016716,0.055000000000291,-15.9323057265627,-1.87063303342736,0.110215830284938,0.000237998900142,0.017441358784803,2.32763080872686,-4.70039103661727,4.94434876429039,-0.000521534058768,6.82200568177787,0.02234005018783,0.227182468472524,-0.182617979731081,-0.108935048880088,-0.021393297837487,-2.12533815484704,-0.291497167447538,0.979165356454008
-15.9323057265627,-1.87063303342736,0.110215830284938,0.000237998900142,0.017441358784803,2.32763080872686,-4.70039103661727,4.94434876429039,-0.000521534058768,6.82200568177787,0.02234005018783,0.227182468472524,-0.182617979731081,-0.108935048880088,0.007501079700887,-0.086201839148998,0.086201839148998,0.040000000000873,-16.1198165338573,-1.67471933307627,0.110062962853723,-0.003283668203348,0.019427508628259,2.32836353835614,-4.65085195864985,4.87642713731945,-0.002276443734733,6.73863341124092,0.028023486048799,-0.105157408376137,-0.095601271762839,0.024205383037453,-0.08804167758532,-2.08430676337821,0.142085896521112,3.32851079786586
-16.1198165338573,-1.67471933307627,0.110062962853723,-0.003283668203348,0.019427508628259,2.32836353835614,-4.65085195864985,4.87642713731945,-0.002276443734733,6.73863341124092,0.028023486048799,-0.105157408376137,-0.095601271762839,0.024205383037453,0.011416080407798,0,0,0.029999999998836,-16.258551881285,-1.52922449006065,0.109937603909036,0.002111535842488,0.018967853308344,2.33245068115015,-4.61975404774978,4.80245119724771,-0.003563340914357,6.66369434436602,0.029028408686036,-0.157795305862337,-0.202915491173613,0.15479776584735,0.179840134868189,-2.49796889592693,0.033497421242543,4.35307942716549
-16.258551881285,-1.52922449006065,0.109937603909036,0.002111535842488,0.018967853308344,2.33245068115015,-4.61975404774978,4.80245119724771,-0.003563340914357,6.66369434436602,0.029028408686036,-0.157795305862337,-0.202915491173613,0.15479776584735,0.090949162840843,0,0,0.030000000006112,-16.3966505851605,-1.38558479507784,0.109964304555179,-0.001377299258482,0.016501191526612,2.32971976909688,-4.58036148466409,4.77988556857565,0.00426204213797,6.62010948838244,0.034172221186158,0.327340182731367,-0.358268535558356,0.028571519107703,-0.116294503341995,-1.45282853248996,0.171460416635794,-4.20754155713104
-16.3966505851605,-1.38558479507784,0.109964304555179,-0.001377299258482,0.016501191526612,2.32971976909688,-4.58036148466409,4.77988556857565,0.00426204213797,6.62010948838244,0.034172221186158,0.327340182731367,-0.358268535558356,0.028571519107703,0.089993536472321,0,0,0.034999999996217,-16.555539064404,-1.21873847547825,0.110031629965243,0.000501755373477,0.016853710154877,2.3343605936606,-4.53066438784958,4.73671267420097,-0.011628755552471,6.55464415589234,-0.002596707698655,0.151951612979006,0.524879208172798,-0.372792848816449,0.05368727520465,-1.87043807134783,-1.05054082539393,-11.4675533705011
-16.555539064404,-1.21873847547825,0.110031629965243,0.000501755373477,0.016853710154877,2.3343605936606,-4.53066438784958,4.73671267420097,-0.011628755552471,6.55464415589234,-0.002596707698655,0.151951612979006,0.524879208172798,-0.372792848816449,0.125321015715599,0,0,0.065000000002328,-16.8461815657902,-0.912717793289933,0.11000528951544,-0.001445576444555,0.016009812281241,2.32950238761187,-4.41080618848118,4.67533253233848,0.001779690007728,6.42757380332167,-0.015508808448893,0.135096265665877,-0.554283665951101,0.336124523162501,-0.029958951045578,-1.95492850101729,-0.198647703842692,10.9064211069778
-16.8461815657902,-0.912717793289933,0.11000528951544,-0.001445576444555,0.016009812281241,2.32950238761187,-4.41080618848118,4.67533253233848,0.001779690007728,6.42757380332167,-0.015508808448893,0.135096265665877,-0.554283665951101,0.336124523162501,0.163638710975647,0.001489858143032,0,0.029999999998836,-16.9776308342342,-0.772154497486692,0.110002322256144,0.002596131232864,0.017347927173699,2.32440264584523,-4.35854778839852,4.67270342618372,0.004031264272581,6.38989308609855,-0.019038935176637,0.564210753616187,0.360899176123193,-0.052950025253271,0.134723589252526,-1.25602390748598,-0.117670890929377,-12.9691516143624
-16.9776308342342,-0.772154497486692,0.110002322256144,0.002596131232864,0.017347927173699,2.32440264584523,-4.35854778839852,4.67270342618372,0.004031264272581,6.38989308609855,-0.019038935176637,0.564210753616187,0.360899176123193,-0.052950025253271,0.238239511847496,0.00583643373102,0,0.040000000000873,-17.1511789505446,-0.58652395599719,0.110023925755268,-0.001798388257189,0.016067863667192,2.3201526401066,-4.29219327347062,4.62709986990067,0.000139788135039,6.311330127583,-0.009398059608617,0.468228278804018,-0.327169886788699,0.177461769123855,-0.109862987248918,-1.96407396284591,0.241021889195238,5.76029485930241
-17.1511789505446,-0.58652395599719,0.110023925755268,-0.001798388257189,0.016067863667192,2.3201526401066,-4.29219327347062,4.62709986990067,0.000139788135039,6.311330127583,-0.009398059608617,0.468228278804018,-0.327169886788699,0.177461769123855,0.299122393131256,0.010460450313985,0,0.065000000002328,-17.4235551304869,-0.284449145827677,0.110261237543484,-0.013243461698624,0.01603988220171,2.29395264201448,-4.07048520721631,4.68421379851156,-0.002724414134025,6.20551350563807,-0.048071443460741,-0.786160626818593,-0.160850143768129,0.845972929030959,-0.176078052938856,-1.62794802986366,-0.594975136165212,10.2847870751255
-17.4235551304869,-0.284449145827677,0.110261237543484,-0.013243461698624,0.01603988220171,2.29395264201448,-4.07048520721631,4.68421379851156,-0.002724414134025,6.20551350563807,-0.048071443460741,-0.786160626818593,-0.160850143768129,0.845972929030959,0.36099174618721,0.010152182541788,0,0.034999999996217,-17.5637328803951,-0.120145797596898,0.110558781058936,-0.020332295124759,0.015762238271276,2.26764774617389,-3.92690457024651,4.72242029395131,0.013409614186779,6.14177938275794,-0.019466640068764,0.119499854747427,-0.156451766168538,0.76797204053092,-0.202538097911462,-1.82097493962901,0.817280097001977,-2.22859681452774
-17.5637328803951,-0.120145797596898,0.110558781058936,-0.020332295124759,0.015762238271276,2.26764774617389,-3.92690457024651,4.72242029395131,0.013409614186779,6.14177938275794,-0.019466640068764,0.119499854747427,-0.156451766168538,0.76797204053092,0.363920271396637,0.012310056947172,0,0.040000000000873,-17.7165604773293,0.070258308157472,0.111129443403268,-0.031161909479433,0.016872700000599,2.22796472638605,-3.71611331706798,4.80620508646439,0.01098125348411,6.07528335489192,0.006138095746363,-0.491344231091751,0.175787237944552,0.901483146017061,-0.270740358860923,-1.66240069661443,0.640118395364214,3.33777763708067
-17.7165604773293,0.070258308157472,0.111129443403268,-0.031161909479433,0.016872700000599,2.22796472638605,-3.71611331706798,4.80620508646439,0.01098125348411,6.07528335489192,0.006138095746363,-0.491344231091751,0.175787237944552,0.901483146017061,0.401251494884491,0.011878482066095,0,0.034999999996217,-17.8428674392706,0.239737795193172,0.11164209217264,-0.045735044744195,0.015507312932456,2.19605527685669,-3.49530755443593,4.88784982381173,0.01387540529041,6.00895410553794,-0.026858104399304,-0.487075889397536,-0.539999628859632,0.894953580380393,-0.416375293323932,-1.89512141031847,-0.942748575692396,-0.186559018210671
-17.8428674392706,0.239737795193172,0.11164209217264,-0.045735044744195,0.015507312932456,2.19605527685669,-3.49530755443593,4.88784982381173,0.01387540529041,6.00895410553794,-0.026858104399304,-0.487075889397536,-0.539999628859632,0.894953580380393,0.412040889263153,0.016194231808186,0,0.035000000003493,-17.9608696833018,0.412496257561307,0.112235461792169,-0.055621025125365,0.015774935422375,2.16054357453636,-3.24292893038805,4.98582699973957,0.014035093948159,5.9471855676646,-0.077735079865901,-0.456686236361854,-0.201182582456521,1.18579520472625,-0.282456582290972,-1.76481536763375,-1.45362787032915,8.30976069476683
-17.9608696833018,0.412496257561307,0.112235461792169,-0.055621025125365,0.015774935422375,2.16054357453636,-3.24292893038805,4.98582699973957,0.014035093948159,5.9471855676646,-0.077735079865901,-0.456686236361854,-0.201182582456521,1.18579520472625,0.497461885213852,0.022267106920481,0,0.07499999999709,-18.1831142956552,0.793105213742061,0.112974142647811,-0.060601906658316,0.015950732418192,2.06288373336882,-2.66717495217748,5.16340698958513,-0.008179039110341,5.81091247234845,-0.08882682210213,0.132251078048931,-0.027722613123377,1.61197060006934,-0.066411753775257,-1.81697460428579,-0.147889896488797,5.68233860479505
-18.1831142956552,0.793105213742061,0.112974142647811,-0.060601906658316,0.015950732418192,2.06288373336882,-2.66717495217748,5.16340698958513,-0.008179039110341,5.81091247234845,-0.08882682210213,0.132251078048931,-0.027722613123377,1.61197060006934,0.498448342084885,0.021373130381107,0,0.040000000000873,-18.2830466637187,1.0013236476068,0.112900124146154,-0.069304103305748,0.015951116909482,2.00699079032034,-2.32233668220151,5.25378903344499,-0.002980560114904,5.74302768446264,-0.114803697419553,-0.198835336978979,0.057335895459162,1.39428728800206,-0.21755491618103,-1.69711969710823,-0.649421882921388,-5.44208280156323
-18.2830466637187,1.0013236476068,0.112900124146154,-0.069304103305748,0.015951116909482,2.00699079032034,-2.32233668220151,5.25378903344499,-0.002980560114904,5.74302768446264,-0.114803697419553,-0.198835336978979,0.057335895459162,1.39428728800206,0.49354687333107,0.017057381570339,0,0.044999999998254,-18.3794928104709,1.23872997745205,0.112636556234605,-0.067875439851709,0.01484466292864,1.94037667453819,-1.94180281525937,5.30830807784121,-0.003734558414095,5.65131195962906,-0.106798677787017,0.471153824997219,0.029938933821021,1.36097528744098,0.031748076757647,-2.03812721860306,0.177889325174362,-0.740266679163938
-18.3794928104709,1.23872997745205,0.112636556234605,-0.067875439851709,0.01484466292864,1.94037667453819,-1.94180281525937,5.30830807784121,-0.003734558414095,5.65131195962906,-0.106798677787017,0.471153824997219,0.029938933821021,1.36097528744098,0.43660980463028,0.017057381570339,0,0.030000000006112,-18.4341786449115,1.39830778119535,0.112407548397527,-0.065775217897578,0.014389679898864,1.89520301937032,-1.68773430565851,5.33236431155073,-0.002941904740964,5.59218760269861,-0.099970264681778,0.067599515328152,-0.266288117931747,1.43236944902425,0.07000739845677,-1.97081189728023,0.227613770128261,2.37980538562422
-18.4341786449115,1.39830778119535,0.112407548397527,-0.065775217897578,0.014389679898864,1.89520301937032,-1.68773430565851,5.33236431155073,-0.002941904740964,5.59218760269861,-0.099970264681778,0.067599515328152,-0.266288117931747,1.43236944902425,0.352144449949264,0.01835210621357,0,0.040000000000873,-18.4947051383656,1.61203837103601,0.112315494246797,-0.070454966066737,0.016938283378804,1.83419257770742,-1.32632487373549,5.35086707062686,0.009175268816936,5.51164609221498,-0.112576340230764,-0.5415849995093,-0.164948996082551,1.57098054250136,-0.116993704226435,-2.01353776204679,-0.315151888717784,3.46527733685215
-18.4947051383656,1.61203837103601,0.112315494246797,-0.070454966066737,0.016938283378804,1.83419257770742,-1.32632487373549,5.35086707062686,0.009175268816936,5.51164609221498,-0.112576340230764,-0.5415849995093,-0.164948996082551,1.57098054250136,0.222517848014832,0.017920531332493,0,0.039999999993597,-18.5412764273675,1.82623811804793,0.112498758996621,-0.061673818665478,0.01448720969063,1.77190517640152,-1.00359599400063,5.3550309703732,-0.00267940922257,5.44757824380664,-0.08633012472379,-0.21669814812615,-0.161808003389039,1.27877474417515,0.219528685066627,-1.60169621046486,0.656155387779399,-7.30514495932468
-18.5412764273675,1.82623811804793,0.112498758996621,-0.061673818665478,0.01448720969063,1.77190517640152,-1.00359599400063,5.3550309703732,-0.00267940922257,5.44757824380664,-0.08633012472379,-0.21669814812615,-0.161808003389039,1.27877474417515,0.147917047142982,0.047298450022936,0,0.04500000000553,-18.5787797370714,2.06671470505938,0.112420483614654,-0.056355708455968,0.015666585595285,1.71618228467923,-0.664070089842375,5.33107762055029,-0.003893923206594,5.37104180085291,-0.115272087020791,-0.569169848519384,-0.031027695327909,1.19714115446784,0.118180226863483,-1.70080984320719,-0.64315471763211,-1.81407977105056
-18.5787797370714,2.06671470505938,0.112420483614654,-0.056355708455968,0.015666585595285,1.71618228467923,-0.664070089842375,5.33107762055029,-0.003893923206594,5.37104180085291,-0.115272087020791,-0.569169848519384,-0.031027695327909,1.19714115446784,0.08604770898819,0.330719828605652,0,0.049999999995635,-18.604859084227,2.33310686534035,0.111835530780368,-0.036150387377493,0.008838552258984,1.68089198808197,-0.405001818420804,5.34494217597169,-0.025579294253974,5.35708063473036,-0.184717109121069,0.986041256499791,0.058185847060211,0.301654142087681,0.404106421604783,-0.2792233224753,-1.38890044212682,-17.909740249167
-18.604859084227,2.33310686534035,0.111835530780368,-0.036150387377493,0.008838552258984,1.68089198808197,-0.405001818420804,5.34494217597169,-0.025579294253974,5.35708063473036,-0.184717109121069,0.986041256499791,0.058185847060211,0.301654142087681,0.087989792227745,0.369592398405075,0,0.020000000004075,-18.6125723505296,2.44021700968576,0.111202725826819,-0.017323184449024,0.006009421394266,1.67658086413339,-0.375942157701886,5.36353935080751,-0.038824271106508,5.37325207246638,-0.192481270085841,1.38830081648947,0.18140265835066,0.070532725687267,0.941360146231648,0.808571886636307,-0.388208048159503,-11.5560708176664
-18.6125723505296,2.44021700968576,0.111202725826819,-0.017323184449024,0.006009421394266,1.67658086413339,-0.375942157701886,5.36353935080751,-0.038824271106508,5.37325207246638,-0.192481270085841,1.38830081648947,0.18140265835066,0.070532725687267,0.097823537886143,0.372181862592697,0,0.034999999996217,-18.6266433423902,2.6285408780918,0.109773540433868,0.005145497878016,0.003207268275856,1.67364501255296,-0.451337244765575,5.3937325647096,-0.034881734001596,5.41156829865084,-0.104808573879584,-0.20776193829127,0.189080343739281,0.198866351922769,0.641962352270553,1.09474931967415,2.5049341775924,3.66667503569643
-18.6266433423902,2.6285408780918,0.109773540433868,0.005145497878016,0.003207268275856,1.67364501255296,-0.451337244765575,5.3937325647096,-0.034881734001596,5.41156829865084,-0.104808573879584,-0.20776193829127,0.189080343739281,0.198866351922769,0.138083308935165,0.371318697929382,0,0.040000000000873,-18.6451986365677,2.84494685746091,0.108944485558845,-0.004661946999231,0.001505270248957,1.65456437148976,-0.423748450472035,5.42287314361121,-0.002948427394571,5.43931296502608,-0.031469818499895,-0.062872845577992,-0.812629803050608,0.271543184289768,-0.245186121925844,0.693616659365895,1.8334688844522,1.81692080913531
-18.6451986365677,2.84494685746091,0.108944485558845,-0.004661946999231,0.001505270248957,1.65456437148976,-0.423748450472035,5.42287314361121,-0.002948427394571,5.43931296502608,-0.031469818499895,-0.062872845577992,-0.812629803050608,0.271543184289768,0.13746677339077,0.375634461641312,0,0.055000000000291,-18.6670822142723,3.14524415858272,0.109331245848221,0.001594986301087,0.002449183895237,1.64550866261504,-0.417226228351998,5.4756199612409,0.015609748330689,5.49148775064484,0.007346433305309,-0.024469172397532,-0.208534602195388,0.295105714492144,0.113762423641558,0.948632465790588,0.705750032818155,0.428409640040935
-18.6670822142723,3.14524415858272,0.109331245848221,0.001594986301087,0.002449183895237,1.64550866261504,-0.417226228351998,5.4756199612409,0.015609748330689,5.49148775064484,0.007346433305309,-0.024469172397532,-0.208534602195388,0.295105714492144,0.13746677339077,0.373075842857361,0,0.025000000001455,-18.6772021959133,3.28259508083522,0.109695719569087,-0.003250284859711,0.001332105548937,1.64041364272212,-0.381867173739676,5.50700398410869,0.017401547158895,5.5202274299139,-0.002131054911875,-0.149798780732543,0.044272942329993,-0.00723134854908,-0.19381084642066,1.14958717069564,-0.379099528665275,-12.093482520945
-18.6772021959133,3.28259508083522,0.109695719569087,-0.003250284859711,0.001332105548937,1.64041364272212,-0.381867173739676,5.50700398410869,0.017401547158895,5.5202274299139,-0.002131054911875,-0.149798780732543,0.044272942329993,-0.00723134854908,0.13614122569561,0.375634461641312,0,0.040000000000873,-18.691410647793,3.50381281640095,0.109971203079165,-0.000210224387591,0.001287685383211,1.63716907410251,-0.341559431415167,5.55109360531304,0.003277896948113,5.56152445813792,-0.027363509820214,-0.006921595882222,-0.020180446208408,0.187506140169607,0.076001511801343,1.03242570557789,-0.630811372694708,4.86843721786091
-18.691410647793,3.50381281640095,0.109971203079165,-0.000210224387591,0.001287685383211,1.63716907410251,-0.341559431415167,5.55109360531304,0.003277896948113,5.56152445813792,-0.027363509820214,-0.006921595882222,-0.020180446208408,0.187506140169607,0.144464448094368,0.368760079145432,0,0.029999999998836,-18.7018711771668,3.67073935646353,0.109986970070414,0.000233255713432,0.002073646777201,1.63577366182518,-0.346358047068174,5.58034945376759,-0.00435664100174,5.59106291906238,-0.016714006663836,0.534822919633767,0.311210460041003,0.017746749419826,0.014782670034674,0.984615364186993,0.354983438559698,-5.65864635854561
-18.7018711771668,3.67073935646353,0.109986970070414,0.000233255713432,0.002073646777201,1.63577366182518,-0.346358047068174,5.58034945376759,-0.00435664100174,5.59106291906238,-0.016714006663836,0.534822919633767,0.311210460041003,0.017746749419826,0.14693059027195,0.360960900783539,0,0.034999999996217,-18.714347963198,3.86663195781776,0.109796034461948,-0.000306438279865,0.000820230727655,1.63162623140561,-0.358170732231851,5.61292666844188,-0.003281556195265,5.62431923501414,0.016285004866346,-0.225674581312272,-0.172642219971036,0.139144088322446,-0.015419828381584,0.950180455867249,0.942828900964259,3.46849539759264
-18.714347963198,3.86663195781776,0.109796034461948,-0.000306438279865,0.000820230727655,1.63162623140561,-0.358170732231851,5.61292666844188,-0.003281556195265,5.62431923501414,0.016285004866346,-0.225674581312272,-0.172642219971036,0.139144088322446,0.144464448094368,0.335898727178574,0,0.030000000006112,-18.7240977716996,4.03558605931443,0.10973012120884,-0.000935631146819,0.002223804717253,1.62957424225647,-0.321385435331838,5.64020640896485,-0.002200009757319,5.64934568951806,-0.01049829011568,-0.956123519673492,0.046838135256649,0.028645113981642,-0.020973095560841,0.834215149960635,-0.89277649921897,-3.68329914394308
-18.7240977716996,4.03558605931443,0.10973012120884,-0.000935631146819,0.002223804717253,1.62957424225647,-0.321385435331838,5.64020640896485,-0.002200009757319,5.64934568951806,-0.01049829011568,-0.956123519673492,0.046838135256649,0.028645113981642,0.150845587253571,0.329856693744659,0,0.044999999998254,-18.7382385085756,4.29016262249557,0.109744562620121,-0.001818335949341,0.002625613046263,1.62377133318467,-0.309512252573123,5.67759451806392,-0.000350156632326,5.68601846422781,0.00844810645933,-0.065858001986365,0.192164275298951,0.3222570049418,-0.019615662279041,0.814950549137218,0.421031035016547,6.52470868825672
-18.7382385085756,4.29016262249557,0.109744562620121,-0.001818335949341,0.002625613046263,1.62377133318467,-0.309512252573123,5.67759451806392,-0.000350156632326,5.68601846422781,0.00844810645933,-0.065858001986365,0.192164275298951,0.3222570049418,0.219589307904243,0.329856693744659,0,0.034999999996217,-18.7486014129623,4.48915476365754,0.109742443292341,-4.56544468690375E-05,0.003437674094648,1.6233916434384,-0.282243803310648,5.70226511666291,-0.000555215895306,5.70921779884883,-0.01792067313516,0.573668507173775,0.512868124797317,0.018007643482678,0.05064804293325,0.66283813210089,-0.753393702781144,-8.69283889977177
-18.7486014129623,4.48915476365754,0.109742443292341,-4.56544468690375E-05,0.003437674094648,1.6233916434384,-0.282243803310648,5.70226511666291,-0.000555215895306,5.70921779884883,-0.01792067313516,0.573668507173775,0.512868124797317,0.018007643482678,0.289288640022278,0.333309292793274,0,0.040000000000873,-18.7600635408931,4.71761324925066,0.10977293034158,-0.001358954608019,0.002513327970894,1.61920011931291,-0.261043805527695,5.72755290671824,-0.000185635491478,5.73347517384679,-0.016388976280932,0.021873212725115,-0.178628086635092,0.080448380837144,-0.032832504028032,0.606434374935635,0.038292421354871,1.56101843382758
-18.7600635408931,4.71761324925066,0.10977293034158,-0.001358954608019,0.002513327970894,1.61920011931291,-0.261043805527695,5.72755290671824,-0.000185635491478,5.73347517384679,-0.016388976280932,0.021873212725115,-0.178628086635092,0.080448380837144,0.324646949768066,0.331582993268967,0,0.065000000002328,-18.770948051901,5.09119148904588,0.110116639740758,-0.012926158330397,0.002676430258877,1.58853396035821,-0.05844924904391,5.7690159580144,0.010672142698628,5.76914514439376,-0.043883270803826,2.20114808247647E-05,-0.107749144186583,0.565242944015963,-0.177956980337898,0.548768777626081,-0.422989146490909,7.4583778947916
-18.770948051901,5.09119148904588,0.110116639740758,-0.012926158330397,0.002676430258877,1.58853396035821,-0.05844924904391,5.7690159580144,0.010672142698628,5.76914514439376,-0.043883270803826,2.20114808247647E-05,-0.107749144186583,0.565242944015963,0.32566425204277,0.328962713479996,0,0.034999999996217,-18.7705088477522,5.29356122466808,0.110510566698889,-0.021201530267033,0.00283595900181,1.56868374702336,0.089471985100869,5.79378668145679,0.010235587901138,5.7939627692113,-0.07723195800503,-0.109282826301675,-0.020802185706205,0.579646010949268,-0.236439198215172,0.709074994863572,-0.952819634423117,0.411516198138906
-18.7705088477522,5.29356122466808,0.110510566698889,-0.021201530267033,0.00283595900181,1.56868374702336,0.089471985100869,5.79378668145679,0.010235587901138,5.7939627692113,-0.07723195800503,-0.109282826301675,-0.020802185706205,0.579646010949268,0.326619863510132,0.330288261175156,0,0.035000000003493,-18.764849657753,5.49667004904196,0.110846031709291,-0.024422750514036,0.004376649229703,1.54595712708145,0.238394813280903,5.8046628366475,0.010454885713315,5.80879315879928,-0.094152920520391,0.228065249533676,-0.047213973074383,0.785079780835027,-0.092034864190892,0.423725416757033,-0.48345607181923,5.86953628186457
-18.764849657753,5.49667004904196,0.110846031709291,-0.024422750514036,0.004376649229703,1.54595712708145,0.238394813280903,5.8046628366475,0.010454885713315,5.80879315879928,-0.094152920520391,0.228065249533676,-0.047213973074383,0.785079780835027,0.324646949768066,0.330288261175156,0,0.034999999996217,-18.7536995382139,5.70021349884803,0.111078516926285,-0.027359182372097,0.004066999910957,1.5149107378351,0.399801869625197,5.8231810134738,0.001158679507494,5.83642143765083,-0.073915172782182,-1.1478760342404,0.657353355200702,1.17413275471404,-0.083898053096523,0.789379395843924,0.578221364011328,11.1157992548878
