x_pos,y_pos,z_pos,roll,pitch,yaw,u_x,u_y,u_z,comp_u_x,comp_u_y,roll_mder,pitch_mder,yaw_mder,steer,throttle,brake,time_step,act_x_pos,act_y_pos,act_z_pos,act_roll,act_pitch,act_yaw,act_u_x,act_u_y,act_u_z,act_comp_u_x,act_comp_u_y,act_roll_mder,act_pitch_mder,act_yaw_mder,accel_roll,accel_x,accel_y,accel_yaw
-0.008882746265172,0.047717203653569,0.109180580547048,-3.65173182581823E-06,-0.018600305429161,2.35508931821756,-0.25838001342454,0.25214061745053,0.027351258658219,0.360987503639852,0.004810875332801,0.007027908460201,-0.007044314403273,-0.019882876422924,-0.023037776350975,1,0,0.0300000000002,-0.018568515222897,0.05710622282274,0.109808789421632,-1.72937304033844E-06,-0.020560576356091,2.35600847881895,-0.381997793294678,0.368594581440614,0.014591567364914,0.530747185977069,0.009576227169778,0.002220063119374,-0.002548347846568,-0.036575311230715,6.40786261822323E-05,5.65865607786949,0.158845061231503,0.030638686712858
-0.018568515222897,0.05710622282274,0.109808789421632,-1.72937304033844E-06,-0.020560576356091,2.35600847881895,-0.381997793294678,0.368594581440614,0.014591567364914,0.530747185977069,0.009576227169778,0.002220063119374,-0.002548347846568,-0.036575311230715,-0.023500178009272,1,0,0.050000000000182,-0.042996055022936,0.080432505935737,0.110037083129833,3.09603080520033E-05,-0.021538437555213,2.35913468887566,-0.590936822916118,0.558104424913501,-0.003039565216812,0.81255960587843,0.020827018051441,-0.059927039460277,0.075220072503004,-0.09877455087729,0.000653793621844,5.63624839800671,0.22501581763245,0.062524201133844
-0.042996055022936,0.080432505935737,0.110037083129833,3.09603080520033E-05,-0.021538437555213,2.35913468887566,-0.590936822916118,0.558104424913501,-0.003039565216812,0.81255960587843,0.020827018051441,-0.059927039460277,0.075220072503004,-0.09877455087729,-0.021712224930525,1,0,0.024999999999636,-0.059141843193627,0.095576742653358,0.109900362198344,3.21189199662976E-05,-0.021800041938943,2.36176881371306,-0.696146190854337,0.651478094632653,-0.006479771102353,0.953075530536501,0.026272798095399,0.028721586310001,-0.005734324437729,-0.126824905237594,4.63444765724458E-05,5.62063698640464,0.217831201761455,0.105364993497764
-0.059141843193627,0.095576742653358,0.109900362198344,3.21189199662976E-05,-0.021800041938943,2.36176881371306,-0.696146190854337,0.651478094632653,-0.006479771102353,0.953075530536501,0.026272798095399,0.028721586310001,-0.005734324437729,-0.126824905237594,-0.023500178009272,1,0,0.015000000000328,-0.07008075344072,0.105768736852421,0.109794161665034,2.27999293947534E-05,-0.02166253298152,2.36365333868439,-0.758315972295617,0.705000886693087,-0.007145274643852,1.03497368303191,0.029980652228429,-0.078888069101303,0.038408410993124,-0.140113826329043,-0.000621266038089,5.45987683290835,0.247190275529974,0.125634998085951
-0.07008075344072,0.105768736852421,0.109794161665034,2.27999293947534E-05,-0.02166253298152,2.36365333868439,-0.758315972295617,0.705000886693087,-0.007145274643852,1.03497368303191,0.029980652228429,-0.078888069101303,0.038408410993124,-0.140113826329043,-0.023931752890349,1,0,0.019999999999982,-0.086104004807286,0.120666963047004,0.109660480996366,1.76755941788443E-05,-0.021699997003452,2.36627466385458,-0.840759850183508,0.779435943078306,-0.005907152647094,1.14603032263169,0.03181217772612,-0.025541749078334,0.053449171936579,-0.15486161646528,-0.000256216760796,5.55283197999362,0.09157627488462,0.131066258509613
-0.086104004807286,0.120666963047004,0.109660480996366,1.76755941788443E-05,-0.021699997003452,2.36627466385458,-0.840759850183508,0.779435943078306,-0.005907152647094,1.14603032263169,0.03181217772612,-0.025541749078334,0.053449171936579,-0.15486161646528,-0.025257304310799,1,0,0.019999999999982,-0.103799277264795,0.137026973061979,0.109559893165206,-2.82302519140769E-05,-0.021639935280917,2.36913364578159,-0.924046911757322,0.853165058259258,-0.003729646881437,1.25722194523521,0.033856936981525,-0.071939602802662,0.034794918733752,-0.122571759805888,-0.002295292304648,5.5595811301811,0.102237962770373,0.142949096350639
-0.103799277264795,0.137026973061979,0.109559893165206,-2.82302519140769E-05,-0.021639935280917,2.36913364578159,-0.924046911757322,0.853165058259258,-0.003729646881437,1.25722194523521,0.033856936981525,-0.071939602802662,0.034794918733752,-0.122571759805888,-0.023931752890349,1,0,0.019999999999982,-0.123141689396029,0.154862524572919,0.109502400696328,-6.62817531832091E-06,-0.021601647570486,2.37223002404767,-1.0073520012336,0.925952389707598,-0.001588321294882,1.36779982505759,0.035630337733164,-0.031170327676766,0.041640014961978,-0.179743179494044,0.001080103829789,5.52889399112426,0.088670037582026,0.154818913304074
-0.123141689396029,0.154862524572919,0.109502400696328,-6.62817531832091E-06,-0.021601647570486,2.37223002404767,-1.0073520012336,0.925952389707598,-0.001588321294882,1.36779982505759,0.035630337733164,-0.031170327676766,0.041640014961978,-0.179743179494044,-0.025257304310799,1,0,0.029999999999745,-0.155263444724389,0.184374303482361,0.109491209642288,4.71693078608525E-05,-0.021475419887126,2.3770700893612,-1.13116976946118,1.03603532219372,0.001027062187561,1.53351571997557,0.035267162683174,-0.048259950269355,0.047547992177961,-0.198958332165653,0.001793249439321,5.52386316397942,-0.012105834999779,0.161335510452321
-0.155263444724389,0.184374303482361,0.109491209642288,4.71693078608525E-05,-0.021475419887126,2.3770700893612,-1.13116976946118,1.03603532219372,0.001027062187561,1.53351571997557,0.035267162683174,-0.048259950269355,0.047547992177961,-0.198958332165653,-0.024363327771425,1,0,0.025000000000091,-0.184887198190554,0.211471053409742,0.109526317785391,2.35414778225009E-05,-0.02155226295996,2.38125084344934,-1.23698029272799,1.12464950463055,0.001938219250518,1.67139027954445,0.037567090750934,0.139576493446468,-0.162682276748639,-0.142155023394908,-0.000945113201531,5.51498238273535,0.09199712271008,0.167230163525161
-0.184887198190554,0.211471053409742,0.109526317785391,2.35414778225009E-05,-0.02155226295996,2.38125084344934,-1.23698029272799,1.12464950463055,0.001938219250518,1.67139027954445,0.037567090750934,0.139576493446468,-0.162682276748639,-0.142155023394908,-0.021218996495009,1,0,0.019999999999982,-0.21057105332547,0.234660973448032,0.109565739543238,1.54628635430528E-05,-0.021491651497738,2.38468047849944,-1.32714663128759,1.19059326239426,0.002124129235068,1.78233885566818,0.045811581199994,0.031193228081628,-0.042623246547911,-0.188775985362327,-0.000403930713973,5.54742880619158,0.412224522453367,0.171481752504788
-0.21057105332547,0.234660973448032,0.109565739543238,1.54628635430528E-05,-0.021491651497738,2.38468047849944,-1.32714663128759,1.19059326239426,0.002124129235068,1.78233885566818,0.045811581199994,0.031193228081628,-0.042623246547911,-0.188775985362327,-0.023931752890349,1,0,0.019999999999982,-0.238001429026085,0.259231103032239,0.109603517838024,0.000254604993536,-0.021424553504021,2.38877407144876,-1.41618380271108,1.25784807171706,0.001602309128554,1.8934696447904,0.050309430933444,0.003993866653402,0.078243841280104,-0.268447107790008,0.011957106499646,5.55653945611615,0.224892486672711,0.204679647466408
-0.238001429026085,0.259231103032239,0.109603517838024,0.000254604993536,-0.021424553504021,2.38877407144876,-1.41618380271108,1.25784807171706,0.001602309128554,1.8934696447904,0.050309430933444,0.003993866653402,0.078243841280104,-0.268447107790008,-0.022606201469898,1,0,0.025000000000091,-0.274886101011953,0.291728383775793,0.109639581232661,3.77606236587993E-05,-0.021624303476927,2.39440014491813,-1.52468080428872,1.34579381197981,0.001235804647322,2.03308241689634,0.04887151968757,0.015526937720295,-0.031609450362987,-0.198723358760854,-0.008673774795046,5.58451088421715,-0.057516449834782,0.225042938773877
-0.274886101011953,0.291728383775793,0.109639581232661,3.77606236587993E-05,-0.021624303476927,2.39440014491813,-1.52468080428872,1.34579381197981,0.001235804647322,2.03308241689634,0.04887151968757,0.015526937720295,-0.031609450362987,-0.198723358760854,-0.019893445074558,1,0,0.065000000000055,-0.383719213659468,0.386266553713938,0.109662535126188,0.001072935684419,-0.02105666887956,2.41076810777694,-1.82481284465821,1.54755701266779,-0.000248929355194,2.39176925423379,0.065684549087025,-0.109228904529697,0.170746103730237,-0.357789876678037,0.015925770165535,5.51825903595618,0.25866199076063,0.251814813212343
-0.383719213659468,0.386266553713938,0.109662535126188,0.001072935684419,-0.02105666887956,2.41076810777694,-1.82481284465821,1.54755701266779,-0.000248929355194,2.39176925423379,0.065684549087025,-0.109228904529697,0.170746103730237,-0.357789876678037,-0.020787421613932,1,0,0.025000000000091,-0.43094865992329,0.425852464115276,0.109653199657786,0.000723739046024,-0.021227935274258,2.41797732673469,-1.94859699456061,1.61462951332777,-0.000167406067965,2.5293551628213,0.080132220915927,0.105755384855271,-0.134665414560186,-0.320657666544891,-0.01396786553578,5.50343634348033,0.577906873154011,0.28836875830878
-0.43094865992329,0.425852464115276,0.109653199657786,0.000723739046024,-0.021227935274258,2.41797732673469,-1.94859699456061,1.61462951332777,-0.000167406067965,2.5293551628213,0.080132220915927,0.105755384855271,-0.134665414560186,-0.320657666544891,-0.020787421613932,1,0,0.029999999999745,-0.491278045400049,0.475999545926867,0.109633759240126,0.000173017684923,-0.021324737769979,2.42647970910988,-2.07200368150013,1.72366678154276,-0.000587642007405,2.69461549308108,0.057216906517983,0.11592378838832,0.054961757116381,-0.346472681605708,-0.018357378703525,5.50867767537249,-0.763843813271311,0.283412745842256
-0.491278045400049,0.475999545926867,0.109633759240126,0.000173017684923,-0.021324737769979,2.42647970910988,-2.07200368150013,1.72366678154276,-0.000587642007405,2.69461549308108,0.057216906517983,0.11592378838832,0.054961757116381,-0.346472681605708,-0.023500178009272,1,0,0.0300000000002,-0.555678790224766,0.528936714878767,0.109623792239982,0.001131005886285,-0.020919763047435,2.43540342089481,-2.21822347021276,1.80229734309102,-0.000990639762464,2.85729514600362,0.068231410214417,-0.036221641746437,0.440142502527228,-0.370198221550972,0.031932940045214,5.42265509738199,0.367150123212039,0.297457059495398
-0.555678790224766,0.528936714878767,0.109623792239982,0.001131005886285,-0.020919763047435,2.43540342089481,-2.21822347021276,1.80229734309102,-0.000990639762464,2.85729514600362,0.068231410214417,-0.036221641746437,0.440142502527228,-0.370198221550972,-0.024085886776447,1,0,0.034999999999855,-0.636641927245172,0.593373693829022,0.109637525737544,-0.000114356930614,-0.021634329779906,2.44695784814817,-2.39175060744427,1.89461963041088,0.000576373781321,3.05030745656519,0.075358692737506,0.196102996176437,-0.138030726501778,-0.342988346002623,-0.035581794768708,5.51463744463922,0.203636643517663,0.330126492954734
-0.636641927245172,0.593373693829022,0.109637525737544,-0.000114356930614,-0.021634329779906,2.44695784814817,-2.39175060744427,1.89461963041088,0.000576373781321,3.05030745656519,0.075358692737506,0.196102996176437,-0.138030726501778,-0.342988346002623,-0.002907889895141,1,0,0.035000000000309,-0.72272846604386,0.662111106232744,0.109640612001829,0.00040564870453,-0.02133306922615,2.45566294956271,-2.5353536458624,2.01882328148082,0.000415769434626,3.24064198097451,0.043647480824767,-0.010543272742849,0.060129459612912,-0.235178150543228,0.014857303861129,5.43812926878965,-0.906034626070257,0.248717183270344
-0.72272846604386,0.662111106232744,0.109640612001829,0.00040564870453,-0.02133306922615,2.45566294956271,-2.5353536458624,2.01882328148082,0.000415769434626,3.24064198097451,0.043647480824767,-0.010543272742849,0.060129459612912,-0.235178150543228,0,1,0,0.019999999999982,-0.774486998721437,0.70285863904325,0.109653004927508,0.001561484242596,-0.021058813701803,2.46154600442098,-2.64254670933706,2.05439393820067,0.000721155679509,3.34655780881492,0.064330370772108,0.18028710110581,-0.11018679920202,-0.298412909085433,0.057791776903344,5.29579139202534,1.03414449736798,0.294152742913402
-0.774486998721437,0.70285863904325,0.109653004927508,0.001561484242596,-0.021058813701803,2.46154600442098,-2.64254670933706,2.05439393820067,0.000721155679509,3.34655780881492,0.064330370772108,0.18028710110581,-0.11018679920202,-0.298412909085433,0.005528165958822,1,0,0.029999999999745,-0.855631795635197,0.766112838361992,0.109666285471522,0.000220343330103,-0.021218345563918,2.46745399716622,-2.76417236708064,2.1580904820157,0.001666680782373,3.50662882824603,0.039467257477104,0.368945213853255,-0.248529761826979,-0.195381243762419,-0.044704697083475,5.33570064774908,-0.828770443173824,0.196933091509846
-0.855631795635197,0.766112838361992,0.109666285471522,0.000220343330103,-0.021218345563918,2.46745399716622,-2.76417236708064,2.1580904820157,0.001666680782373,3.50662882824603,0.039467257477104,0.368945213853255,-0.248529761826979,-0.195381243762419,0.012402537278831,1,0,0.034999999999855,-0.955240015111372,0.843689063842339,0.109664300310208,-0.000198677453654,-0.021381878984707,2.47252046225459,-2.91008289285036,2.28867707916388,0.000846389425385,3.7022330751029,0.009771057493598,0.263346824128698,0.001247123321508,-0.172257986015425,-0.011972022393104,5.5886927673623,-0.848462856675132,0.14475614538247
-0.955240015111372,0.843689063842339,0.109664300310208,-0.000198677453654,-0.021381878984707,2.47252046225459,-2.91008289285036,2.28867707916388,0.000846389425385,3.7022330751029,0.009771057493598,0.263346824128698,0.001247123321508,-0.172257986015425,0.022236280143261,1,0,0.025000000000091,-1.02945770528174,0.901764295324986,0.109665160111789,-4.94407713924153E-05,-0.021143585108449,2.47326613624144,-3.0194860867645,2.36479957281687,0.000267496694102,3.83527658316614,0.015059162549455,-0.066095901678291,-0.007151125141767,0.004258565359746,0.005969467290441,5.32174032251021,0.211524202233532,0.029826959474162
-1.02945770528174,0.901764295324986,0.109665160111789,-4.94407713924153E-05,-0.021143585108449,2.47326613624144,-3.0194860867645,2.36479957281687,0.000267496694102,3.83527658316614,0.015059162549455,-0.066095901678291,-0.007151125141767,0.004258565359746,0.108643732964993,1,0,0.0300000000002,-1.12146593715828,0.974931891580644,0.109687680577537,-0.000367299412905,-0.020906616228266,2.47153870296893,-3.11245796925183,2.51026444722935,0.000615012373547,3.99845290796211,-0.034591157716705,0.478406407884139,-0.084611836687145,-0.03264023208684,-0.010595288050364,5.43921082649621,-1.65501067552763,-0.057581109083272
-1.12146593715828,0.974931891580644,0.109687680577537,-0.000367299412905,-0.020906616228266,2.47153870296893,-3.11245796925183,2.51026444722935,0.000615012373547,3.99845290796211,-0.034591157716705,0.478406407884139,-0.084611836687145,-0.03264023208684,0.223535135388374,1,0,0.029999999999745,-1.21653647466732,1.05179164486188,0.10970902320139,0.000121766032403,-0.020338876504888,2.46863314684349,-3.24258521291056,2.60175240045172,-0.002033216826362,4.15731820829566,-0.013406387129794,-0.409775135710657,0.182325781277616,0.177821152665018,0.016302181510409,5.29551001116308,0.706159019569681,-0.096851870849062
-1.21653647466732,1.05179164486188,0.10970902320139,0.000121766032403,-0.020338876504888,2.46863314684349,-3.24258521291056,2.60175240045172,-0.002033216826362,4.15731820829566,-0.013406387129794,-0.409775135710657,0.182325781277616,0.177821152665018,0.417928785085678,1,0,0.0300000000002,-1.31525000298596,1.13146420511976,0.109734809849544,-0.002423047717713,-0.02022807520649,2.46354881173949,-3.33671425754843,2.72060735866245,0.002572416812325,4.30519469466421,-0.025789097898207,0.422288237095949,-0.395444243586843,0.166750430989845,-0.084827125003301,4.92921621225215,-0.412757025610989,-0.169477836798861
-1.31525000298596,1.13146420511976,0.109734809849544,-0.002423047717713,-0.02022807520649,2.46354881173949,-3.33671425754843,2.72060735866245,0.002572416812325,4.30519469466421,-0.025789097898207,0.422288237095949,-0.395444243586843,0.166750430989845,0.657545328140259,1,0,0.034999999999855,-1.43367625540899,1.2299589260522,0.109789148080531,-0.00307495757264,-0.020431753427275,2.45385778902815,-3.42319657607345,2.90556630441394,0.003922026082467,4.48947594356852,-0.07208397815229,-0.155194829968043,0.217701937029241,0.307751035756689,-0.018625995855124,5.26517854014498,-1.32271086440787,-0.276886363182041
-1.43367625540899,1.2299589260522,0.109789148080531,-0.00307495757264,-0.020431753427275,2.45385778902815,-3.42319657607345,2.90556630441394,0.003922026082467,4.48947594356852,-0.07208397815229,-0.155194829968043,0.217701937029241,0.307751035756689,0.670307636260986,1,0,0.039999999999964,-1.57216398854817,1.3503708219518,0.110017008515562,-0.01592747041906,-0.018883324497554,2.42511110415907,-3.48671270309018,3.13378540783986,0.007100247696286,4.68747138872415,-0.073405968237909,-0.757194074772166,-0.044961134078287,1.17754963322553,-0.321312821160794,4.9498861288953,-0.033049752140509,-0.718667121727744
-1.57216398854817,1.3503708219518,0.110017008515562,-0.01592747041906,-0.018883324497554,2.42511110415907,-3.48671270309018,3.13378540783986,0.007100247696286,4.68747138872415,-0.073405968237909,-0.757194074772166,-0.044961134078287,1.17754963322553,0.668303847312927,1,0,0.0300000000002,-1.67691460703128,1.44763042042722,0.110515909930381,-0.029037603973438,-0.019376639534018,2.39432155335204,-3.48167762770784,3.35176671746863,0.024106896835963,4.8319647425121,-0.092390252363087,0.05986649128403,-0.134609126327904,0.904600847984676,-0.437004451809684,4.81644512623275,-0.632809470835052,-1.02631836022749
-1.67691460703128,1.44763042042722,0.110515909930381,-0.029037603973438,-0.019376639534018,2.39432155335204,-3.48167762770784,3.35176671746863,0.024106896835963,4.8319647425121,-0.092390252363087,0.05986649128403,-0.134609126327904,0.904600847984676,0.671263217926025,1,0,0.034999999999855,-1.7992352815652,1.56938861396565,0.111044164378223,-0.034826421504525,-0.017817504944121,2.36294899044455,-3.49248761578989,3.60608810895622,0.013936907886948,5.01879396107266,-0.114229472124523,-0.139934449071831,-0.088925807133719,0.906767887866397,-0.165394786603165,5.33797767318118,-0.62397770747221,-0.896358940217718
-1.7992352815652,1.56938861396565,0.111044164378223,-0.034826421504525,-0.017817504944121,2.36294899044455,-3.49248761578989,3.60608810895622,0.013936907886948,5.01879396107266,-0.114229472124523,-0.139934449071831,-0.088925807133719,0.906767887866397,0.649684488773346,1,0,0.039999999999964,-1.93899622780145,1.71918946644455,0.111068633111049,-0.029068770644386,-0.017728651028897,2.32888235763724,-3.49184844851329,3.8771496968214,-0.000367505470393,5.21616546562272,-0.13005073699086,0.406973113571139,-0.631011399822409,0.750523772899711,0.143941271503591,4.93428761375601,-0.395531621658778,-0.851665820183598
-1.93899622780145,1.71918946644455,0.111068633111049,-0.029068770644386,-0.017728651028897,2.32888235763724,-3.49184844851329,3.8771496968214,-0.000367505470393,5.21616546562272,-0.13005073699086,0.406973113571139,-0.631011399822409,0.750523772899711,0.116504564881325,1,0,0.0300000000002,-2.04391899789733,1.83854548896931,0.110969157731326,-0.028616242277491,-0.019431739655852,2.30333696812247,-3.49482001774561,4.07663275602969,0.00038166940114,5.36808392434764,-0.127970954243923,0.301689298182056,-0.701897441606875,0.783679585335441,0.015084278896415,5.06394862413015,0.069326091564111,-0.851512983819896
-2.04391899789733,1.83854548896931,0.110969157731326,-0.028616242277491,-0.019431739655852,2.30333696812247,-3.49482001774561,4.07663275602969,0.00038166940114,5.36808392434764,-0.127970954243923,0.301689298182056,-0.701897441606875,0.783679585335441,0.110585823655128,1,0,0.039999999999964,-2.18375597364914,2.00710582029224,0.110782987332292,-0.027634027026985,-0.017413449785088,2.26769508734928,-3.47234363186143,4.33777363498037,0.000789096450536,5.55506081283417,-0.121448638417722,1.06956079224108,-0.320301494810136,0.749379744893613,0.024555381262681,4.67442221216764,0.163057895655176,-0.891047019330615
-2.18375597364914,2.00710582029224,0.110782987332292,-0.027634027026985,-0.017413449785088,2.26769508734928,-3.47234363186143,4.33777363498037,0.000789096450536,5.55506081283417,-0.121448638417722,1.06956079224108,-0.320301494810136,0.749379744893613,0.002599622122943,1,0,0.029999999999745,-2.28834830670328,2.14040086378972,0.110618646850423,-0.018784204730623,-0.01922291667077,2.25026261657254,-3.49380725275878,4.52138543276752,-0.005891212687264,5.71265419936785,-0.123277530462935,0.181695848326645,0.484078578813219,0.382495882451435,0.294994076547876,5.25311288450053,-0.060963068174298,-0.58108235922953
-2.28834830670328,2.14040086378972,0.110618646850423,-0.018784204730623,-0.01922291667077,2.25026261657254,-3.49380725275878,4.52138543276752,-0.005891212687264,5.71265419936785,-0.123277530462935,0.181695848326645,0.484078578813219,0.382495882451435,0,1,0,0.035000000000309,-2.41217863388819,2.30224888303858,0.110245508091573,0.003384614915327,-0.01969875593287,2.24410976882487,-3.59806162770535,4.68572527234695,-0.018794462392134,5.90678975785014,-0.109103442810858,0.427926377704709,0.819188007271636,-0.158353529134742,0.633394847021547,5.54673024230206,0.404973932912916,-0.17579564993204
-2.41217863388819,2.30224888303858,0.110245508091573,0.003384614915327,-0.01969875593287,2.24410976882487,-3.59806162770535,4.68572527234695,-0.018794462392134,5.90678975785014,-0.109103442810858,0.427926377704709,0.819188007271636,-0.158353529134742,-0.004695842973888,1,0,0.029999999999745,-2.52302524189347,2.44367297607318,0.110000690335552,0.009927228307456,-0.020477581948855,2.24493518063414,-3.77867383657306,4.73974505135147,0.000722966724894,6.0616429780704,-0.006597076800827,0.262134855309708,-0.712170379116882,0.277000602121256,0.218087113072839,5.16177400738584,3.41687886703003,0.027513726975918
-2.52302524189347,2.44367297607318,0.110000690335552,0.009927228307456,-0.020477581948855,2.24493518063414,-3.77867383657306,4.73974505135147,0.000722966724894,6.0616429780704,-0.006597076800827,0.262134855309708,-0.712170379116882,0.277000602121256,-0.108458772301674,1,0,0.039999999999964,-2.6782431168306,2.63579774782456,0.109952888529286,-0.005962956203514,-0.020368964630496,2.23779308912913,-3.93298185446849,4.89931083819514,-0.003591891859776,6.28236307991128,0.059220680530841,-0.941869763945948,-0.108535576823378,0.298348616620468,-0.397254612774613,5.51800254602695,1.6454439332932,-0.178552287625218
-2.6782431168306,2.63579774782456,0.109952888529286,-0.005962956203514,-0.020368964630496,2.23779308912913,-3.93298185446849,4.89931083819514,-0.003591891859776,6.28236307991128,0.059220680530841,-0.941869763945948,-0.108535576823378,0.298348616620468,-0.122762396931648,1,0,0.0300000000002,-2.7962126127664,2.7851940585155,0.110107248783663,-0.003548961561986,-0.021386890916025,2.23754941270036,-3.95515816013837,5.06623642848963,0.00855658384352,6.42723890062521,-0.025054647365359,0.508221718472272,0.137153225392816,-0.338965387639467,0.080466488050379,4.82919402376544,-2.80917759652126,-0.008122547625675
-2.7962126127664,2.7851940585155,0.110107248783663,-0.003548961561986,-0.021386890916025,2.23754941270036,-3.95515816013837,5.06623642848963,0.00855658384352,6.42723890062521,-0.025054647365359,0.508221718472272,0.137153225392816,-0.338965387639467,-0.134384095668793,1,0,0.019999999999982,-2.8762277757328,2.88722570889568,0.110140303471437,0.003374662540869,-0.019317964960758,2.24305067516878,-4.04460135170401,5.11291436597781,0.002056565614916,6.51922642732227,-0.019498649467634,0.551850017514827,0.029898509991788,-0.281467509611033,0.3461812051431,4.59937633485748,0.27779989488653,0.275063123421166
-2.8762277757328,2.88722570889568,0.110140303471437,0.003374662540869,-0.019317964960758,2.24305067516878,-4.04460135170401,5.11291436597781,0.002056565614916,6.51922642732227,-0.019498649467634,0.551850017514827,0.029898509991788,-0.281467509611033,-0.19431135058403,1,0,0.050000000000182,-3.08637037070131,3.14579445260397,0.110343659812891,0.008583740333327,-0.019439272007353,2.25882766835008,-4.33123358308403,5.21823386869097,0.006981620097674,6.78148305296146,0.032197235672521,-0.284210402670117,-0.189635691479653,-0.027903923192699,0.104181555848771,5.24513251276463,1.03391770279933,0.315539863624881
-3.08637037070131,3.14579445260397,0.110343659812891,0.008583740333327,-0.019439272007353,2.25882766835008,-4.33123358308403,5.21823386869097,0.006981620097674,6.78148305296146,0.032197235672521,-0.284210402670117,-0.189635691479653,-0.027903923192699,-0.282876670360565,1,0,0.034999999999855,-3.24126116851608,3.33041622123406,0.110338689767247,0.003790703359357,-0.020621012321156,2.26486474589246,-4.50864449643022,5.31783609375786,-0.002559357659779,6.97159747180737,0.063910925149068,0.242604910534047,-0.255042559765337,-0.402924173290105,-0.136943913542559,5.43184053847721,0.906105413619404,0.172487929783058
-3.24126116851608,3.33041622123406,0.110338689767247,0.003790703359357,-0.020621012321156,2.26486474589246,-4.50864449643022,5.31783609375786,-0.002559357659779,6.97159747180737,0.063910925149068,0.242604910534047,-0.255042559765337,-0.402924173290105,-0.553844034671783,1,0,0.034999999999855,-3.40226451895192,3.51827386096165,0.110207684562924,0.003867664322958,-0.019810041524657,2.27851617501757,-4.69269094948654,5.40314046940098,-0.00455555243037,7.15628764824142,0.05312603033201,-0.712001348278916,0.145657214299541,-0.517560742306399,0.00219888467432,5.27686218385177,-0.308139851917247,0.390040832147418
-3.40226451895192,3.51827386096165,0.110207684562924,0.003867664322958,-0.019810041524657,2.27851617501757,-4.69269094948654,5.40314046940098,-0.00455555243037,7.15628764824142,0.05312603033201,-0.712001348278916,0.145657214299541,-0.517560742306399,-0.747960269451141,1,0,0.025000000000091,-3.52125308295088,3.65390282290885,0.110256357821578,0.012791107397445,-0.019968584171566,2.29408686815602,-4.83628146143026,5.43467827693508,0.01048558079003,7.27492517107377,0.028462312648924,0.11630727002414,0.469457699306359,-0.888691676874088,0.35693772297816,4.74550091327686,-0.986548707319822,0.622827725535754
-3.52125308295088,3.65390282290885,0.110256357821578,0.012791107397445,-0.019968584171566,2.29408686815602,-4.83628146143026,5.43467827693508,0.01048558079003,7.27492517107377,0.028462312648924,0.11630727002414,0.469457699306359,-0.888691676874088,-0.750611364841461,1,0,0.0300000000002,-3.66932853664732,3.81738810222556,0.110682772757592,0.026355033453402,-0.020411639978828,2.32040965926355,-5.04169352733876,5.44111635961202,0.023007474847163,7.41782514870574,-0.017056543489964,0.461209251622165,0.555654255028971,-0.991728384139936,0.452130868528905,4.76333258770068,-1.5172952046195,0.877426370245122
-3.66932853664732,3.81738810222556,0.110682772757592,0.026355033453402,-0.020411639978828,2.32040965926355,-5.04169352733876,5.44111635961202,0.023007474847163,7.41782514870574,-0.017056543489964,0.461209251622165,0.555654255028971,-0.991728384139936,-0.665652751922607,1,0,0.034999999999855,-3.8507360289665,4.00770546975092,0.111756702654381,0.04119802347036,-0.018809603135613,2.35414401532171,-5.33527650343034,5.42417348678884,0.027332849731313,7.6081929481041,-0.047259361590324,-0.220865220265436,0.348448951684581,-1.01356976847472,0.424085429057694,5.43907998283288,-0.862937660013873,0.963838744522858
-3.8507360289665,4.00770546975092,0.111756702654381,0.04119802347036,-0.018809603135613,2.35414401532171,-5.33527650343034,5.42417348678884,0.027332849731313,7.6081929481041,-0.047259361590324,-0.220865220265436,0.348448951684581,-1.01356976847472,-0.53685849905014,1,0,0.034999999999855,-4.04109561425021,4.19831810540307,0.111771675356837,0.032935153686811,-0.01460331781869,2.38491409881741,-5.58791983996796,5.44576662689138,-0.016597187021091,7.8016635651677,-0.123563378095136,-0.229371568364159,0.222340715150181,-0.783010414771342,-0.236081993816663,5.52773191612583,-2.18011475728941,0.879145242737994
-4.04109561425021,4.19831810540307,0.111771675356837,0.032935153686811,-0.01460331781869,2.38491409881741,-5.58791983996796,5.44576662689138,-0.016597187021091,7.8016635651677,-0.123563378095136,-0.229371568364159,0.222340715150181,-0.783010414771342,-0.056577309966087,1,0,0.0300000000002,-4.21130685297845,4.36166570308337,0.111141552596413,0.034771610459805,-0.018072133592407,2.4094990149898,-5.80198251379169,5.43340445814809,-0.019490185551902,7.94722004263919,-0.16302972134562,-0.272133773754622,0.135456315798544,-0.469047713951349,0.061215225766073,4.85188258235073,-1.31554477500733,0.819497205740849
-4.21130685297845,4.36166570308337,0.111141552596413,0.034771610459805,-0.018072133592407,2.4094990149898,-5.80198251379169,5.43340445814809,-0.019490185551902,7.94722004263919,-0.16302972134562,-0.272133773754622,0.135456315798544,-0.469047713951349,-0.010984505526722,0.887174010276794,0,0.039999999999964,-4.44915556688381,4.577404261882,0.110848857373684,0.037743330221116,-0.014923284986057,2.42477002510366,-6.0780881528208,5.35143469807742,-0.00164816789647,8.0981055680464,-0.04117195675938,-0.718025026137543,-0.646339111596168,-0.373055141511278,0.074292994032839,3.77213813518368,3.04644411465876,0.381775252846875
-4.44915556688381,4.577404261882,0.110848857373684,0.037743330221116,-0.014923284986057,2.42477002510366,-6.0780881528208,5.35143469807742,-0.00164816789647,8.0981055680464,-0.04117195675938,-0.718025026137543,-0.646339111596168,-0.373055141511278,0,0.203713521361351,0,0.070000000000164,-4.88627724041623,4.95042667010555,0.110892692604572,-0.009009465203118,0.00097481503556,2.41432432495397,-6.26233665891893,5.36974965453324,-0.006702760677714,8.24790259014402,0.152232209125969,-0.805104740532465,-0.74215685293818,0.560362177356277,-0.667897077487496,2.13995745853239,2.76291665549852,-0.149224287852404
-4.88627724041623,4.95042667010555,0.110892692604572,-0.009009465203118,0.00097481503556,2.41432432495397,-6.26233665891893,5.36974965453324,-0.006702760677714,8.24790259014402,0.152232209125969,-0.805104740532465,-0.74215685293818,0.560362177356277,0,0.026582855731249,0,0.029999999999745,-5.07237287056611,5.1124335409469,0.111149804469419,-0.018029143557945,0.009080932016158,2.40360234896976,-6.151152840815,5.43475824865549,0.006842390204111,8.2072779902484,0.117756032455089,-0.544589194023202,0.035974432324382,0.085316650552277,-0.30065594516344,-1.35415332986563,-1.14920588903907,-0.357399199476674
-5.07237287056611,5.1124335409469,0.111149804469419,-0.018029143557945,0.009080932016158,2.40360234896976,-6.151152840815,5.43475824865549,0.006842390204111,8.2072779902484,0.117756032455089,-0.544589194023202,0.035974432324382,0.085316650552277,0,0,0,0.039999999999964,-5.31528892487467,5.33107557111096,0.11153805623859,-0.01241866482981,0.01726756864706,2.40716569449825,-6.00112458382931,5.46944260787492,0.004027768541345,8.11953641827551,-0.037776497665048,0.496233859007429,0.067785636411106,0.076568164587729,0.140261968203495,-2.19353929932411,-3.88831325300696,0.089083638212487
-5.31528892487467,5.33107557111096,0.11153805623859,-0.01241866482981,0.01726756864706,2.40716569449825,-6.00112458382931,5.46944260787492,0.004027768541345,8.11953641827551,-0.037776497665048,0.496233859007429,0.067785636411106,0.076568164587729,0,0,0,0.0300000000002,-5.49534530926419,5.49426583805912,0.111197586630478,0.006508427956521,0.019516883210076,2.41548227866616,-6.01507609135294,5.38763690530835,-0.00986731204594,8.0750576546111,-0.034866644703832,-0.217744604598807,0.077412851818251,-0.283218065497201,0.630903092873498,-1.48262545547038,0.096995098706543,0.277219472261752
-5.49534530926419,5.49426583805912,0.111197586630478,0.006508427956521,0.019516883210076,2.41548227866616,-6.01507609135294,5.38763690530835,-0.00986731204594,8.0750576546111,-0.034866644703832,-0.217744604598807,0.077412851818251,-0.283218065497201,0,0,0,0.065000000000055,-5.88420445955648,5.83979989805312,0.110305578225048,-0.002202864451207,0.017447583612706,2.41085219420288,-5.9142318842919,5.281144016462,-0.018139921871148,7.92896021498785,0.014519398304251,0.088506069092497,-0.005935486434948,-0.081503821205229,-0.134019883195711,-2.24765291727892,0.7597852770468,-0.071232068665869
-5.88420445955648,5.83979989805312,0.110305578225048,-0.002202864451207,0.017447583612706,2.41085219420288,-5.9142318842919,5.281144016462,-0.018139921871148,7.92896021498785,0.014519398304251,0.088506069092497,-0.005935486434948,-0.081503821205229,0,0,0,0.034999999999855,-6.08984715288663,6.02465802924493,0.109940280738567,0.000373767350226,0.016898301135235,2.41150769681509,-5.84255180748585,5.26268455536816,-0.004203181224992,7.86324670919656,-0.024729390938712,0.166442323172595,-0.132530675177935,0.124709394330073,0.073618051469824,-1.87752873690187,-1.12139397837504,0.018728646063365
-6.08984715288663,6.02465802924493,0.109940280738567,0.000373767350226,0.016898301135235,2.41150769681509,-5.84255180748585,5.26268455536816,-0.004203181224992,7.86324670919656,-0.024729390938712,0.166442323172595,-0.132530675177935,0.124709394330073,0,0,0,0.034999999999855,-6.29416557133276,6.20724647944568,0.109853771503023,-0.004707737284502,0.017007151933655,2.40683862885966,-5.81190155527965,5.20691636387899,-0.00092209123698,7.80314685164987,0.032816463542701,-0.185000723928009,-0.233583370826494,0.565843233419285,-0.145185846707107,-1.71713878705529,1.64416727090434,-0.133401941584294
-6.29416557133276,6.20724647944568,0.109853771503023,-0.004707737284502,0.017007151933655,2.40683862885966,-5.81190155527965,5.20691636387899,-0.00092209123698,7.80314685164987,0.032816463542701,-0.185000723928009,-0.233583370826494,0.565843233419285,0,0,0,0.039999999999964,-6.52430002849586,6.41561038832845,0.110022711905922,-0.000400715544237,0.016677640097471,2.4051598536714,-5.70131516404959,5.22369248393108,0.002994911498693,7.73241838635039,-0.040788048866374,0.176124568162314,0.348027599470358,-0.175530293539803,0.107675543506712,-1.76821163248882,-1.84011281022853,-0.041969379706535
-6.52430002849586,6.41561038832845,0.110022711905922,-0.000400715544237,0.016677640097471,2.4051598536714,-5.70131516404959,5.22369248393108,0.002994911498693,7.73241838635039,-0.040788048866374,0.176124568162314,0.348027599470358,-0.175530293539803,0,0,0,0.0300000000002,-6.69525910779271,6.5708474776097,0.110276082797815,0.002326825610789,0.017175758852039,2.40786369806809,-5.69722798539733,5.139187997343,0.003911781896158,7.67265646264548,-0.001672080552374,-0.158787703419048,0.030064318462364,0.245780946512133,0.090918038500248,-1.99206412348353,1.30386561045797,0.090128146555681
-6.69525910779271,6.5708474776097,0.110276082797815,0.002326825610789,0.017175758852039,2.40786369806809,-5.69722798539733,5.139187997343,0.003911781896158,7.67265646264548,-0.001672080552374,-0.158787703419048,0.030064318462364,0.245780946512133,0,0,0,0.034999999999855,-6.89320802309682,6.75018374891365,0.110344978403726,0.001056917889324,0.016636289348057,2.40240241758671,-5.61998068456881,5.10913114247763,0.003861998249855,7.5952153178401,0.01040200021183,0.290966356626802,0.094576839774557,-0.19496775126506,-0.036283077756274,-2.21260413730573,0.344973736121533,-0.156036585182892
-6.89320802309682,6.75018374891365,0.110344978403726,0.001056917889324,0.016636289348057,2.40240241758671,-5.61998068456881,5.10913114247763,0.003861998249855,7.5952153178401,0.01040200021183,0.290966356626802,0.094576839774557,-0.19496775126506,0,0,0,0.035000000000309,-7.089123435109,6.92850530929283,0.110216737903133,-0.000499651095322,0.017101855078544,2.39951855009848,-5.56757386064312,5.07928511151946,0.001582449074101,7.5363558324893,0.018886607008898,0.224960267533159,-0.155895450847281,-0.003698007994077,-0.044473399560929,-1.68169958143671,0.24241733705694,-0.082396213948723
-7.089123435109,6.92850530929283,0.110216737903133,-0.000499651095322,0.017101855078544,2.39951855009848,-5.56757386064312,5.07928511151946,0.001582449074101,7.5363558324893,0.018886607008898,0.224960267533159,-0.155895450847281,-0.003698007994077,-0.013666435144842,0,0,0.034999999999855,-7.28311027974652,7.10579378601775,0.110212600932487,0.000173147475285,0.018620007846051,2.39987158941744,-5.51507245374448,5.04816334798782,0.002267106772119,7.47662782506054,0.003704530906948,-0.326362291855456,-0.015561364989954,0.178406523084314,0.019222816303138,-1.70651449797158,-0.433773602914645,0.010086837684516
-7.28311027974652,7.10579378601775,0.110212600932487,0.000173147475285,0.018620007846051,2.39987158941744,-5.51507245374448,5.04816334798782,0.002267106772119,7.47662782506054,0.003704530906948,-0.326362291855456,-0.015561364989954,0.178406523084314,-0.021218996495009,0,0,0.034999999999855,-7.47515991240961,7.28158421895072,0.110172610611084,-0.001123235709977,0.017498154829847,2.40208147965978,-5.45561349205363,5.02698262065689,-0.002721491321982,7.41841532762979,-0.037240701543035,-0.113639507751928,0.153071992199789,-0.340477231938382,-0.03703951957908,-1.66321421231406,-1.16986378429011,0.063139721209976
-7.47515991240961,7.28158421895072,0.110172610611084,-0.001123235709977,0.017498154829847,2.40208147965978,-5.45561349205363,5.02698262065689,-0.002721491321982,7.41841532762979,-0.037240701543035,-0.113639507751928,0.153071992199789,-0.340477231938382,-0.022606201469898,0,0,0.035000000000309,-7.66516337746549,7.45642325433481,0.110101249132718,-0.002888970407121,0.016439264300756,2.40349959208539,-5.41596033230151,4.95941673140729,-0.002854282449914,7.34355787892392,-0.024460493054243,-0.754763530996387,-0.923074147209476,0.349685192125961,-0.050449562775086,-2.13878424872021,0.365148813962279,0.040517497874247
-7.66516337746549,7.45642325433481,0.110101249132718,-0.002888970407121,0.016439264300756,2.40349959208539,-5.41596033230151,4.95941673140729,-0.002854282449914,7.34355787892392,-0.024460493054243,-0.754763530996387,-0.923074147209476,0.349685192125961,-0.022606201469898,0,0,0.029999999999745,-7.82673219662502,7.60505891416724,0.110154581188121,-0.001408625155698,0.017865680168772,2.39626605346756,-5.37298896378976,4.9318683334993,-0.003522137128433,7.29328082516602,0.019760294666652,-1.14387438275212,-0.793267356929456,0.404933394689361,0.049344841714513,-1.67590179194416,1.47402625737568,-0.241117953929482
-7.82673219662502,7.60505891416724,0.110154581188121,-0.001408625155698,0.017865680168772,2.39626605346756,-5.37298896378976,4.9318683334993,-0.003522137128433,7.29328082516602,0.019760294666652,-1.14387438275212,-0.793267356929456,0.404933394689361,-0.022606201469898,0,0,0.059999999999946,-8.14512584520144,7.89985188174653,0.110184959165118,-0.000461598026703,0.018032630756989,2.39217102903101,-5.25837687089539,4.898792143145,-0.011348923810369,7.18670117957759,-0.004234803995434,-1.42717587646986,-0.044962904033543,0.103771348121748,0.015783785483263,-1.77632742647556,-0.399918311035127,-0.068250407275897
-8.14512584520144,7.89985188174653,0.110184959165118,-0.000461598026703,0.018032630756989,2.39217102903101,-5.25837687089539,4.898792143145,-0.011348923810369,7.18670117957759,-0.004234803995434,-1.42717587646986,-0.044962904033543,0.103771348121748,-0.034227896481752,0,0,0.050000000000182,-8.40577063488766,8.14285503679298,0.110136269022653,-0.000749996858135,0.016420864464721,2.39241282266395,-5.15908764998395,4.84189481744522,0.00344048245984,7.07524637878725,-0.03192934195618,0.195598805216147,0.170525179130782,-0.190261710878779,-0.005767976628625,-2.22909601579871,-0.553890759212906,0.004835872658768
-8.40577063488766,8.14285503679298,0.110136269022653,-0.000749996858135,0.016420864464721,2.39241282266395,-5.15908764998395,4.84189481744522,0.00344048245984,7.07524637878725,-0.03192934195618,0.195598805216147,0.170525179130782,-0.190261710878779,-0.45279386639595,0,0,0.039999999999964,-8.61137983824148,8.33550607023657,0.11009412614,0.000316290198068,0.01609960018246,2.39023198032404,-5.12087086976307,4.79750395377286,-0.003687263286252,7.0170691648558,-0.010148245372903,-0.072498030096744,0.118835382096305,0.02479962678887,0.0266571764051,-1.45443034828757,0.544527414582403,-0.054521058497808
-8.61137983824148,8.33550607023657,0.11009412614,0.000316290198068,0.01609960018246,2.39023198032404,-5.12087086976307,4.79750395377286,-0.003687263286252,7.0170691648558,-0.010148245372903,-0.072498030096744,0.118835382096305,0.02479962678887,-0.48944690823555,0,0,0.034999999999855,-8.79017904298314,8.50202728097259,0.109942542680917,0.000168195332513,0.017667434483312,2.39297944929216,-5.10489696263722,4.71615968813564,0.001875642753337,6.94994696881446,0.019295953074979,-0.142964814024886,-0.096112362694536,-0.275986184874824,-0.004231281872996,-1.91777702976044,0.841262812800124,0.078499113375125
-8.79017904298314,8.50202728097259,0.109942542680917,0.000168195332513,0.017667434483312,2.39297944929216,-5.10489696263722,4.71615968813564,0.001875642753337,6.94994696881446,0.019295953074979,-0.142964814024886,-0.096112362694536,-0.275986184874824,-0.515403032302856,0,0,0.0300000000002,-8.94345679015231,8.64199435898867,0.110136019743041,0.013656586776808,0.017632932223712,2.41158474393218,-5.13147120463893,4.59789559288657,0.01294709616815,6.89003797697825,-0.004157273362579,-0.095051109802066,-0.353499682191229,-0.827400484612599,0.449613048140138,-1.99696639452712,-0.781774214580037,0.620176487996409
-8.94345679015231,8.64199435898867,0.110136019743041,0.013656586776808,0.017632932223712,2.41158474393218,-5.13147120463893,4.59789559288657,0.01294709616815,6.89003797697825,-0.004157273362579,-0.095051109802066,-0.353499682191229,-0.827400484612599,-0.515403032302856,0,0,0.039999999999964,-9.15036558158076,8.82117018098358,0.111103283253496,0.044510673030284,0.016031460297475,2.46008331582884,-5.24083487269041,4.33684787779265,0.037280056527712,6.80221810283367,-0.066547422222158,0.221776910826926,0.332939154262702,-1.1479346379081,0.771352156337619,-2.19549685361639,-1.55975372149088,1.21246429741781
-9.15036558158076,8.82117018098358,0.111103283253496,0.044510673030284,0.016031460297475,2.46008331582884,-5.24083487269041,4.33684787779265,0.037280056527712,6.80221810283367,-0.066547422222158,0.221776910826926,0.332939154262702,-1.1479346379081,-0.515403032302856,0,0,0.045000000000073,-9.38959010765049,9.00852365020585,0.113103731926133,0.074338242771276,0.018089907746941,2.5200717827913,-5.40258591966908,3.9688311678952,0.057862368704311,6.70320947382565,-0.080859190430015,0.966631191106433,1.3074145773298,-0.997099616682024,0.662834883132079,-2.20019175573023,-0.318039293507421,1.33307704360804
-9.38959010765049,9.00852365020585,0.113103731926133,0.074338242771276,0.018089907746941,2.5200717827913,-5.40258591966908,3.9688311678952,0.057862368704311,6.70320947382565,-0.080859190430015,0.966631191106433,1.3074145773298,-0.997099616682024,-0.515403032302856,0,0,0.034999999999855,-9.58073275215736,9.14281966282181,0.114446563845308,0.066851059319483,0.016707403631939,2.56748198393661,-5.50287733233752,3.70256799247509,0.018024828147731,6.63145312759025,-0.120408015632942,0.175716498747907,-0.918433599199841,-1.67520252166542,-0.213919527194987,-2.05018132102006,-1.12996643437406,1.35457717558574
-9.58073275215736,9.14281966282181,0.114446563845308,0.066851059319483,0.016707403631939,2.56748198393661,-5.50287733233752,3.70256799247509,0.018024828147731,6.63145312759025,-0.120408015632942,0.175716498747907,-0.918433599199841,-1.67520252166542,-0.515403032302856,0,0,0.045000000000073,-9.83100041785352,9.30211019677697,0.113258241418506,0.062049243085129,0.014599506722542,2.62608280572023,-5.6169153790075,3.35409350997702,-0.042930321007403,6.54044542689824,-0.149181990759263,-0.147256563701223,0.201628483906173,-1.36682332766467,-0.106707027429911,-2.02239334870807,-0.63942166947276,1.30224048407851
-9.83100041785352,9.30211019677697,0.113258241418506,0.062049243085129,0.014599506722542,2.62608280572023,-5.6169153790075,3.35409350997702,-0.042930321007403,6.54044542689824,-0.149181990759263,-0.147256563701223,0.201628483906173,-1.36682332766467,-0.515834629535675,0,0,0.034999999999855,-10.0286787113559,9.41394449038174,0.112013833527141,0.067186165238566,0.0133845329426,2.67524999057083,-5.68828864540509,3.03584234288019,-0.024777681530228,6.44586868984463,-0.154088538020898,-0.152152217526219,-0.744456679992179,-1.35377614664915,0.146769204384525,-2.70219248725709,-0.140187064618731,1.40477671002298
-10.0286787113559,9.41394449038174,0.112013833527141,0.067186165238566,0.0133845329426,2.67524999057083,-5.68828864540509,3.03584234288019,-0.024777681530228,6.44586868984463,-0.154088538020898,-0.152152217526219,-0.744456679992179,-1.35377614664915,-0.533714175224304,0,0,0.045000000000073,-10.2865065765548,9.54105456412988,0.111712426469824,0.07107253641649,0.016034176275011,2.73483877437208,-5.76622846396228,2.60831456741579,0.008043668029845,6.32768931583246,-0.114208158649042,0.340014322650402,0.198273337234442,-1.22060847111429,0.086363803953723,-2.62620831137743,0.886230652706475,1.32419519558099
-10.2865065765548,9.54105456412988,0.111712426469824,0.07107253641649,0.016034176275011,2.73483877437208,-5.76622846396228,2.60831456741579,0.008043668029845,6.32768931583246,-0.114208158649042,0.340014322650402,0.198273337234442,-1.22060847111429,-0.534176588058472,0,0,0.070000000000164,-10.6924608197464,9.70288005616571,0.112795499360308,0.060724200105342,0.015455344454113,2.82448298924208,-5.82973372519527,2.01695024991016,0.004665688760993,6.16799575668368,-0.098549291341205,-0.267894891262132,-1.40176846984857,-1.3162574278672,-0.14783337587319,-2.28133655926289,0.223698104397149,1.28063164099701
-10.6924608197464,9.70288005616571,0.112795499360308,0.060724200105342,0.015455344454113,2.82448298924208,-5.82973372519527,2.01695024991016,0.004665688760993,6.16799575668368,-0.098549291341205,-0.267894891262132,-1.40176846984857,-1.3162574278672,-0.527024745941162,0,0,0.039999999999964,-10.925497699279,9.77651869232216,0.113193452491301,0.062938659091869,0.017045586505115,2.87742657309564,-5.83636091398055,1.68166886447341,0.000420500776576,6.07299200427421,-0.099433414910087,-0.125410564869438,-0.657279922588373,-1.01162696396728,0.055361474663232,-2.37509381023884,-0.022103089222051,1.32358959634028
-10.925497699279,9.77651869232216,0.113193452491301,0.062938659091869,0.017045586505115,2.87742657309564,-5.83636091398055,1.68166886447341,0.000420500776576,6.07299200427421,-0.099433414910087,-0.125410564869438,-0.657279922588373,-1.01162696396728,-0.115610584616661,0,0,0.045000000000073,-11.1873927717046,9.84344036852044,0.112816005816569,0.06450315817871,0.016023464995215,2.94409218218872,-5.81483406803103,1.29282498049,-0.010776884839232,5.95547108433024,-0.126711612015813,-0.031490711301449,-0.475748965226453,-1.67591727560397,0.034766646374171,-2.61157599875064,-0.606182157904049,1.48145797984381
-11.1873927717046,9.84344036852044,0.112816005816569,0.06450315817871,0.016023464995215,2.94409218218872,-5.81483406803103,1.29282498049,-0.010776884839232,5.95547108433024,-0.126711612015813,-0.031490711301449,-0.475748965226453,-1.67591727560397,-0.060153216123581,0,0,0.069999999999709,-11.5927274410828,9.91343308060926,0.112332325179879,0.058984666471242,0.016552146614895,3.04410825469023,-5.76295075990474,0.724934204295939,0.000965113476967,5.80614707553071,-0.160583931173,0.133593664262935,-0.402011111259523,-1.17872331186421,-0.078835595821287,-2.13320012571653,-0.483890273676109,1.42880103574179
-11.5927274410828,9.91343308060926,0.112332325179879,0.058984666471242,0.016552146614895,3.04410825469023,-5.76295075990474,0.724934204295939,0.000965113476967,5.80614707553071,-0.160583931173,0.133593664262935,-0.402011111259523,-1.17872331186421,-0.037803802639246,0,0,0.035000000000309,-11.7937685007596,9.93426670281344,0.11220891734781,0.054032168397557,0.016532655276482,3.07038012657148,-5.72581335518477,0.470621684596172,-0.007472493704192,5.74478688891403,-0.062023780808848,-0.203176079219135,0.465318780594905,-0.420067402130456,-0.141499944961183,-1.75314818903238,2.81600429609375,0.750624910886296
-11.7937685007596,9.93426670281344,0.11220891734781,0.054032168397557,0.016532655276482,3.07038012657148,-5.72581335518477,0.470621684596172,-0.007472493704192,5.74478688891403,-0.062023780808848,-0.203176079219135,0.465318780594905,-0.420067402130456,-0.029758013784886,0,0,0.039999999999964,-12.0217286054089,9.94871399297579,0.111788299581553,0.029175492184998,0.015867100971498,3.07214054993016,-5.67184517978333,0.289952379314563,-0.018616736733063,5.67829295352599,0.104351615410215,-0.051574544212186,-0.976491525800213,0.366259064034834,-0.621416905314554,-1.66234838470267,4.15938490548036,0.044010583967009
-12.0217286054089,9.94871399297579,0.111788299581553,0.029175492184998,0.015867100971498,3.07214054993016,-5.67184517978333,0.289952379314563,-0.018616736733063,5.67829295352599,0.104351615410215,-0.051574544212186,-0.976491525800213,0.366259064034834,-0.018136318773031,0,0,0.029999999999745,-12.1912687468353,9.95717414981,0.110752303539583,-0.002039184647545,0.0160803412946,3.06048816811899,-5.62648088639983,0.301737773976553,-0.046579132725774,5.63243117429177,0.155086801931022,-0.358978619145466,-1.20993060396253,0.40619735355718,-1.04048922776024,-1.52872597448691,1.69117288404125,-0.388412727042253
-12.1912687468353,9.95717414981,0.110752303539583,-0.002039184647545,0.0160803412946,3.06048816811899,-5.62648088639983,0.301737773976553,-0.046579132725774,5.63243117429177,0.155086801931022,-0.358978619145466,-1.20993060396253,0.40619735355718,-0.016317538917065,0,0,0.034999999999855,-12.3868713529654,9.97015543336099,0.109768121309617,-0.007268009688358,0.016944766953159,3.05808509858146,-5.55579168147208,0.416899365478945,-0.021177417257027,5.57120504485539,0.047964956258455,-0.093404130832944,1.4726324680293,-0.153675994406556,-0.149395001166704,-1.74931798390368,-3.06062416208608,-0.06865912964399
-12.3868713529654,9.97015543336099,0.109768121309617,-0.007268009688358,0.016944766953159,3.05808509858146,-5.55579168147208,0.416899365478945,-0.021177417257027,5.57120504485539,0.047964956258455,-0.093404130832944,1.4726324680293,-0.153675994406556,-0.014560411684215,0,0,0.0300000000002,-12.5527282984889,9.98221609799594,0.109364262594528,0.004672204019356,0.015846104560375,3.07082774057853,-5.50754033167051,0.365698246337154,-0.006073705958978,5.51961311648297,0.024632431883184,-0.161392361000647,0.129400733571117,-0.197211035350469,0.398007123587803,-1.71973094573595,-0.777750812503835,0.424754733232789
-12.5527282984889,9.98221609799594,0.109364262594528,0.004672204019356,0.015846104560375,3.07082774057853,-5.50754033167051,0.365698246337154,-0.006073705958978,5.51961311648297,0.024632431883184,-0.161392361000647,0.129400733571117,-0.197211035350469,-0.014560411684215,0,0,0.0300000000002,-12.7171226112535,9.99290584174149,0.109353515985914,-0.000310916169573,0.017056006099145,3.07015438733743,-5.4507304683672,0.362846306672312,0.006931614399352,5.46272675199166,0.027138793762107,-0.027243271330255,-0.070645692983318,0.055312908277838,-0.166104006296517,-1.89621214969767,0.083545395963524,-0.022445108036334
-12.7171226112535,9.99290584174149,0.109353515985914,-0.000310916169573,0.017056006099145,3.07015438733743,-5.4507304683672,0.362846306672312,0.006931614399352,5.46272675199166,0.027138793762107,-0.027243271330255,-0.070645692983318,0.055312908277838,-0.036878999322653,0,0,0.034999999999855,-12.9069177654036,10.0056363187452,0.10954871293588,-0.000489716417901,0.0163933129512,3.07090035738037,-5.39619382302274,0.351205287620892,0.001748246563583,5.40752280032329,0.030823589431418,-0.376986424167011,-0.817374251634773,0.032602049006545,-0.005108578523692,-1.57725576196,0.105279876266486,0.021313429798285
-12.9069177654036,10.0056363187452,0.10954871293588,-0.000489716417901,0.0163933129512,3.07090035738037,-5.39619382302274,0.351205287620892,0.001748246563583,5.40752280032329,0.030823589431418,-0.376986424167011,-0.817374251634773,0.032602049006545,-0.120974443852901,0,0,0.059999999999946,-13.2276027651906,10.0278979040086,0.109890677694689,0.001590231834785,0.016021787586138,3.07073018019698,-5.29323546307487,0.370899127512517,0.005648660567355,5.30621189718073,0.0048096320717,0.045155256293021,0.032142652824543,-0.076383752781847,0.034665804211462,-1.68851505237756,-0.433565955995693,-0.002836286389865
-13.2276027651906,10.0278979040086,0.109890677694689,0.001590231834785,0.016021787586138,3.07073018019698,-5.29323546307487,0.370899127512517,0.005648660567355,5.30621189718073,0.0048096320717,0.045155256293021,0.032142652824543,-0.076383752781847,-0.315953820943832,0,0,0.034999999999855,-13.4120215737881,10.0397633804331,0.109960302243032,0.00322439198174,0.015869723906632,3.07716354657757,-5.24577862613207,0.297795413455012,-0.004074513988591,5.25406791137718,0.040569511896389,-0.192882524390167,0.832585939280645,-0.444004722616685,0.046690289913211,-1.48982816582176,1.02171085213819,0.183810468017678
-13.4120215737881,10.0397633804331,0.109960302243032,0.00322439198174,0.015869723906632,3.07716354657757,-5.24577862613207,0.297795413455012,-0.004074513988591,5.25406791137718,0.040569511896389,-0.192882524390167,0.832585939280645,-0.444004722616685,-0.604831516742706,0,0,0.0300000000002,-13.5686584275024,10.0474574450599,0.110021895291912,0.006693440572273,0.015957927494582,3.09184936759743,-5.19915800772982,0.2049492110695,0.003931338174111,5.20291759337678,0.053820860171273,-0.087055224387896,-0.063360485153994,-0.432014586494404,0.115634953016972,-1.70501060000223,0.44171160915985,0.4895273673252
-13.5686584275024,10.0474574450599,0.110021895291912,0.006693440572273,0.015957927494582,3.09184936759743,-5.19915800772982,0.2049492110695,0.003931338174111,5.20291759337678,0.053820860171273,-0.087055224387896,-0.063360485153994,-0.432014586494404,-0.63701468706131,0,0,0.034999999999855,-13.749322752174,10.0519099095888,0.110432076809347,0.03038031262873,0.015889899620629,3.12898599767441,-5.13200205421215,0.024801916198157,0.021905078033503,5.13190691172508,0.039895724998627,0.271512527330327,0.783807281740847,-0.910394527526478,0.676767773044447,-2.0288766186284,-0.397861004934394,1.06104657363263
-13.749322752174,10.0519099095888,0.110432076809347,0.03038031262873,0.015889899620629,3.12898599767441,-5.13200205421215,0.024801916198157,0.021905078033503,5.13190691172508,0.039895724998627,0.271512527330327,0.783807281740847,-0.910394527526478,-0.636120736598969,0,0,0.070000000000164,-14.1025562498834,10.0336365031556,0.112623404804288,0.059941811242997,0.016520311496433,3.23849844182999,-4.95544454831174,-0.548607311259674,0.012978959444205,4.98527518167342,0.066573390713619,-0.329783347522964,0.456490961181112,-1.46336270361736,0.422307123059975,-2.09473900073303,0.381109510213285,1.56446348793312
-14.1025562498834,10.0336365031556,0.112623404804288,0.059941811242997,0.016520311496433,3.23849844182999,-4.95544454831174,-0.548607311259674,0.012978959444205,4.98527518167342,0.066573390713619,-0.329783347522964,0.456490961181112,-1.46336270361736,-0.632544815540314,0,0,0.039999999999964,-14.297664111907,10.0051605939938,0.113106980815058,0.07025317351496,0.017767483294107,3.31585535807226,-4.80247477892263,-0.885673647650126,0.010765432202488,4.88329948924864,0.039596851311912,0.281636296600574,-0.664584914247516,-2.16396457213412,0.257784056799292,-2.54939231062178,-0.674413485043296,1.93392290605844
-14.297664111907,10.0051605939938,0.113106980815058,0.07025317351496,0.017767483294107,3.31585535807226,-4.80247477892263,-0.885673647650126,0.010765432202488,4.88329948924864,0.039596851311912,0.281636296600574,-0.664584914247516,-2.16396457213412,-0.533282577991486,0,0,0.045000000000073,-14.5096851359094,9.95750379979734,0.112605465657383,0.069236604101709,0.014923661661182,3.42048644582176,-4.59834697842521,-1.25634770798611,-0.027120580667759,4.76653232877376,-0.058086625903088,-0.025861685211171,0.957684680023844,-2.30981828030118,-0.022590431405542,-2.59482578832655,-2.17074393810758,2.32513528331856
-14.5096851359094,9.95750379979734,0.112605465657383,0.069236604101709,0.014923661661182,3.42048644582176,-4.59834697842521,-1.25634770798611,-0.027120580667759,4.76653232877376,-0.058086625903088,-0.025861685211171,0.957684680023844,-2.30981828030118,-0.511827170848846,0.051614198833704,0,0.074999999999818,-14.8401188102972,9.84039415118773,0.112436691613512,0.079489053495501,0.01604035713849,3.60954940060042,-4.16569755988481,-1.88714564852723,0.022465743473527,4.56907365093833,-0.194732718069179,0.150261680432675,0.637625013505557,-2.41415237816892,0.136699325250903,-2.63278237114546,-1.82194789555231,2.52083939705486
-14.8401188102972,9.84039415118773,0.112436691613512,0.079489053495501,0.01604035713849,3.60954940060042,-4.16569755988481,-1.88714564852723,0.022465743473527,4.56907365093833,-0.194732718069179,0.150261680432675,0.637625013505557,-2.41415237816892,-0.449217975139618,0.182103946805,0,0.039999999999964,-15.0024504448291,9.75906822243199,0.113129063661505,0.076930586103971,0.012743083137949,3.71534710177209,-3.9344668882683,-2.19490998333572,0.010203248080197,4.49581011199007,-0.292148877722149,0.320239905692632,-0.04735989369197,-2.81873470859179,-0.06396168478831,-1.83158847370817,-2.43540399132646,2.64494252929418
-15.0024504448291,9.75906822243199,0.113129063661505,0.076930586103971,0.012743083137949,3.71534710177209,-3.9344668882683,-2.19490998333572,0.010203248080197,4.49581011199007,-0.292148877722149,0.320239905692632,-0.04735989369197,-2.81873470859179,-0.34995573759079,0.424895644187927,0,0.045000000000073,-15.1738472175188,9.65422738697804,0.112658143855216,0.079458044828581,0.008647465974424,3.83342719402339,-3.65456774947788,-2.49383390065745,-0.008670586084498,4.40524225104602,-0.410991081644324,0.039313202590783,0.117626815774031,-2.52652508122528,0.056165749435673,-2.01261913208685,-2.64093786493295,2.62400205002462
-15.1738472175188,9.65422738697804,0.112658143855216,0.079458044828581,0.008647465974424,3.83342719402339,-3.65456774947788,-2.49383390065745,-0.008670586084498,4.40524225104602,-0.410991081644324,0.039313202590783,0.117626815774031,-2.52652508122528,-0.350818902254105,0.491450667381287,0,0.039999999999964,-15.3152461767136,9.54839364658216,0.11240971446074,0.073382754337691,0.003686614867348,3.91816885226356,-3.42642040783924,-2.79543516924513,-0.007196571316335,4.40328115023059,-0.407344705051727,-0.485245751388655,0.472463225675102,-1.88722815656926,-0.151882262272368,-0.049027520385581,0.091159414814989,2.11854145600637
-15.3152461767136,9.54839364658216,0.11240971446074,0.073382754337691,0.003686614867348,3.91816885226356,-3.42642040783924,-2.79543516924513,-0.007196571316335,4.40328115023059,-0.407344705051727,-0.485245751388655,0.472463225675102,-1.88722815656926,-0.350818902254105,0.491450667381287,0,0.039999999999964,-15.4489767811365,9.43055894258254,0.112046841336139,0.067169393522169,0.002584623678626,3.97288345524839,-3.23388633004136,-3.07825251229524,-0.006309239255816,4.45360809072594,-0.31469715489778,0.170560149057793,-0.106971121868715,-1.17339713465993,-0.155334020388214,1.25817351238483,2.31618875385079,1.3678650746219
-15.4489767811365,9.43055894258254,0.112046841336139,0.067169393522169,0.002584623678626,3.97288345524839,-3.23388633004136,-3.07825251229524,-0.006309239255816,4.45360809072594,-0.31469715489778,0.170560149057793,-0.106971121868715,-1.17339713465993,-0.364228546619415,0.490556687116623,0,0.039999999999964,-15.5744636905244,9.30140363143586,0.111825826393828,0.063052804471921,-0.000434965304259,4.00007594877235,-3.04004418365677,-3.36312921808115,-0.001268730261221,4.53232227994797,-0.102769289108157,-0.371880332365359,0.408939839594934,-0.346592466833193,-0.102914726256278,1.9678547305524,5.2981966447454,0.67981233809968
