x_pos,y_pos,z_pos,roll,pitch,yaw,u_x,u_y,u_z,comp_u_x,comp_u_y,roll_mder,pitch_mder,yaw_mder,steer,throttle,brake,time_step,act_x_pos,act_y_pos,act_z_pos,act_roll,act_pitch,act_yaw,act_u_x,act_u_y,act_u_z,act_comp_u_x,act_comp_u_y,act_roll_mder,act_pitch_mder,act_yaw_mder,accel_roll,accel_x,accel_y,accel_yaw
-0.015233043036387173,0.05427525589349093,0.1091073625178263,-2.596754612858766e-06,-0.019926747720758906,2.3557763216931455,-0.30763185027001516,0.30359480224007696,0.00043959829603567105,0.43220127932950214,0.0030353572583957378,0.0585871049107644,-0.06438459866412946,-0.00827008708499974,0.0,1.0,0.0,0.03999999999999915,-0.030866941854226226,0.06960259437188207,0.10928633771889631,2.2223345490970397e-05,-0.021289157919104625,2.3566005517376882,-0.46941425609550036,0.4576632929573364,0.006905192174426363,0.6555461416168574,0.008042994311563856,-0.008710851812282115,-0.006365843241071045,-0.022966607741510412,0.0006205025025957422,5.583621557184001,0.12519092632920562,-0.36741301641277463
-0.030866941854226226,0.06960259437188207,0.10928633771889631,2.2223345490970397e-05,-0.021289157919104625,2.3566005517376882,-0.46941425609550036,0.4576632929573364,0.006905192174426363,0.6555461416168574,0.008042994311563856,-0.008710851812282115,-0.006365843241071045,-0.022966607741510412,0.0,1.0,0.0,0.020000000000003126,-0.04114104268397334,0.07956606422669955,0.1094302312744189,6.380255903815835e-06,-0.021592826888866015,2.3574723318774016,-0.5525614089031553,0.534397923425254,0.007207242904855431,0.768612099236538,0.011861369122747878,0.0518194086906167,-0.055480338178115596,-0.0477176571964419,-0.0007921544793576043,5.653297880983143,0.19091874055917127,-1.237552472746381
-0.04114104268397334,0.07956606422669955,0.1094302312744189,6.380255903815835e-06,-0.021592826888866015,2.3574723318774016,-0.5525614089031553,0.534397923425254,0.007207242904855431,0.768612099236538,0.011861369122747878,0.0518194086906167,-0.055480338178115596,-0.0477176571964419,0.0,1.0,0.0,0.03499999999999659,-0.0630560290627038,0.10064334392440545,0.10964101802760365,6.413785728023705e-05,-0.02152896893507571,2.359751871999771,-0.699400186853994,0.6620474052865952,0.004246120431227712,0.9627766920536545,0.022987593530804096,0.06099740220055272,-0.02244724059900579,-0.12292182961612806,0.001650217182183624,5.547559794775298,0.31789212594449434,-2.148690640562671
-0.0630560290627038,0.10064334392440545,0.10964101802760365,6.413785728023705e-05,-0.02152896893507571,2.359751871999771,-0.699400186853994,0.6620474052865952,0.004246120431227712,0.9627766920536545,0.022987593530804096,0.06099740220055272,-0.02244724059900579,-0.12292182961612806,0.0,1.0,0.0,0.020000000000003126,-0.07789290563707141,0.11468270621266063,0.10970702008810654,-6.70744948498567e-06,-0.021589174622192845,2.3618185498819018,-0.7794901758163651,0.7387219988473275,0.002038986981416687,1.0736832724680685,0.02278938782587847,0.07170463460288592,-0.06730036078073494,-0.1001376125653461,-0.003542265338260582,5.545329020719835,-0.009910285246279687,1.1392108525389197
-0.07789290563707141,0.11468270621266063,0.10970702008810654,-6.70744948498567e-06,-0.021589174622192845,2.3618185498819018,-0.7794901758163651,0.7387219988473275,0.002038986981416687,1.0736832724680685,0.02278938782587847,0.07170463460288592,-0.06730036078073494,-0.1001376125653461,0.0,1.0,0.0,0.01999999999999602,-0.09436562290266437,0.13022063946927084,0.10973115529843075,-2.4552693388273606e-06,-0.021572793347632912,2.3641864186177752,-0.8633997789462615,0.8113732822498275,0.0001090398877078326,1.1844995756040082,0.02732282612096304,0.06979025950572575,-0.06770472891650679,-0.11835910933940089,0.00021260900730795778,5.540815156798088,0.22667191475427353,-0.9110748387029204
-0.09436562290266437,0.13022063946927084,0.10973115529843075,-2.4552693388273606e-06,-0.021572793347632912,2.3641864186177752,-0.8633997789462615,0.8113732822498275,0.0001090398877078326,1.1844995756040082,0.02732282612096304,0.06979025950572575,-0.06770472891650679,-0.11835910933940089,0.0,1.0,0.0,0.020000000000003126,-0.1125363633191867,0.1471778122148861,0.10972121497111079,-1.5871720790930012e-05,-0.02147578070422933,2.3668777647278723,-0.9483836404968063,0.8824259614733042,-0.0011534996862429536,1.295002257773662,0.03280639274865449,-0.07938812341437768,0.05024068402576012,-0.12401623884603084,-0.0006708225726050277,5.525134108481824,0.2741783313845296,-0.28285647533145364
-0.1125363633191867,0.1471778122148861,0.10972121497111079,-1.5871720790930012e-05,-0.02147578070422933,2.3668777647278723,-0.9483836404968063,0.8824259614733042,-0.0011534996862429536,1.295002257773662,0.03280639274865449,-0.07938812341437768,0.05024068402576012,-0.12401623884603084,0.0,1.0,0.0,0.01999999999999602,-0.13235472892055888,0.16561156651437056,0.10968939277074022,0.00012470660692955195,-0.021443399050643394,2.369970472998108,-1.030789183150823,0.9556269620087074,-0.001665340599627009,1.4052071858057233,0.033793425080805184,-0.01912708988331946,0.08709809855522833,-0.22854034982975363,0.007028916386025497,5.5102464016041655,0.04935161660754455,-5.2262055491871795
-0.13235472892055888,0.16561156651437056,0.10968939277074022,0.00012470660692955195,-0.021443399050643394,2.369970472998108,-1.030789183150823,0.9556269620087074,-0.001665340599627009,1.4052071858057233,0.033793425080805184,-0.01912708988331946,0.08709809855522833,-0.22854034982975363,0.0,1.0,0.0,0.025000000000005684,-0.15958485514735798,0.1905630534678326,0.10964082297117744,5.5371724247696675e-05,-0.021488168972401384,2.374716476517922,-1.1383268701707177,1.0423974492721597,-0.002096919357560699,1.5429967764746002,0.03926134728659969,-0.04941613973108508,-0.010317759468226282,-0.13322323450995574,-0.002773395307273581,5.511583626753821,0.21871688823173052,3.8126846127910485
-0.15958485514735798,0.1905630534678326,0.10964082297117744,5.5371724247696675e-05,-0.021488168972401384,2.374716476517922,-1.1383268701707177,1.0423974492721597,-0.002096919357560699,1.5429967764746002,0.03926134728659969,-0.04941613973108508,-0.010317759468226282,-0.13322323450995574,0.0,1.0,0.0,0.01999999999999602,-0.18325093808248027,0.2121655085447818,0.10960681888955762,0.00011588286625406914,-0.021422433785444846,2.378739677561134,-1.2221083983177874,1.114140702564968,-0.0013951649089248008,1.6532788209839326,0.039084299108543386,-0.12225475499674261,0.14436707359244946,-0.2192174846731918,0.003025557100319225,5.5141022254677186,-0.008852408902817006,-4.299712508162658
-0.18325093808248027,0.2121655085447818,0.10960681888955762,0.00011588286625406914,-0.021422433785444846,2.378739677561134,-1.2221083983177874,1.114140702564968,-0.0013951649089248008,1.6532788209839326,0.039084299108543386,-0.12225475499674261,0.14436707359244946,-0.2192174846731918,0.0,1.0,0.0,0.02499999999999858,-0.21524052360013002,0.24116715734280889,0.10958016282775765,7.46708131589135e-05,-0.021677106084445494,2.3830543901805754,-1.325676809868071,1.2084064105802361,-0.0003450490103933182,1.793448120441345,0.03476919094259345,0.06705466500651679,-0.016377764705169433,-0.17775194518046208,-0.0016484821238063195,5.606771978296815,-0.1726043266380071,1.658621579709283
-0.21524052360013002,0.24116715734280889,0.10958016282775765,7.46708131589135e-05,-0.021677106084445494,2.3830543901805754,-1.325676809868071,1.2084064105802361,-0.0003450490103933182,1.793448120441345,0.03476919094259345,0.06705466500651679,-0.016377764705169433,-0.17775194518046208,0.01141608040779829,1.0,0.0,0.020000000000003126,-0.2426729862570216,0.26604744870669017,0.10957494578074958,-3.060360051619454e-06,-0.021672667285869432,2.3862055712625145,-1.4122006123325468,1.278022490850811,0.0004018487151227698,1.9042653789507789,0.037754776153195335,0.05215329134825826,-0.05517718559383874,-0.1569383085420978,-0.0038865586605260397,5.540862925470824,0.14927926053007076,1.040681831918051
-0.2426729862570216,0.26604744870669017,0.10957494578074958,-3.060360051619454e-06,-0.021672667285869432,2.3862055712625145,-1.4122006123325468,1.278022490850811,0.0004018487151227698,1.9042653789507789,0.037754776153195335,0.05215329134825826,-0.05517718559383874,-0.1569383085420978,0.19699327647686005,0.7653465867042542,0.0,0.03499999999999659,-0.29473887376970254,0.31305211987738923,0.10959456264010037,0.00020264347805208234,-0.02064396240697822,2.391846602867463,-1.5610285149641632,1.3954853310373732,0.001057321460010037,2.093414930490225,0.04246483807003032,-0.09788082193572196,0.02785462984752197,-0.1406519131426927,0.005877252517249195,5.404272901127559,0.13457319762386982,0.4653255828401911
-0.29473887376970254,0.31305211987738923,0.10959456264010037,0.00020264347805208234,-0.02064396240697822,2.391846602867463,-1.5610285149641632,1.3954853310373732,0.001057321460010037,2.093414930490225,0.04246483807003032,-0.09788082193572196,0.02785462984752197,-0.1406519131426927,0.34921589493751526,0.2451755255460739,0.0,0.025000000000005684,-0.33498083356089303,0.34878970193675474,0.10963756011857959,-0.00010356571033087335,-0.01737220666506527,2.396437524139785,-1.6414323296001154,1.4671479696077536,0.0020399691817974477,2.201276656163479,0.034703608030714816,-0.014625956316296937,0.09610915451367086,-0.19892758221045975,-0.012248367535315444,4.314469026929184,-0.3104492015725495,-2.331026762710152
-0.33498083356089303,0.34878970193675474,0.10963756011857959,-0.00010356571033087335,-0.01737220666506527,2.396437524139785,-1.6414323296001154,1.4671479696077536,0.0020399691817974477,2.201276656163479,0.034703608030714816,-0.014625956316296937,0.09610915451367086,-0.19892758221045975,0.3875027596950531,0.07926581799983978,0.0,0.03499999999999659,-0.3932921042935007,0.40174141139265307,0.10973344057417703,-0.00030769668737274704,-0.006593717341689351,2.398502952794204,-1.6724190712706875,1.5429713655244348,0.002751078909638825,2.275461264992439,-0.004713416728397535,-0.4964518182120678,0.14452864559109885,0.004323720710020821,-0.005832313629768388,2.1195602522562047,-1.1262007074033198,5.807180083442868
-0.3932921042935007,0.40174141139265307,0.10973344057417703,-0.00030769668737274704,-0.006593717341689351,2.398502952794204,-1.6724190712706875,1.5429713655244348,0.002751078909638825,2.275461264992439,-0.004713416728397535,-0.4964518182120678,0.14452864559109885,0.004323720710020821,0.5082820653915405,0.02309942990541458,0.0,0.035000000000003695,-0.4515330693500097,0.4557032758396089,0.10986104410433092,-0.0007047452526355147,0.00567960386883218,2.396446925228757,-1.6350510025024398,1.5448313990256164,0.002750388614305377,2.2492622729100495,-0.026740603269092222,-0.18554659431447657,0.1395788383236602,0.1455698289504586,-0.011344244721792166,-0.7485426309253357,-0.6293481868769246,4.035603092583511
-0.4515330693500097,0.4557032758396089,0.10986104410433092,-0.0007047452526355147,0.00567960386883218,2.396446925228757,-1.6350510025024398,1.5448313990256164,0.002750388614305377,2.2492622729100495,-0.026740603269092222,-0.18554659431447657,0.1395788383236602,0.1455698289504586,0.5789678692817688,0.017057381570339203,0.0,0.02499999999999858,-0.4916670913404886,0.4945053114281689,0.10990123018013401,0.0003184461330248267,0.01012854067060103,2.39263017862403,-1.5881540530056881,1.5492937265653755,-0.0015780974371564956,2.218039134092739,-0.053354914359928785,-0.14781338183917073,0.1932412119191237,0.20658815579308268,0.040927655426415986,-1.2489255526925014,-1.064572443633523,2.4407330737051014
-0.4916670913404886,0.4945053114281689,0.10990123018013401,0.0003184461330248267,0.01012854067060103,2.39263017862403,-1.5881540530056881,1.5492937265653755,-0.0015780974371564956,2.218039134092739,-0.053354914359928785,-0.14781338183917073,0.1932412119191237,0.20658815579308268,0.6162682771682739,0.013573954813182354,0.0,0.03999999999999915,-0.5531790744622409,0.5565269738380462,0.1098749615769542,-0.007174703277307483,0.013810532832916075,2.3730386257280873,-1.482946947068585,1.562209298450652,0.0021998145217758842,2.152001155073726,-0.09230692578058797,-0.1408736287362781,-0.1621735766902456,0.7320768052195594,-0.18732873525831173,-1.6509494754753513,-0.9738002855165003,13.1372162356622
-0.5531790744622409,0.5565269738380462,0.1098749615769542,-0.007174703277307483,0.013810532832916075,2.3730386257280873,-1.482946947068585,1.562209298450652,0.0021998145217758842,2.152001155073726,-0.09230692578058797,-0.1408736287362781,-0.1621735766902456,0.7320768052195594,0.6408063769340515,0.008425883017480373,0.0,0.07000000000000028,-0.6478280500489779,0.6692361962731487,0.11020786805450053,-0.010221994555817484,0.014720360202535782,2.3155110680970417,-1.2354918336600558,1.6450995405764313,-0.0003006520534210508,2.0469804098277007,-0.2065521029355305,0.04238662916520718,0.11323677648469088,0.8211498812144081,-0.0435327325501427,-1.5002963606575004,-1.6320739593563154,1.2724725142121192
-0.6478280500489779,0.6692361962731487,0.11020786805450053,-0.010221994555817484,0.014720360202535782,2.3155110680970417,-1.2354918336600558,1.6450995405764313,-0.0003006520534210508,2.0469804098277007,-0.2065521029355305,0.04238662916520718,0.11323677648469088,0.8211498812144081,0.6673482656478882,0.015331081114709377,0.0,0.02499999999999858,-0.6779029437752468,0.7104364006456783,0.11010778417429021,-0.004328862659289797,0.014340503804158985,2.295678429041377,-1.1719250177773761,1.6504788119595553,-0.007460127938185242,2.01255305802973,-0.21706852520600783,0.15214520882064567,0.08683768242246656,0.8118936559340272,0.23572527586112085,-1.377094071918908,-0.4206568908191172,-0.37024901121525894
-0.6779029437752468,0.7104364006456783,0.11010778417429021,-0.004328862659289797,0.014340503804158985,2.295678429041377,-1.1719250177773761,1.6504788119595553,-0.007460127938185242,2.01255305802973,-0.21706852520600783,0.15214520882064567,0.08683768242246656,0.8118936559340272,0.6663618087768555,0.006699583493173122,0.0,0.045000000000001705,-0.7285145535746658,0.7844872222455983,0.10966853066684845,-0.0017178715083664467,0.01418724313864573,2.255097602764027,-1.0721167296331882,1.6457435663460278,-0.00801331582143246,1.9529414035174197,-0.20958540635291145,-0.04909870540320824,-0.0842975765661536,0.9983579708684486,0.05802202557607226,-1.3247034336068433,0.16629153006880218,4.143651442986985
-0.7285145535746658,0.7844872222455983,0.10966853066684845,-0.0017178715083664467,0.01418724313864573,2.255097602764027,-1.0721167296331882,1.6457435663460278,-0.00801331582143246,1.9529414035174197,-0.20958540635291145,-0.04909870540320824,-0.0842975765661536,0.9983579708684486,0.6663618087768555,0.016194231808185577,0.0,0.015000000000000568,-0.7443198902904653,0.8091932473871992,0.10956242328647628,-0.0017207406943725203,0.013709757743777605,2.240757965081645,-1.0352672833354741,1.6503583890385303,-0.005655783154566146,1.936481321955725,-0.2133102199409902,0.085728237880888,-0.006519415628204763,0.9004933012961006,-0.00019127906707156408,-1.0973387707796018,-0.24832090587190697,-6.52431130482295
-0.7443198902904653,0.8091932473871992,0.10956242328647628,-0.0017207406943725203,0.013709757743777605,2.240757965081645,-1.0352672833354741,1.6503583890385303,-0.005655783154566146,1.936481321955725,-0.2133102199409902,0.085728237880888,-0.006519415628204763,0.9004933012961006,0.6673482656478882,0.021835532039403915,0.0,0.03499999999999659,-0.7793866687146913,0.8668281775508428,0.1094116902997925,8.858920438905555e-06,0.013303351463158196,2.2096251022311666,-0.9852383893457317,1.634433966093272,-0.003251490149691158,1.8995687608314222,-0.18359628600091515,-0.0379312860321647,0.014386458723852816,0.8263958020445962,0.04941713185175984,-1.054644603551613,0.8489695411450839,-2.1170714071860472
-0.7793866687146913,0.8668281775508428,0.1094116902997925,8.858920438905555e-06,0.013303351463158196,2.2096251022311666,-0.9852383893457317,1.634433966093272,-0.003251490149691158,1.8995687608314222,-0.18359628600091515,-0.0379312860321647,0.014386458723852816,0.8263958020445962,0.6663618087768555,0.022267106920480728,0.0,0.020000000000003126,-0.798611697448468,0.8995119432282114,0.10939413252372229,-1.4411754578955396e-05,0.013207321671923272,2.193039554651574,-0.9369821746944563,1.6366335604021824,0.000133298550537949,1.8760131471851158,-0.19256084315995758,0.06570702110075442,0.004884822576324995,0.8138082107493935,-0.0011635337508928655,-1.1777806823151373,-0.44822785795205144,-0.6293795647600369
-0.798611697448468,0.8995119432282114,0.10939413252372229,-1.4411754578955396e-05,0.013207321671923272,2.193039554651574,-0.9369821746944563,1.6366335604021824,0.000133298550537949,1.8760131471851158,-0.19256084315995758,0.06570702110075442,0.004884822576324995,0.8138082107493935,0.6673482656478882,0.02439415454864502,0.0,0.01999999999999602,-0.8171464222328151,0.9320760365078301,0.10941270722136207,-0.00012170398123581154,0.013078159423713565,2.176643604629891,-0.9094299141257759,1.6245522970781068,0.0016920596724086905,1.8532971526405881,-0.17754604659878814,-0.02062022244890655,0.01843308308259434,0.7862626189333202,-0.005364611332843874,-1.1357997272266092,0.7507398280586214,-1.377279590803939
-0.8171464222328151,0.9320760365078301,0.10941270722136207,-0.00012170398123581154,0.013078159423713565,2.176643604629891,-0.9094299141257759,1.6245522970781068,0.0016920596724086905,1.8532971526405881,-0.17754604659878814,-0.02062022244890655,0.01843308308259434,0.7862626189333202,0.6683038473129272,0.024825729429721832,0.0,0.020000000000003126,-0.834879327450869,0.9645518862111756,0.10945821356004368,-3.769832989998845e-05,0.01318994758256437,2.160636123621379,-0.8624947212448125,1.6237847786037805,0.00206210226112186,1.829157163057791,-0.18643557663404597,0.027205226803316537,0.03672181959118961,0.78628505798804,0.004200282566790498,-1.2069994791396699,-0.44447650176282205,0.0011219527359938497
-0.834879327450869,0.9645518862111756,0.10945821356004368,-3.769832989998845e-05,0.01318994758256437,2.160636123621379,-0.8624947212448125,1.6237847786037805,0.00206210226112186,1.829157163057791,-0.18643557663404597,0.027205226803316537,0.03672181959118961,0.78628505798804,0.6693211793899536,0.023962579667568207,0.0,0.01999999999999602,-0.8517961513694683,0.9969236825144759,0.10951730020509928,-9.390004570096846e-05,0.013180145916141505,2.1447534259622083,-0.8241803438334754,1.6183593854252225,0.003012692803477709,1.8065282612592786,-0.1865904092575439,0.04917706591993623,-0.01663223212010928,0.7927195563810203,-0.0028100857900495596,-1.1314450899258452,-0.0077416311748972205,0.3217249196490775
-0.8517961513694683,0.9969236825144759,0.10951730020509928,-9.390004570096846e-05,0.013180145916141505,2.1447534259622083,-0.8241803438334754,1.6183593854252225,0.003012692803477709,1.8065282612592786,-0.1865904092575439,0.04917706591993623,-0.01663223212010928,0.7927195563810203,0.6673482656478882,0.025133997201919556,0.0,0.05000000000000426,-0.8905831237022435,1.0774038185644503,0.10961793118423421,-6.346409097698594e-05,0.013343703067588168,2.104384459056365,-0.7289623338131608,1.6009488128679072,0.0008840547275903478,1.7491662324368153,-0.18665657460772234,0.05358704049427907,-0.02813257220815165,0.7939432204059298,0.0006087190944795985,-1.1472405764491664,-0.0013233070035688615,0.024473280498187446
-0.8905831237022435,1.0774038185644503,0.10961793118423421,-6.346409097698594e-05,0.013343703067588168,2.104384459056365,-0.7289623338131608,1.6009488128679072,0.0008840547275903478,1.7491662324368153,-0.18665657460772234,0.05358704049427907,-0.02813257220815165,0.7939432204059298,0.6712632179260254,0.11644291132688522,0.0,0.01999999999999602,-0.9049884077974815,1.10931018277591,0.1096176767143954,-0.0001768571853547663,0.012436365411220231,2.088690165555534,-0.7038034411529193,1.5962821837421424,-0.0009924659489355565,1.7353705336471448,-0.17873221550827867,0.04299605493736473,-0.022195358128853565,0.7637931794870287,-0.005669654718890146,-0.6897849394836659,0.3962179549722622,-1.5075020459453528
-0.9049884077974815,1.10931018277591,0.1096176767143954,-0.0001768571853547663,0.012436365411220231,2.088690165555534,-0.7038034411529193,1.5962821837421424,-0.0009924659489355565,1.7353705336471448,-0.17873221550827867,0.04299605493736473,-0.022195358128853565,0.7637931794870287,0.6683038473129272,0.6581926941871643,0.0,0.025000000000005684,-0.922266103441193,1.1494103336328167,0.10955967034939704,-0.0003213395961428347,0.007481117813539649,2.06907114654433,-0.6805170221101979,1.621644497797716,-0.0034117012724879867,1.7496925293973948,-0.1772296453483002,0.13751982546577893,-0.2532011985930549,0.7820635370040259,-0.0057792964315214225,0.5728798300098722,0.06010280639912457,0.7308143006797189
-0.922266103441193,1.1494103336328167,0.10955967034939704,-0.0003213395961428347,0.007481117813539649,2.06907114654433,-0.6805170221101979,1.621644497797716,-0.0034117012724879867,1.7496925293973948,-0.1772296453483002,0.13751982546577893,-0.2532011985930549,0.7820635370040259,0.6693211793899536,0.7670420408248901,0.0,0.02999999999999403,-0.9426440503844002,1.199481154591233,0.10938178209745028,-0.001926545773226467,-0.0031989816068326744,2.043902259725576,-0.6781879316395227,1.724112685206093,-0.005682630591690404,1.8437501223333768,-0.1819035686997832,0.11559678958758468,-0.3378467660075726,0.8495899043568192,-0.053506872569465055,3.135253097866688,-0.1557974450494636,2.250878911760227
-0.9426440503844002,1.199481154591233,0.10938178209745028,-0.001926545773226467,-0.0031989816068326744,2.043902259725576,-0.6781879316395227,1.724112685206093,-0.005682630591690404,1.8437501223333768,-0.1819035686997832,0.11559678958758468,-0.3378467660075726,0.8495899043568192,0.6678106188774109,0.7696623206138611,0.0,0.035000000000003695,-0.9663818588655317,1.262511786433216,0.10926068051475588,-0.00534192211040157,-0.009510498806092785,2.0118483532943925,-0.6696596243661908,1.8769575197973005,0.0006658905222430775,1.98321013579088,-0.19568112051555053,-0.1148518323758862,-0.13012416960837708,1.0079550954808187,-0.09758218106213548,3.984571813071101,-0.3936443375933111,4.524719746399508
-0.9663818588655317,1.262511786433216,0.10926068051475588,-0.00534192211040157,-0.009510498806092785,2.0118483532943925,-0.6696596243661908,1.8769575197973005,0.0006658905222430775,1.98321013579088,-0.19568112051555053,-0.1148518323758862,-0.13012416960837708,1.0079550954808187,0.6693211793899536,0.7886824607849121,0.0,0.030000000000001137,-0.9862162401728902,1.320925884969158,0.10939947512800088,-0.009261379943698096,-0.0110041731353764,1.981489078567194,-0.6504848171505326,2.0137400828482166,0.007183986541130664,2.105988980523564,-0.20758138771629642,-0.0993512658280169,0.068928303863825,0.9801973513670572,-0.13064859444321258,4.092628157755981,-0.3966755733581811,-0.9252581371253492
-0.9862162401728902,1.320925884969158,0.10939947512800088,-0.009261379943698096,-0.0110041731353764,1.981489078567194,-0.6504848171505326,2.0137400828482166,0.007183986541130664,2.105988980523564,-0.20758138771629642,-0.0993512658280169,0.068928303863825,0.9801973513670572,0.6732361316680908,0.8405022621154785,0.0,0.03499999999999659,-1.0085374913305287,1.3941028085089016,0.10970062863699837,-0.009281469561604612,-0.012176031817974265,1.9472815346346783,-0.6228360370408037,2.1675036902575076,0.008321861607613092,2.2446856143863787,-0.21767744229352737,0.18574050393729108,-0.34942112919326496,0.9337742774427931,-0.0005739890830433929,3.962760967509375,-0.2884587022066267,-1.3263735406933905
-1.0085374913305287,1.3941028085089016,0.10970062863699837,-0.009281469561604612,-0.012176031817974265,1.9472815346346783,-0.6228360370408037,2.1675036902575076,0.008321861607613092,2.2446856143863787,-0.21767744229352737,0.18574050393729108,-0.34942112919326496,0.9337742774427931,0.6732361316680908,0.8508908748626709,0.0,0.02499999999999858,-1.023985860981277,1.449819465812946,0.10985326243200247,-0.008715970598273849,-0.013227472018611738,1.923144263497561,-0.6091315227922557,2.285384642242209,0.0046445717685212155,2.355194866541847,-0.21698229344970132,0.09610603940639174,0.05920656303074728,0.9626693809813893,0.022619958533231826,4.42037008621899,0.027805953753043317,1.155804141543916
-1.023985860981277,1.449819465812946,0.10985326243200247,-0.008715970598273849,-0.013227472018611738,1.923144263497561,-0.6091315227922557,2.285384642242209,0.0046445717685212155,2.355194866541847,-0.21698229344970132,0.09610603940639174,0.05920656303074728,0.9626693809813893,0.6703076362609863,0.8456811308860779,0.0,0.030000000000001137,-1.041860509728262,1.5205636843064883,0.10993746622156245,-0.010519852368732428,-0.014165584699292615,1.8913306504222835,-0.5723179216403145,2.4308251742437683,0.0024342622561143376,2.4873387807582903,-0.22272094850686242,0.09369014963299037,-0.23675559759003564,0.9835325732521163,-0.06012939234861703,4.404797140547937,-0.19128850190536242,0.6954397423575394
-1.041860509728262,1.5205636843064883,0.10993746622156245,-0.010519852368732428,-0.014165584699292615,1.8913306504222835,-0.5723179216403145,2.4308251742437683,0.0024342622561143376,2.4873387807582903,-0.22272094850686242,0.09369014963299037,-0.23675559759003564,0.9835325732521163,0.6703076362609863,0.867290735244751,0.0,0.030000000000001137,-1.0583674094322069,1.5957407281384637,0.10995828502591423,-0.010257139320666898,-0.014618855289072528,1.8604632706358537,-0.5241615672083318,2.5773127489567194,-0.0003134553938375431,2.61965735097919,-0.2338412237691011,0.08475385077318028,-0.09691389284033389,0.9986771629968926,0.008757101602184009,4.410619007363151,-0.3706758420746089,0.5048196581591903
-1.0583674094322069,1.5957407281384637,0.10995828502591423,-0.010257139320666898,-0.014618855289072528,1.8604632706358537,-0.5241615672083318,2.5773127489567194,-0.0003134553938375431,2.61965735097919,-0.2338412237691011,0.08475385077318028,-0.09691389284033389,0.9986771629968926,0.6654061675071716,0.8914897441864014,0.0,0.035000000000003695,-1.076186204865376,1.6889720520907248,0.10991102138667833,-0.009594883380407858,-0.01492299785165151,1.8250129933429515,-0.4888578276528308,2.7448943292474146,-0.0015710310511550807,2.779616596867542,-0.2171599152941585,0.0534484153387456,0.10823195638598844,1.00744630529761,0.018921598293113417,4.570264168238149,0.476608813569738,0.25054692287761204
-1.076186204865376,1.6889720520907248,0.10991102138667833,-0.009594883380407858,-0.01492299785165151,1.8250129933429515,-0.4888578276528308,2.7448943292474146,-0.0015710310511550807,2.779616596867542,-0.2171599152941585,0.0534484153387456,0.10823195638598844,1.00744630529761,0.5887708067893982,0.8863108158111572,0.0,0.03499999999999659,-1.0923549202463478,1.7881129267118592,0.10989757324114538,-0.014931836007968968,-0.015638955165549924,1.7860735069178895,-0.41285473617843904,2.9214403139617287,0.003170552811394299,2.9421986461234173,-0.22074797388719047,-0.21151034365533222,-0.13748895385507293,1.1937951988976054,-0.15248436078747513,4.645201407311178,-0.10251595980092319,5.324254102857534
-1.0923549202463478,1.7881129267118592,0.10989757324114538,-0.014931836007968968,-0.015638955165549924,1.7860735069178895,-0.41285473617843904,2.9214403139617287,0.003170552811394299,2.9421986461234173,-0.22074797388719047,-0.21151034365533222,-0.13748895385507293,1.1937951988976054,0.16656725108623505,0.8906266093254089,0.0,0.030000000000001137,-1.103448634075491,1.8781327055659554,0.11006679321451593,-0.018199123410293318,-0.016173929361843892,1.7512807201850418,-0.32624862272909383,3.07394443347186,0.007424990943212556,3.0825775376681297,-0.23084251811387974,0.14827749636718204,0.1684608616012032,1.0613502546502127,-0.1089095800774742,4.679296384823569,-0.33648480755629595,-4.414831474912924
-1.103448634075491,1.8781327055659554,0.11006679321451593,-0.018199123410293318,-0.016173929361843892,1.7512807201850418,-0.32624862272909383,3.07394443347186,0.007424990943212556,3.0825775376681297,-0.23084251811387974,0.14827749636718204,0.1684608616012032,1.0613502546502127,0.041872937232255936,0.8923528790473938,0.0,0.030000000000001137,-1.1121800142846983,1.9726927678848776,0.11023546057128983,-0.014944914142909178,-0.017099885570951358,1.7214924607441078,-0.2546093332443731,3.2276301985848512,0.00342055910130247,3.2292744363783954,-0.2328287481069058,0.2890340894944657,0.11476356463412882,0.8756284643005873,0.10847364224613389,4.889896623675338,-0.06620766643419937,-6.19072634498728
-1.1121800142846983,1.9726927678848776,0.11023546057128983,-0.014944914142909178,-0.017099885570951358,1.7214924607441078,-0.2546093332443731,3.2276301985848512,0.00342055910130247,3.2292744363783954,-0.2328287481069058,0.2890340894944657,0.11476356463412882,0.8756284643005873,-0.019893445074558258,0.8923528790473938,0.0,0.030000000000001137,-1.1192042799038582,2.0718642855477354,0.1101448542863743,-0.0010283429935756567,-0.017703244233687705,1.701753274628353,-0.22210966141572988,3.3761509674835777,-0.009540602986700883,3.3762460281771203,-0.2206599514019953,0.5586791724393699,-0.09970999715326984,0.5238006565277599,0.46388570497776643,4.8990530599573106,0.40562655683033466,-11.727593592427136
-1.1192042799038582,2.0718642855477354,0.1101448542863743,-0.0010283429935756567,-0.017703244233687705,1.701753274628353,-0.22210966141572988,3.3761509674835777,-0.009540602986700883,3.3762460281771203,-0.2206599514019953,0.5586791724393699,-0.09970999715326984,0.5238006565277599,-0.18805351853370667,0.8897942900657654,0.0,0.03499999999999659,-1.129405249545413,2.1926848439096083,0.10987280204428995,0.0062817483484870415,-0.017998642166976473,1.6877895853117462,-0.3530871874486064,3.52625567316821,-0.0051655408736407254,3.543365160958756,-0.060934149662388415,-0.17257935930205445,0.18801143050317745,0.3151107473246698,0.20885975263038314,4.774832365190063,4.563594335417784,-5.962568834374583
-1.129405249545413,2.1926848439096083,0.10987280204428995,0.0062817483484870415,-0.017998642166976473,1.6877895853117462,-0.3530871874486064,3.52625567316821,-0.0051655408736407254,3.543365160958756,-0.060934149662388415,-0.17257935930205445,0.18801143050317745,0.3151107473246698,-0.5493741631507874,0.9053001403808594,0.0,0.030000000000001137,-1.1414426460750757,2.300422059048904,0.10976922501081812,0.008555050879774557,-0.018108122669807474,1.6874352611189702,-0.4435315497007148,3.6544060553861115,0.00040603862554074166,3.681191609369768,0.015237727134146173,0.3448555409974356,-0.3906186958923486,-0.3094121266785779,0.0757767510429143,4.594214947033556,2.53906255988439,-20.817429133440804
-1.1414426460750757,2.300422059048904,0.10976922501081812,0.008555050879774557,-0.018108122669807474,1.6874352611189702,-0.4435315497007148,3.6544060553861115,0.00040603862554074166,3.681191609369768,0.015237727134146173,0.3448555409974356,-0.3906186958923486,-0.3094121266785779,-1.0,0.9225939512252808,0.0,0.03499999999999659,-1.159581597411508,2.430932142522868,0.10994313222301252,0.01724518797862404,-0.01762748634264414,1.7052283821139584,-0.6056376709542494,3.797031913908633,0.00856539440509485,3.8439457261684833,0.09126663130955859,0.42707134811641617,-0.13258953709473192,-0.7377175987026809,0.24828963139572377,4.650117622820888,2.172254405011995,-12.23729920068985
-1.159581597411508,2.430932142522868,0.10994313222301252,0.01724518797862404,-0.01762748634264414,1.7052283821139584,-0.6056376709542494,3.797031913908633,0.00856539440509485,3.8439457261684833,0.09126663130955859,0.42707134811641617,-0.13258953709473192,-0.7377175987026809,-1.0,0.9200044870376587,0.0,0.045000000000001705,-1.192209822313675,2.6054735295825338,0.11058508083903845,0.03398821191491336,-0.015418956684384965,1.7472934169455026,-0.8563590136527295,3.946874255079013,0.02091881237818842,4.035920065599784,0.15005455594157802,0.7600303702949053,-0.2078130485884624,-1.2496529230816202,0.3720671985841929,4.266096431806526,1.3063983251559377,-11.376340541753775
-1.192209822313675,2.6054735295825338,0.11058508083903845,0.03398821191491336,-0.015418956684384965,1.7472934169455026,-0.8563590136527295,3.946874255079013,0.02091881237818842,4.035920065599784,0.15005455594157802,0.7600303702949053,-0.2078130485884624,-1.2496529230816202,-1.0,0.8742267489433289,0.0,0.060000000000002274,-1.2562294582310596,2.847427762112522,0.11127151277077604,0.039712071264204674,-0.01174016074054227,1.8168060420758672,-1.264377952595553,4.103589392590248,0.004275198753584529,4.287959435199894,0.22693918143222613,-0.26685927609430904,-0.06351463219663052,-1.1985184218309364,0.09539765582151832,4.2006561600016665,1.2814104248440867,0.8522416875113654
-1.2562294582310596,2.847427762112522,0.11127151277077604,0.039712071264204674,-0.01174016074054227,1.8168060420758672,-1.264377952595553,4.103589392590248,0.004275198753584529,4.287959435199894,0.22693918143222613,-0.26685927609430904,-0.06351463219663052,-1.1985184218309364,-1.0,0.6927803158760071,0.0,0.015000000000000568,-1.275946704628642,2.9092946735616363,0.11129885151442623,0.03989452013149009,-0.010848978232846024,1.8341987867791119,-1.361225738097857,4.135765645645601,0.0030665167168558993,4.347540244416624,0.23745906792597693,-0.3123789967253737,0.10761009800901608,-1.2301569607139373,0.01216325781902746,3.9720539477818813,0.7013257662500265,-2.109235925533316
-1.275946704628642,2.9092946735616363,0.11129885151442623,0.03989452013149009,-0.010848978232846024,1.8341987867791119,-1.361225738097857,4.135765645645601,0.0030665167168558993,4.347540244416624,0.23745906792597693,-0.3123789967253737,0.10761009800901608,-1.2301569607139373,-1.0,0.6901600360870361,0.0,0.03499999999999659,-1.327587579028572,3.0546893832103312,0.1114433084316929,0.04787911214655139,-0.007118343941760637,1.883865154106452,-1.5999938235471398,4.157281793341152,0.006754721207076743,4.447974128561207,0.24186421042599804,0.35156844935810294,0.5692751017523279,-1.6212391926882164,0.22813120043034504,2.869539546988368,0.12586121428632965,-11.173778056409061
-1.327587579028572,3.0546893832103312,0.1114433084316929,0.04787911214655139,-0.007118343941760637,1.883865154106452,-1.5999938235471398,4.157281793341152,0.006754721207076743,4.447974128561207,0.24186421042599804,0.35156844935810294,0.5692751017523279,-1.6212391926882164,-1.0,0.5830370187759399,0.0,0.03999999999999915,-1.397138218555301,3.221069853731215,0.11171275699745992,0.05103572554411583,-0.005836275571283449,1.948556620324328,-1.8913134162771639,4.1531155996386335,0.004011267248260605,4.5578834142785976,0.22612917634804064,0.09778201380212241,0.27364202243264085,-1.5685418462702778,0.07891533493911274,2.7477321429348143,-0.39337585194894337,1.3174336604484918
-1.397138218555301,3.221069853731215,0.11171275699745992,0.05103572554411583,-0.005836275571283449,1.948556620324328,-1.8913134162771639,4.1531155996386335,0.004011267248260605,4.5578834142785976,0.22612917634804064,0.09778201380212241,0.27364202243264085,-1.5685418462702778,-1.0,0.5536282658576965,0.0,0.045000000000001705,-1.4900792086518155,3.406188197205985,0.11206478100564518,0.05907271713086253,-0.0012699976404266767,2.0261286951267987,-2.2436831694383566,4.0667524701969695,0.0070653528654978865,4.63909505207329,0.22668682472349722,-0.027973348956726353,0.15918594706832576,-1.7622836083052125,0.17859981303880879,1.8047030621042053,0.012392186121256784,-4.305372489665051
-1.4900792086518155,3.406188197205985,0.11206478100564518,0.05907271713086253,-0.0012699976404266767,2.0261286951267987,-2.2436831694383566,4.0667524701969695,0.0070653528654978865,4.63909505207329,0.22668682472349722,-0.027973348956726353,0.15918594706832576,-1.7622836083052125,-1.0,0.5536282658576965,0.0,0.030000000000001137,-1.560765746061497,3.527177156566781,0.11218620151280417,0.05780842759280031,0.0008571713655773054,2.072910303406013,-2.460908195386261,3.9945297064831213,-0.0008492067681022024,4.68585839728163,0.23466529935341152,-0.3272521385106455,0.04168757941609397,-1.57340535519005,-0.042142984602072456,1.5587781736112898,0.2659491543304666,6.295941770505178
-1.560765746061497,3.527177156566781,0.11218620151280417,0.05780842759280031,0.0008571713655773054,2.072910303406013,-2.460908195386261,3.9945297064831213,-0.0008492067681022024,4.68585839728163,0.23466529935341152,-0.3272521385106455,0.04168757941609397,-1.57340535519005,-1.0,0.4257587790489197,0.0,0.03999999999999915,-1.6645959579795804,3.6852474618805626,0.11210751833865815,0.057740412048426296,0.000613737003633062,2.130754139457538,-2.734821261999587,3.8962377937891746,-0.0042763114622768016,4.753796248607571,0.2476641022851962,-0.32324319840674226,-0.1288316808812072,-1.3821199337919934,-0.0017003886093504299,1.698446283148561,0.32497007329462396,4.782135534951517
-1.6645959579795804,3.6852474618805626,0.11210751833865815,0.057740412048426296,0.000613737003633062,2.130754139457538,-2.734821261999587,3.8962377937891746,-0.0042763114622768016,4.753796248607571,0.2476641022851962,-0.32324319840674226,-0.1288316808812072,-1.3821199337919934,-1.0,0.21838706731796265,0.0,0.045000000000001705,-1.7933683272234822,3.857451005365458,0.11190313354595302,0.04945957761192396,0.005391531256202319,2.1965048292398404,-2.96721473604355,3.7388791820141725,-0.005239752113399707,4.768356123438277,0.21531536768573778,-0.2322783406088317,-0.1807702718916508,-1.7610840810490327,-0.18401854303337825,0.3235527740156736,-0.7188607688768265,-8.421425494600554
-1.7933683272234822,3.857451005365458,0.11190313354595302,0.04945957761192396,0.005391531256202319,2.1965048292398404,-2.96721473604355,3.7388791820141725,-0.005239752113399707,4.768356123438277,0.21531536768573778,-0.2322783406088317,-0.1807702718916508,-1.7610840810490327,-1.0,0.08965443819761276,0.0,0.03999999999999915,-1.9169214896359739,4.002751977289476,0.1120660844067757,0.06036565403839725,0.010861758173155945,2.2616480026639882,-3.2007107453013686,3.5074045685286577,0.011377890400380751,4.7426424214844864,0.23190287699618617,0.4161953027099883,0.5441502391508435,-1.5644654930180895,0.272651910661838,-0.6428425488447823,0.41468773276121856,4.915464700773685
-1.9169214896359739,4.002751977289476,0.1120660844067757,0.06036565403839725,0.010861758173155945,2.2616480026639882,-3.2007107453013686,3.5074045685286577,0.011377890400380751,4.7426424214844864,0.23190287699618617,0.4161953027099883,0.5441502391508435,-1.5644654930180895,-1.0,0.017057381570339203,0.0,0.02499999999999858,-1.9983986805063676,4.088360879007579,0.11235094509550528,0.06337954579690472,0.014761363311541709,2.3035613827057886,-3.3155095674516613,3.3353414741877887,0.013631441165500635,4.697087086250081,0.2334081092923017,-0.08148116442613569,0.08245524929301976,-1.9571958901843092,0.12055567034030565,-1.8222134093763356,0.06020929184462518,-15.709215886649682
-1.9983986805063676,4.088360879007579,0.11235094509550528,0.06337954579690472,0.014761363311541709,2.3035613827057886,-3.3155095674516613,3.3353414741877887,0.013631441165500635,4.697087086250081,0.2334081092923017,-0.08148116442613569,0.08245524929301976,-1.9571958901843092,-1.0,0.0127416318282485,0.0,0.045000000000001705,-2.1521659193551033,4.23063974621389,0.11261741109910761,0.0620086829952698,0.01757380866382199,2.3770631393280257,-3.513871969064116,2.9905224329378686,-0.006496703990091113,4.606022101814212,0.2740091868499208,-0.1511942071200005,1.1015588286095686,-1.786594757026782,-0.030463617814108147,-2.023666320797014,0.902246167947057,3.7911362923893503
-2.1521659193551033,4.23063974621389,0.11261741109910761,0.0620086829952698,0.01757380866382199,2.3770631393280257,-3.513871969064116,2.9905224329378686,-0.006496703990091113,4.606022101814212,0.2740091868499208,-0.1511942071200005,1.1015588286095686,-1.786594757026782,-0.9956842660903931,-0.0,0.0,0.03999999999999915,-2.2950449529556245,4.344148799460159,0.11231306165740365,0.06326525508075233,0.017625143946973693,2.4450598139796353,-3.6429702853403114,2.678837730085874,-0.00962332105413169,4.51305802279428,0.282332015358322,0.04676874107071384,0.21880339441397145,-1.7234007098017434,0.03141430213706388,-2.3241019754983325,0.2080707127100334,1.5798511806259967
-2.2950449529556245,4.344148799460159,0.11231306165740365,0.06326525508075233,0.017625143946973693,2.4450598139796353,-3.6429702853403114,2.678837730085874,-0.00962332105413169,4.51305802279428,0.282332015358322,0.04676874107071384,0.21880339441397145,-1.7234007098017434,-0.7040937542915344,-0.0,0.0,0.07000000000000028,-2.5564185416730236,4.512361103059846,0.11209200170104797,0.06466187549985498,0.018286376675892797,2.572512273874007,-3.825930780031688,2.1058950453007723,0.0009017172092324055,4.357729667583014,0.2876324385097433,0.1337006132069148,0.06210646021181669,-1.8356236966174295,0.01995172027289501,-2.218976503018084,0.07572033073458996,-1.6031855259383663
-2.5564185416730236,4.512361103059846,0.11209200170104797,0.06466187549985498,0.018286376675892797,2.572512273874007,-3.825930780031688,2.1058950453007723,0.0009017172092324055,4.357729667583014,0.2876324385097433,0.1337006132069148,0.06210646021181669,-1.8356236966174295,-0.30254417657852173,-0.0,0.0,0.03999999999999915,-2.7109782800364126,4.590229442694536,0.11208269042670996,0.06458921699454076,0.017176548329288128,2.647509826857361,-3.9100587944935277,1.7716954461596148,-0.0004720831764339489,4.282612657428218,0.2944373562823086,0.1518006006771762,0.4688274361312656,-1.7050802632413584,-0.0018164626328556449,-1.8779252538699343,0.1701229443141364,3.263585834401847
-2.7109782800364126,4.590229442694536,0.11208269042670996,0.06458921699454076,0.017176548329288128,2.647509826857361,-3.9100587944935277,1.7716954461596148,-0.0004720831764339489,4.282612657428218,0.2944373562823086,0.1518006006771762,0.4688274361312656,-1.7050802632413584,-0.08610936254262924,-0.0,0.0,0.03999999999999915,-2.8683062774411425,4.65571837576298,0.11207931957641523,0.05212722341669214,0.016789175740782467,2.7119116219349872,-3.957757938107421,1.5036987344432111,-0.0022697887400302125,4.224404582550787,0.2817156430557801,-0.24263969353822876,-0.6493480603142243,-1.2383664080887506,-0.31154983944622217,-1.455201871935805,-0.3180428306632189,11.667846378815444
-2.8683062774411425,4.65571837576298,0.11207931957641523,0.05212722341669214,0.016789175740782467,2.7119116219349872,-3.957757938107421,1.5036987344432111,-0.0022697887400302125,4.224404582550787,0.2817156430557801,-0.24263969353822876,-0.6493480603142243,-1.2383664080887506,-0.04137970879673958,-0.0,0.0,0.035000000000003695,-3.006945573056667,4.7058678979324915,0.11153809608076551,0.017004910779431694,0.01607334593822197,2.7326067795786595,-3.952193826389199,1.387057558914258,-0.030671506285446647,4.177838753288506,0.29904525512173885,-0.6481078597329127,-1.540814727794521,-0.40545445165217897,-1.0034946467787638,-1.330452264636467,0.49513177331305436,23.79748446961382
-3.006945573056667,4.7058678979324915,0.11153809608076551,0.017004910779431694,0.01607334593822197,2.7326067795786595,-3.952193826389199,1.387057558914258,-0.030671506285446647,4.177838753288506,0.29904525512173885,-0.6481078597329127,-1.540814727794521,-0.40545445165217897,-0.0020447401329874992,-0.0,0.0,0.03999999999999915,-3.1631947369030433,4.762572638099944,0.11000410990642312,-0.014326994797883751,0.015207169730290529,2.740748951235579,-3.8463159198934176,1.4778733039419347,-0.0278385270505873,4.118085808877515,0.14008900332081375,-0.13321184848265313,-0.43381635048012507,-0.20502182500597427,-0.7832976394329029,-1.493823610274801,-3.973906295023212,5.010815666155224
-3.1631947369030433,4.762572638099944,0.11000410990642312,-0.014326994797883751,0.015207169730290529,2.740748951235579,-3.8463159198934176,1.4778733039419347,-0.0278385270505873,4.118085808877515,0.14008900332081375,-0.13321184848265313,-0.43381635048012507,-0.20502182500597427,0.0,-0.0,0.0,0.030000000000001137,-3.2773316213302612,4.808050712571035,0.10947778926694673,-0.00969086645594349,0.01585610410010717,2.751908057139106,-3.7663516234022647,1.5410117074362186,-0.010187563725443043,4.069409425775832,0.005344059054502859,0.32750129986720533,0.45128717512968497,-0.47894209034969587,0.15453761139800284,-1.6225461033893787,-4.491498142210193,-9.13067551145704
-3.2773316213302612,4.808050712571035,0.10947778926694673,-0.00969086645594349,0.01585610410010717,2.751908057139106,-3.7663516234022647,1.5410117074362186,-0.010187563725443043,4.069409425775832,0.005344059054502859,0.32750129986720533,0.45128717512968497,-0.47894209034969587,0.0,0.14665314555168152,0.0,0.03499999999999659,-3.408336746034526,4.861236453186367,0.10926171627298994,0.005276727690681769,0.015356710477843266,2.767988211051324,-3.7355441393667155,1.4699107454902598,0.0015850131307335036,4.014336958431453,-0.00513819385158043,0.24673668107458063,0.08191756649251113,-0.20257513819693804,0.42764554704647767,-1.573499066982391,-0.29949294017383743,7.896198632936708
-3.408336746034526,4.861236453186367,0.10926171627298994,0.005276727690681769,0.015356710477843266,2.767988211051324,-3.7355441393667155,1.4699107454902598,0.0015850131307335036,4.014336958431453,-0.00513819385158043,0.24673668107458063,0.08191756649251113,-0.20257513819693804,0.0,0.3920651376247406,0.0,0.02499999999999858,-3.501824956546594,4.897522502216138,0.10927865717799584,-0.002507464701175823,0.011238275843661393,2.7624389026963594,-3.732979779044168,1.4625860256432732,0.0014308771305775042,4.009210295456644,0.022993911456714367,0.10345757045339443,0.19636606867461706,0.33190983439875493,-0.3113676956743214,-0.20506651899237227,1.1252842123318558,21.379398903828932
-3.501824956546594,4.897522502216138,0.10927865717799584,-0.002507464701175823,0.011238275843661393,2.7624389026963594,-3.732979779044168,1.4625860256432732,0.0014308771305775042,4.009210295456644,0.022993911456714367,0.10345757045339443,0.19636606867461706,0.33190983439875493,0.0,0.5259766578674316,0.0,0.025000000000005684,-3.5950009552508178,4.934902853893332,0.1093551147310371,-0.002637235328210724,0.006093318018353997,2.7607120815768464,-3.7295836621934857,1.5237635878771876,0.005433344783168141,4.028753898024691,-0.028138837783274306,0.39559075119494547,0.027025428872330382,-0.037094576566844055,-0.005190825081394858,0.7817441027216886,-2.045309969599082,-14.760176438620604
-3.5950009552508178,4.934902853893332,0.1093551147310371,-0.002637235328210724,0.006093318018353997,2.7607120815768464,-3.7295836621934857,1.5237635878771876,0.005433344783168141,4.028753898024691,-0.028138837783274306,0.39559075119494547,0.027025428872330382,-0.037094576566844055,0.0,0.6314042210578918,0.0,0.02999999999999403,-3.707791712714423,4.980622955323495,0.10938047169959256,4.315122150314123e-06,-0.0006715053105678787,2.7599814884281035,-3.802218154979525,1.515779655437827,-6.278277215661246e-05,4.093209624766277,0.009264427442368994,0.19637555994406192,-0.10512467000999141,-0.005254016239341744,0.0880516816787188,2.1485242247199516,1.2467755075216913,1.061352010916955
-3.707791712714423,4.980622955323495,0.10938047169959256,4.315122150314123e-06,-0.0006715053105678787,2.7599814884281035,-3.802218154979525,1.515779655437827,-6.278277215661246e-05,4.093209624766277,0.009264427442368994,0.19637555994406192,-0.10512467000999141,-0.005254016239341744,0.0,0.6676873564720154,0.0,0.030000000000001137,-3.822755510691943,5.0273408849324905,0.10938677949393535,0.0010469358974722549,-0.005676855515616187,2.7592573343548588,-3.869293192339083,1.5731983466738506,0.004147852750924597,4.176856021656122,-0.016019382444391495,0.3489721964693502,-0.16233715057379525,0.10347352649712342,0.034754025844063376,2.788213229661405,-0.8427936628919843,3.6242514245487016
-3.822755510691943,5.0273408849324905,0.10938677949393535,0.0010469358974722549,-0.005676855515616187,2.7592573343548588,-3.869293192339083,1.5731983466738506,0.004147852750924597,4.176856021656122,-0.016019382444391495,0.3489721964693502,-0.16233715057379525,0.10347352649712342,0.0,0.7350746989250183,0.0,0.035000000000003695,-3.9600490713819676,5.083130247042003,0.10945999445550056,-0.0008091504826828345,-0.007439814228126981,2.7562429145350014,-3.9585469018863426,1.6340266306827211,0.0008266242214960973,4.282458136726146,-0.026247121790909267,-0.23293610189584277,-0.18758358318592655,0.35804618098568874,-0.05303103943299695,3.0172032877146506,-0.29222112418619123,7.273504413958241
-3.9600490713819676,5.083130247042003,0.10945999445550056,-0.0008091504826828345,-0.007439814228126981,2.7562429145350014,-3.9585469018863426,1.6340266306827211,0.0008266242214960973,4.282458136726146,-0.026247121790909267,-0.23293610189584277,-0.18758358318592655,0.35804618098568874,0.0,0.7636202573776245,0.0,0.03999999999999915,-4.120710078766024,5.150014870886103,0.10955346641013883,7.671129416057885e-05,-0.010187612351660599,2.7521859883473123,-4.071086606343664,1.7200698099248937,0.0034168059146371943,4.419309133252257,-0.045750323703893425,0.08836488250446442,0.16471022348196776,0.022037467421705613,0.022146544421085806,3.421274913152856,-0.48758004782461434,-8.400217839099758
-4.120710078766024,5.150014870886103,0.10955346641013883,7.671129416057885e-05,-0.010187612351660599,2.7521859883473123,-4.071086606343664,1.7200698099248937,0.0034168059146371943,4.419309133252257,-0.045750323703893425,0.08836488250446442,0.16471022348196776,0.022037467421705613,0.0,0.7592737078666687,0.0,0.030000000000001137,-4.2446991805515015,5.201895776944264,0.1095954250614958,-0.00024352656321875748,-0.01200272609825261,2.7484229283858,-4.177852679190661,1.7639452951619603,0.002164984420480437,4.5348792504669575,-0.0287436432771635,0.3826607865287301,0.010722883112099863,0.007821828721898258,-0.010674595245977473,3.852337240489858,0.5668893475576428,-0.4738546233268939
-4.2446991805515015,5.201895776944264,0.1095954250614958,-0.00024352656321875748,-0.01200272609825261,2.7484229283858,-4.177852679190661,1.7639452951619603,0.002164984420480437,4.5348792504669575,-0.0287436432771635,0.3826607865287301,0.010722883112099863,0.007821828721898258,0.0,0.773978054523468,0.0,0.030000000000001137,-4.371660552381101,5.255230181864223,0.10963513958385032,-0.0016934549618279498,-0.01247903265998527,2.7436744846590266,-4.2778131803483195,1.8138193634383162,0.0009735031551820691,4.64644137109282,-0.014452478771969979,0.01376519678261406,-0.21349053344750687,0.2451424491564059,-0.04833094662030458,3.718737354195271,0.4763721501730993,7.910687347816621
-4.371660552381101,5.255230181864223,0.10963513958385032,-0.0016934549618279498,-0.01247903265998527,2.7436744846590266,-4.2778131803483195,1.8138193634383162,0.0009735031551820691,4.64644137109282,-0.014452478771969979,0.01376519678261406,-0.21349053344750687,0.2451424491564059,0.026151280850172043,0.7731149196624756,0.0,0.01999999999999602,-4.457715430846895,5.29222740849051,0.10967076716781174,-0.0017471424709118138,-0.011919021704595573,2.74026804688424,-4.324855576025146,1.8816510360797651,0.0017926180801603256,4.716265888196492,-0.04269012637602221,-0.1721248411079175,0.022995416638693825,0.3813805674715674,-0.002684375454193734,3.4912258551843163,-1.4118823802028924,6.81190591575943
-4.457715430846895,5.29222740849051,0.10967076716781174,-0.0017471424709118138,-0.011919021704595573,2.74026804688424,-4.324855576025146,1.8816510360797651,0.0017926180801603256,4.716265888196492,-0.04269012637602221,-0.1721248411079175,0.022995416638693825,0.3813805674715674,0.3099426031112671,0.7679359912872314,0.0,0.045000000000001705,-4.656154684792906,5.377340977120621,0.10981094750564938,-0.00039166954083914694,-0.012496781381885827,2.7361928900207633,-4.496266976641056,1.8992814034802505,5.238241341277983e-05,4.880871485076337,0.027930646385801783,0.1727442693981826,-0.6427210127734443,0.349300786589148,0.030121620668280343,3.6579021528853057,1.5693505058182515,-0.7128840196092934
-4.656154684792906,5.377340977120621,0.10981094750564938,-0.00039166954083914694,-0.012496781381885827,2.7361928900207633,-4.496266976641056,1.8992814034802505,5.238241341277983e-05,4.880871485076337,0.027930646385801783,0.1727442693981826,-0.6427210127734443,0.349300786589148,0.7871719002723694,0.7186748385429382,0.0,0.030000000000001137,-4.791867148241829,5.43614502905779,0.10990509274823412,-0.00906211646121227,-0.01082982741882156,2.7271093731011984,-4.546149250364484,2.020402374054658,0.0047235969572393885,4.974852365488901,-0.018512192326978427,-0.10471513367708891,0.2535533482345293,0.17947883540349666,-0.2890148973457598,3.132696013751997,-1.5480946237592816,-5.660731706188163
-4.791867148241829,5.43614502905779,0.10990509274823412,-0.00906211646121227,-0.01082982741882156,2.7271093731011984,-4.546149250364484,2.020402374054658,0.0047235969572393885,4.974852365488901,-0.018512192326978427,-0.10471513367708891,0.2535533482345293,0.17947883540349666,0.8578268885612488,0.6547400951385498,0.0,0.07000000000000028,-5.112237085371241,5.591088455355609,0.11102381098483752,-0.04319138242612768,-0.005699320896003076,2.659792366175749,-4.54575593444883,2.4449037479084628,0.03145276914853526,5.161184794551774,-0.06019026998750565,-0.6714058500679998,-0.8483089770305425,1.6122810270788246,-0.48756094235593245,2.6618918437553236,-0.5954011094361008,20.468602738218888
-5.112237085371241,5.591088455355609,0.11102381098483752,-0.04319138242612768,-0.005699320896003076,2.659792366175749,-4.54575593444883,2.4449037479084628,0.03145276914853526,5.161184794551774,-0.06019026998750565,-0.6714058500679998,-0.8483089770305425,1.6122810270788246,0.8990731239318848,0.3367618918418884,0.0,0.03499999999999659,-5.2692770776621956,5.681921860621462,0.11232913498475469,-0.06962802581290034,0.0035400140390039274,2.5999944724624022,-4.401459129193035,2.7496563570277135,0.03451447341825502,5.189012932178397,-0.0871627063886149,-0.05851493284126531,0.5055036732084421,1.662729199847718,-0.7553326681935781,0.7950896464750062,-0.7706410400317678,1.4413763648256679
-5.2692770776621956,5.681921860621462,0.11232913498475469,-0.06962802581290034,0.0035400140390039274,2.5999944724624022,-4.401459129193035,2.7496563570277135,0.03451447341825502,5.189012932178397,-0.0871627063886149,-0.05851493284126531,0.5055036732084421,1.662729199847718,0.9020324945449829,0.2132081687450409,0.0,0.03999999999999915,-5.441063125321371,5.79758431794042,0.11328978703662093,-0.07210574541409383,0.01094815480583661,2.5300900302095033,-4.1666034497033015,3.0249402480838468,0.006042013744571348,5.148171238414166,-0.08473907907318523,-0.8275470236062521,-0.05764558693011322,1.8418166446021358,-0.061942990029838496,-1.021042344105782,0.060590682885742944,4.477186118860539
-5.441063125321371,5.79758431794042,0.11328978703662093,-0.07210574541409383,0.01094815480583661,2.5300900302095033,-4.1666034497033015,3.0249402480838468,0.006042013744571348,5.148171238414166,-0.08473907907318523,-0.8275470236062521,-0.05764558693011322,1.8418166446021358,0.9000595808029175,-0.0,0.0,0.045000000000001705,-5.620924535864075,5.939979632893902,0.11341583106903377,-0.07355785495340449,0.016047576999668477,2.465601873620251,-3.823754239250231,3.2928871561930517,-0.0022123234521214813,5.0431250412714,-0.1763295882902498,-0.1808479888728139,-0.3495489463298036,1.1329847970106894,-0.03226910087356897,-2.3343599365058196,-2.0353446492680245,-15.751818835364878
-5.620924535864075,5.939979632893902,0.11341583106903377,-0.07355785495340449,0.016047576999668477,2.465601873620251,-3.823754239250231,3.2928871561930517,-0.0022123234521214813,5.0431250412714,-0.1763295882902498,-0.1808479888728139,-0.3495489463298036,1.1329847970106894,0.8961445689201355,-0.0,0.0,0.035000000000003695,-5.750387956132627,6.05808001899651,0.11293787132715602,-0.06398309410089506,0.01495214466587326,2.4187894516833133,-3.5686192281752875,3.454174767807953,-0.030717810211226708,4.961202138493748,-0.22986923079997412,0.31475614494663146,0.0883517952016502,1.4713148143656034,0.2735645957859547,-2.3406543650755314,-1.5297040717062476,9.666571924425092
-5.750387956132627,6.05808001899651,0.11293787132715602,-0.06398309410089506,0.01495214466587326,2.4187894516833133,-3.5686192281752875,3.454174767807953,-0.030717810211226708,4.961202138493748,-0.22986923079997412,0.31475614494663146,0.0883517952016502,1.4713148143656034,0.8892393708229065,-0.0,0.0,0.03999999999999915,-5.887953280873261,6.199312713516947,0.11194905110395648,-0.06058256485921055,0.018089454263160425,2.3604350155412437,-3.287586306985256,3.610200173850845,-0.01309795333189974,4.876460386214721,-0.2488033818664812,0.5909151057978407,0.3771831594330624,1.616841789042021,0.08501323104211461,-2.1185438069757154,-0.4733537766626873,3.638174366910518
-5.887953280873261,6.199312713516947,0.11194905110395648,-0.06058256485921055,0.018089454263160425,2.3604350155412437,-3.287586306985256,3.610200173850845,-0.01309795333189974,4.876460386214721,-0.2488033818664812,0.5909151057978407,0.3771831594330624,1.616841789042021,0.8617419004440308,-0.0,0.0,0.03499999999999659,-5.998385576249108,6.327764563377294,0.11185802731890362,-0.06513023448363117,0.018189367975019896,2.301486352787272,-3.0202836793152747,3.7331618210333195,0.004771644612711623,4.795826118728561,-0.24220347743161064,0.3945839443525126,-0.0608273910650111,1.8426198741119284,-0.12993341784060192,-2.303836213890516,0.18856869813917762,6.450802430569411
-5.998385576249108,6.327764563377294,0.11185802731890362,-0.06513023448363117,0.018189367975019896,2.301486352787272,-3.0202836793152747,3.7331618210333195,0.004771644612711623,4.795826118728561,-0.24220347743161064,0.3945839443525126,-0.0608273910650111,1.8426198741119284,0.41105443239212036,-0.0,0.0,0.045000000000001705,-6.126125827834059,6.49917471315378,0.11226828064063726,-0.06349084398881905,0.020454440386290296,2.2224304213290993,-2.657413353346767,3.8764960817239213,0.015196975417593322,4.693863269897854,-0.2381495447622326,-0.0794691288668346,0.03489459069493944,1.935873016329109,0.036430899884712535,-2.2658410851267448,0.09008739265284181,2.072292049270599
-6.126125827834059,6.49917471315378,0.11226828064063726,-0.06349084398881905,0.020454440386290296,2.2224304213290993,-2.657413353346767,3.8764960817239213,0.015196975417593322,4.693863269897854,-0.2381495447622326,-0.0794691288668346,0.03489459069493944,1.935873016329109,0.21271494030952454,0.007562733255326748,0.0,0.03499999999999659,-6.214085863848573,6.636694819975708,0.11250234156889519,-0.0646000506569279,0.016620463783873565,2.1606034731346058,-2.36880371882154,3.9866201946503503,-0.0009858270371095462,4.630603014583855,-0.24877169457891113,0.567017586398305,0.07427277841688432,1.6203294805286979,-0.031691619088827304,-1.8074358661144312,-0.30348999476227323,-9.015529594298338
-6.214085863848573,6.636694819975708,0.11250234156889519,-0.0646000506569279,0.016620463783873565,2.1606034731346058,-2.36880371882154,3.9866201946503503,-0.0009858270371095462,4.630603014583855,-0.24877169457891113,0.567017586398305,0.07427277841688432,1.6203294805286979,0.07229896634817123,0.008703324012458324,0.0,0.035000000000003695,-6.292104803945705,6.777381528937311,0.11227480540417478,-0.059997892296077236,0.017107078907003193,2.101868691739143,-2.0867461204364046,4.063131996179677,-0.003238452750291762,4.560344190653325,-0.258479887631319,0.029234705421460755,0.0910445047142513,1.4744609343324664,0.13149023888143346,-2.007394969443501,-0.2773769443544818,-4.167672748463316
-6.292104803945705,6.777381528937311,0.11227480540417478,-0.059997892296077236,0.017107078907003193,2.101868691739143,-2.0867461204364046,4.063131996179677,-0.003238452750291762,4.560344190653325,-0.258479887631319,0.029234705421460755,0.0910445047142513,1.4744609343324664,0.016317538917064667,0.011878482066094875,0.0,0.045000000000001705,-6.380665262993982,6.961158962652306,0.11172894573499767,-0.03150328261435794,0.015261772311503358,2.0581107181720393,-1.8785911767305232,4.094361838496341,-0.02468294772347006,4.497410831391034,-0.2572926106819191,0.5849267403653119,0.23600747149798817,0.5943954908099216,0.633213548482627,-1.3985190947175283,0.02638393220888582,-19.55700985605581
