x_pos,y_pos,z_pos,roll,pitch,yaw,u_x,u_y,u_z,comp_u_x,comp_u_y,roll_mder,pitch_mder,yaw_mder,steer,throttle,brake,time_step,act_x_pos,act_y_pos,act_z_pos,act_roll,act_pitch,act_yaw,act_u_x,act_u_y,act_u_z,act_comp_u_x,act_comp_u_y,act_roll_mder,act_pitch_mder,act_yaw_mder,accel_roll,accel_x,accel_y,accel_yaw
-11.264077732526292,-5.902406203049491,0.10912784469558243,8.483195548027488e-07,-0.019497705142334343,-1.829429945773987,-0.08938365621333356,-0.4426801480806813,0.002423288501488266,0.4508175104612553,0.026809023934364046,0.009934192921856811,0.0404341610235174,-0.1185565653878196,-1.0,1.0,0.0,0.049999999999272404,-11.268977690767413,-5.931361066183589,0.109455662055297,0.0008016732547513884,-0.01964744989172247,-1.8176857822474837,-0.09761815887931602,-0.7117156844119408,0.007983078947536606,0.7139913356867756,0.07927731671265596,0.006457917887597084,0.07514235897497382,-0.36102880814965393,0.016016498704164783,5.2634765045870004,1.0493658555811085,0.2348832705334865
-11.268977690767413,-5.931361066183589,0.109455662055297,0.0008016732547513884,-0.01964744989172247,-1.8176857822474837,-0.09761815887931602,-0.7117156844119408,0.007983078947536606,0.7139913356867756,0.07927731671265596,0.006457917887597084,0.07514235897497382,-0.36102880814965393,-1.0,1.0,0.0,0.020000000000436557,-11.27087765040037,-5.9467491506251555,0.10960428439318773,0.001037721324420951,-0.019998172690293445,-1.8092423007275165,-0.09186202931149294,-0.8229703908109846,0.006881279709524896,0.8213825844456881,0.10511682334494472,-0.013535301962021894,0.015036382905145388,-0.4765162730913309,0.011802403483220505,5.369562437828418,1.291975331586237,0.42217407598914536
-11.27087765040037,-5.9467491506251555,0.10960428439318773,0.001037721324420951,-0.019998172690293445,-1.8092423007275165,-0.09186202931149294,-0.8229703908109846,0.006881279709524896,0.8213825844456881,0.10511682334494472,-0.013535301962021894,0.015036382905145388,-0.4765162730913309,-1.0,1.0,0.0,0.030000000002473826,-11.273486927223349,-5.973979229464641,0.10976461539658947,0.0015448442688050356,-0.020264407163994004,-1.7925129646032247,-0.08262845424464901,-0.9876874954987466,0.0036096090968147573,0.9816806530097355,0.13659116267835864,0.001056007460714603,-0.20162677773918053,-0.5694273727518572,0.016904098144742228,5.343268951694302,1.049144644360617,0.5576445374304071
-11.273486927223349,-5.973979229464641,0.10976461539658947,0.0015448442688050356,-0.020264407163994004,-1.7925129646032247,-0.08262845424464901,-0.9876874954987466,0.0036096090968147573,0.9816806530097355,0.13659116267835864,0.001056007460714603,-0.20162677773918053,-0.5694273727518572,-1.0,1.0,0.0,0.03499999999985448,-11.276170099007977,-6.012099186081266,0.1098176717850185,0.0014089817533575277,-0.020636945029855677,-1.7690644846774466,-0.0703009747568738,-1.184533203703435,6.741651133709489e-05,1.1751745206909452,0.16439581395673492,0.04125242382832662,0.048385958125051594,-0.7120830271921317,-0.003881786155659221,5.528396219486119,0.794418607956911,0.6699565693107324
-11.276170099007977,-6.012099186081266,0.1098176717850185,0.0014089817533575277,-0.020636945029855677,-1.7690644846774466,-0.0703009747568738,-1.184533203703435,6.741651133709489e-05,1.1751745206909452,0.16439581395673492,0.04125242382832662,0.048385958125051594,-0.7120830271921317,-1.0,0.9856963753700256,0.0,0.04499999999825377,-11.278931720310199,-6.071124295319157,0.1097585963678212,0.001798566560589509,-0.02049962680175339,-1.7334960339344792,-0.045544669484128865,-1.433253116658755,-0.0015374723195365203,1.4217024203020852,0.18721923362103143,-0.028945666916221417,-0.06139596540718957,-0.8735142438419982,0.008657440161046647,5.4783977693490336,0.5071871036707152,0.7904100165410595
-11.278931720310199,-6.071124295319157,0.1097585963678212,0.001798566560589509,-0.02049962680175339,-1.7334960339344792,-0.045544669484128865,-1.433253116658755,-0.0015374723195365203,1.4217024203020852,0.18721923362103143,-0.028945666916221417,-0.06139596540718957,-0.8735142438419982,-1.0,0.9757393002510071,0.0,0.04500000000189175,-11.279909123012647,-6.141211314928351,0.10971391916394682,0.0038238301201503335,-0.019513391513053483,-1.691654944939531,0.008375262558482787,-1.674161037137265,0.0003214766333175176,1.660939080473742,0.210158735831958,-0.016790448033287192,-0.17626519728867154,-0.9979912868891788,0.04500585687723744,5.316370225813325,0.5097667157769379,0.9298019776264254
-11.279909123012647,-6.141211314928351,0.10971391916394682,0.0038238301201503335,-0.019513391513053483,-1.691654944939531,0.008375262558482787,-1.674161037137265,0.0003214766333175176,1.660939080473742,0.210158735831958,-0.016790448033287192,-0.17626519728867154,-0.9979912868891788,-1.0,0.9692656993865967,0.0,0.01999999999679858,-11.279454405306941,-6.175828305445123,0.10972739696867126,0.004803083926343334,-0.019137534183428943,-1.671683209150469,0.038482972932125936,-1.7802142183353715,0.0013059072154719409,1.767286400159313,0.21758304663059025,-0.08347716241738705,-0.11698978262419661,-1.047136232791945,0.04896269031748754,5.3173659851297,0.3712155399910339,0.998586789612949
-11.279454405306941,-6.175828305445123,0.10972739696867126,0.004803083926343334,-0.019137534183428943,-1.671683209150469,0.038482972932125936,-1.7802142183353715,0.0013059072154719409,1.767286400159313,0.21758304663059025,-0.08347716241738705,-0.11698978262419661,-1.047136232791945,-1.0,0.9658131003379822,0.0,0.015000000003055902,-11.278724244335075,-6.203156281559009,0.10975101143981303,0.0061193668131647155,-0.0189800674181407,-1.655891589701808,0.06361353469268412,-1.8589070006751558,0.0021640596223361577,1.8467740190346638,0.22137669609458838,-0.100375480004075,0.19842828205877397,-1.0767352210227394,0.08775219243688127,5.2991745906104715,0.2529099642150173,1.0527746296962497
-11.278724244335075,-6.203156281559009,0.10975101143981303,0.0061193668131647155,-0.0189800674181407,-1.655891589701808,0.06361353469268412,-1.8589070006751558,0.0021640596223361577,1.8467740190346638,0.22137669609458838,-0.100375480004075,0.19842828205877397,-1.0767352210227394,-1.0,0.9614973664283752,0.0,0.03499999999985448,-11.27518968120674,-6.271451988878097,0.1098541778536766,0.010297485785745075,-0.018280723027049785,-1.6164567783548132,0.14422483261972965,-2.0378883561291006,0.003687439346782756,2.029181269135924,0.23709308589386582,-0.03460224074709596,-0.1054922830137047,-1.1348157240114116,0.1193748277885066,5.211635717200536,0.4490397085526512,1.12670889563311
-11.27518968120674,-6.271451988878097,0.1098541778536766,0.010297485785745075,-0.018280723027049785,-1.6164567783548132,0.14422483261972965,-2.0378883561291006,0.003687439346782756,2.029181269135924,0.23709308589386582,-0.03460224074709596,-0.1054922830137047,-1.1348157240114116,-1.0,0.9606033563613892,0.0,0.03499999999985448,-11.268338631852304,-6.345936423593876,0.10998475730478904,0.013921156479226334,-0.017356255692476764,-1.5740120126789892,0.2535427135218754,-2.2088082253505643,0.003458769527005849,2.2079814928000614,0.2606442238162184,-0.16681600524379125,-0.09575293455608913,-1.2908183117976972,0.1035334483856093,5.108577818996591,0.6728896549271564,1.2127075907428708
-11.268338631852304,-6.345936423593876,0.10998475730478904,0.013921156479226334,-0.017356255692476764,-1.5740120126789892,0.2535427135218754,-2.2088082253505643,0.003458769527005849,2.2079814928000614,0.2606442238162184,-0.16681600524379125,-0.09575293455608913,-1.2908183117976972,-1.0,0.9614973664283752,0.0,0.06999999999970896,-11.24124805650521,-6.511879181943,0.11031440012945301,0.021894071723539694,-0.01732768473697983,-1.4780319039807803,0.5350078350106672,-2.522025011319819,0.005722600141436475,2.560740022104337,0.2990887501037327,-0.0464446557205206,0.09358486204141554,-1.3524404458990837,0.11389878920495013,5.039407561510604,0.5492075183953452,1.3711444099801127
-11.24124805650521,-6.511879181943,0.11031440012945301,0.021894071723539694,-0.01732768473697983,-1.4780319039807803,0.5350078350106672,-2.522025011319819,0.005722600141436475,2.560740022104337,0.2990887501037327,-0.0464446557205206,0.09358486204141554,-1.3524404458990837,-1.0,0.9614973664283752,0.0,0.03499999999985448,-11.21987056174657,-6.602946960446934,0.11046489048094302,0.021587164507864604,-0.017538691242251762,-1.4301201677223276,0.6915998690302302,-2.671938852637634,0.0033938755897729503,2.7425149155556077,0.31012827834972806,0.12939142629229156,-0.002321750181740738,-1.412391526540412,-0.008768777590753344,5.193568384343611,0.31541509274403584,1.3689067502471968
-11.21987056174657,-6.602946960446934,0.11046489048094302,0.021587164507864604,-0.017538691242251762,-1.4301201677223276,0.6915998690302302,-2.671938852637634,0.0033938755897729503,2.7425149155556077,0.31012827834972806,0.12939142629229156,-0.002321750181740738,-1.412391526540412,-1.0,0.9626379609107971,0.0,0.040000000000873115,-11.188629065951261,-6.7130684277350845,0.11046849702122222,0.02122118400715542,-0.016932561621872823,-1.3733578367486663,0.8730155758081186,-2.826440276246517,-0.00047852955652073065,2.942778108071015,0.30162532627424865,-0.28253178976937393,-0.04914915831769427,-1.553690967904607,-0.009149512517529892,5.0065798127758985,-0.21257380188234518,1.4190582743105586
-11.188629065951261,-6.7130684277350845,0.11046849702122222,0.02122118400715542,-0.016932561621872823,-1.3733578367486663,0.8730155758081186,-2.826440276246517,-0.00047852955652073065,2.942778108071015,0.30162532627424865,-0.28253178976937393,-0.04914915831769427,-1.553690967904607,-1.0,0.9631928205490112,0.0,0.039999999997235136,-11.149371464855685,-6.829015958350221,0.110543710189311,0.029473873097465585,-0.017129641467107597,-1.3109148627251468,1.1055678121133126,-2.962356636436682,0.005458097464730874,3.1469753540941463,0.30721840658640087,-0.2749159650253604,0.10091179878064731,-1.5477354533297158,0.20631722727201512,5.1049311509311455,0.1398270078134706,1.5610743506958915
-11.149371464855685,-6.829015958350221,0.110543710189311,0.029473873097465585,-0.017129641467107597,-1.3109148627251468,1.1055678121133126,-2.962356636436682,0.005458097464730874,3.1469753540941463,0.30721840658640087,-0.2749159650253604,0.10091179878064731,-1.5477354533297158,-1.0,0.9631928205490112,0.0,0.04500000000189175,-11.09369347443603,-6.965395294948026,0.11080635239753722,0.03156811425562555,-0.016443839468422365,-1.2414362626680833,1.3734033373439127,-3.089943117968603,0.005065455391549713,3.368067399936846,0.30017859482579123,-0.2632620444912021,0.051527444607112,-1.5155738721012024,0.04653869240159833,4.913156574075667,-0.15644026134030425,1.5439688900920605
-11.09369347443603,-6.965395294948026,0.11080635239753722,0.03156811425562555,-0.016443839468422365,-1.2414362626680833,1.3734033373439127,-3.089943117968603,0.005065455391549713,3.368067399936846,0.30017859482579123,-0.2632620444912021,0.051527444607112,-1.5155738721012024,-1.0,0.9597402215003967,0.0,0.03499999999985448,-11.041506418702035,-7.0751972476719445,0.11093116190856597,0.03762299235938984,-0.014074198860599043,-1.188784743359164,1.622733467477749,-3.1709609804135654,0.0001609600274561085,3.5473226401220317,0.3236657730674932,-0.34914335583869155,-0.03797006953070208,-1.499263344469947,0.1729965172511275,5.121578291026606,0.6710622354799898,1.5043291231182319
-11.041506418702035,-7.0751972476719445,0.11093116190856597,0.03762299235938984,-0.014074198860599043,-1.188784743359164,1.622733467477749,-3.1709609804135654,0.0001609600274561085,3.5473226401220317,0.3236657730674932,-0.34914335583869155,-0.03797006953070208,-1.499263344469947,-1.0,0.9649499654769897,0.0,0.03499999999985448,-10.980701540807644,-7.187557403011732,0.1108682638829161,0.03675049485318944,-0.014161754281711115,-1.1349828689015309,1.8582410120619972,-3.2426096016499573,-0.004195902151985217,3.7239656254628493,0.31568450705218476,-0.34332052152016435,0.11162512024388378,-1.5960808036662342,-0.024928500177257958,5.046942438330057,-0.2280361718669042,1.537196413081625
-10.980701540807644,-7.187557403011732,0.1108682638829161,0.03675049485318944,-0.014161754281711115,-1.1349828689015309,1.8582410120619972,-3.2426096016499573,-0.004195902151985217,3.7239656254628493,0.31568450705218476,-0.34332052152016435,0.11162512024388378,-1.5960808036662342,-1.0,0.9675394296646118,0.0,0.07999999999810825,-10.810786561278414,-7.452518870528454,0.11071347135649448,0.03394073597317162,-0.014068339692027566,-1.022611076224266,2.38540755654831,-3.3614371617759367,-0.0010824394944536353,4.112020874780975,0.28410091300723717,0.25200151414382244,-0.2973248182125201,-1.4011107128728983,-0.03512198600105325,4.850690616591275,-0.39479492557118057,1.4046474084990273
-10.810786561278414,-7.452518870528454,0.11071347135649448,0.03394073597317162,-0.014068339692027566,-1.022611076224266,2.38540755654831,-3.3614371617759367,-0.0010824394944536353,4.112020874780975,0.28410091300723717,0.25200151414382244,-0.2973248182125201,-1.4011107128728983,-1.0,0.9675394296646118,0.0,0.040000000000873115,-10.70991067135169,-7.58804809082336,0.1107786441519972,0.03342895121090111,-0.01639236553894705,-0.9683125798480977,2.654422194588315,-3.4037317153509767,0.005004986554744739,4.308675106687907,0.25819682844120706,-0.489664577395345,0.3302053276484843,-1.3050938379539458,-0.012794619056483516,4.9163557975659975,-0.6476021141366168,1.3574624093745755
-10.70991067135169,-7.58804809082336,0.1107786441519972,0.03342895121090111,-0.01639236553894705,-0.9683125798480977,2.654422194588315,-3.4037317153509767,0.005004986554744739,4.308675106687907,0.25819682844120706,-0.489664577395345,0.3302053276484843,-1.3050938379539458,-1.0,0.9692656993865967,0.0,0.03499999999985448,-10.612946964481672,-7.707903384702683,0.11084801780804851,0.030487339796268054,-0.014786260487291104,-0.9238180480255598,2.879100293493628,-3.4311584025026827,0.000918078403280051,4.473210323533658,0.22903249658456737,0.682578946576663,0.15551240213738304,-1.2928038847897336,-0.08404604041843669,4.701006195612432,-0.8332666244788842,1.2712723377920836
-10.612946964481672,-7.707903384702683,0.11084801780804851,0.030487339796268054,-0.014786260487291104,-0.9238180480255598,2.879100293493628,-3.4311584025026827,0.000918078403280051,4.473210323533658,0.22903249658456737,0.682578946576663,0.15551240213738304,-1.2928038847897336,-1.0,0.9631928205490112,0.0,0.040000000000873115,-10.492300520850055,-7.845888264922072,0.11084470671755844,0.034246610562758906,-0.016510291435712105,-0.8735787047877049,3.1567076282099733,-3.4518193520092977,0.0020327181519734366,4.67315537206092,0.20366334349382242,-0.4134443610550863,0.2480389441648351,-1.0090202849691348,0.09398176916021987,4.998626213072436,-0.6342288272547798,1.2559835809189555
-10.492300520850055,-7.845888264922072,0.11084470671755844,0.034246610562758906,-0.016510291435712105,-0.8735787047877049,3.1567076282099733,-3.4518193520092977,0.0020327181519734366,4.67315537206092,0.20366334349382242,-0.4134443610550863,0.2480389441648351,-1.0090202849691348,-0.8042808175086975,0.9727182984352112,0.0,0.0750000000007276,-10.23716462210819,-8.105255680761836,0.11089452609333805,0.030276899923295283,-0.015271309094036224,-0.7949856297897946,3.6434583490738652,-3.4536582728522323,0.0004998486453506035,5.016901942869885,0.18231594199382828,0.5872091592863344,-0.002122986403211277,-1.0806060017543309,-0.05292947519233481,4.583287610741735,-0.28463201999716065,1.0479076666286387
-10.23716462210819,-8.105255680761836,0.11089452609333805,0.030276899923295283,-0.015271309094036224,-0.7949856297897946,3.6434583490738652,-3.4536582728522323,0.0004998486453506035,5.016901942869885,0.18231594199382828,0.5872091592863344,-0.002122986403211277,-1.0806060017543309,-0.2479807734489441,0.9718551635742188,0.0,0.049999999999272404,-10.046516564711451,-8.278042894413336,0.11086624351933658,0.030844970784384192,-0.015768813014875396,-0.7466997191202085,3.9755659993584187,-3.4428485558738675,-0.0015520852553717601,5.256257499845029,0.1734597626550971,0.189420787129459,-0.1942853026405083,-0.8946032724281011,0.011361417221943507,4.787111139572541,-0.17712358677720097,0.965718213405775
-10.046516564711451,-8.278042894413336,0.11086624351933658,0.030844970784384192,-0.015768813014875396,-0.7466997191202085,3.9755659993584187,-3.4428485558738675,-0.0015520852553717601,5.256257499845029,0.1734597626550971,0.189420787129459,-0.1942853026405083,-0.8946032724281011,-0.01767391711473465,0.17606189846992493,0.0,0.029999999998835847,-9.924230827898906,-8.381112064409963,0.1109263414472545,0.030805202826475638,-0.016380357711345484,-0.7159759096215779,4.173014948219531,-3.4175770681169673,0.003884898956670532,5.3914842937532725,0.160573611762306,0.710841826352847,0.1272965392307977,-0.9602798828319642,-0.0013255985970032447,4.507559797116365,-0.42953836310970506,1.024126983327429
-9.924230827898906,-8.381112064409963,0.1109263414472545,0.030805202826475638,-0.016380357711345484,-0.7159759096215779,4.173014948219531,-3.4175770681169673,0.003884898956670532,5.3914842937532725,0.160573611762306,0.710841826352847,0.1272965392307977,-0.9602798828319642,-0.005589819513261318,0.007562733255326748,0.0,0.03499999999985448,-9.77563144299159,-8.499968014693792,0.11097746241197873,0.014293087963446045,-0.00356510196545063,-0.6972640257570901,4.272014124457717,-3.374089991114953,-0.003637233196398342,5.441513824431798,0.15657345313294568,0.5455411646820537,0.31210854446230857,-0.3532916654054124,-0.4717747103742356,1.4294151622495272,-0.11429024655362711,0.5346252532733012
-9.77563144299159,-8.499968014693792,0.11097746241197873,0.014293087963446045,-0.00356510196545063,-0.6972640257570901,4.272014124457717,-3.374089991114953,-0.003637233196398342,5.441513824431798,0.15657345313294568,0.5455411646820537,0.31210854446230857,-0.3532916654054124,-0.0020447401329874992,-0.0,0.0,0.040000000000873115,-9.605789741625276,-8.63487631764404,0.11054606683363019,-0.011538602435070305,0.009100388959572872,-0.6984068303274952,4.178295842176179,-3.405146783514187,-0.01371734469289309,5.389525011889246,0.07874584588397182,0.4368360567456757,0.23077918185364749,0.07553405118193422,-0.6457922599488125,-1.2997203135354312,-1.9456901811818763,-0.02857011425950272
-9.605789741625276,-8.63487631764404,0.11054606683363019,-0.011538602435070305,0.009100388959572872,-0.6984068303274952,4.178295842176179,-3.405146783514187,-0.01371734469289309,5.389525011889246,0.07874584588397182,0.4368360567456757,0.23077918185364749,0.07553405118193422,0.0,-0.004325921647250652,0.004325921647250652,0.029999999998835847,-9.48224093852245,-8.737980305342962,0.11044142259093306,-0.016313968040482504,0.012879499185172021,-0.7052528316851682,4.064599727619417,-3.4671503618481605,-0.0026633352169770225,5.3424783363183455,-0.005272892643151561,-0.15634829866490918,-0.7654258529905421,-0.14514288875405246,-0.15917885351991695,-1.568222519090871,-2.800624617679458,-0.22820004526462176
-9.48224093852245,-8.737980305342962,0.11044142259093306,-0.016313968040482504,0.012879499185172021,-0.7052528316851682,4.064599727619417,-3.4671503618481605,-0.0026633352169770225,5.3424783363183455,-0.005272892643151561,-0.15634829866490918,-0.7654258529905421,-0.14514288875405246,0.0,-0.006113874725997448,0.006113874725997448,0.040000000000873115,-9.321160483718469,-8.876434787679269,0.11012387571692481,0.003441529645977736,0.015231366020895611,-0.6980786708577092,4.01810350746256,-3.418364902740907,-0.007264423172454446,5.275326561036035,-0.03611203956443543,-0.025941631292705436,0.1454033060376421,-0.23943613716965453,0.4938874421507255,-1.6787943820211133,-0.7709786730152678,0.17935402068255807
-9.321160483718469,-8.876434787679269,0.11012387571692481,0.003441529645977736,0.015231366020895611,-0.6980786708577092,4.01810350746256,-3.418364902740907,-0.007264423172454446,5.275326561036035,-0.03611203956443543,-0.025941631292705436,0.1454033060376421,-0.23943613716965453,0.0,-0.006113874725997448,0.006113874725997448,0.06000000000130967,-9.082333307753338,-9.079523183177365,0.10966844675720575,-0.0024125149050989317,0.01690509473583028,-0.7081263458944105,3.906599519657654,-3.3953752990599595,-0.0022604398524961877,5.175773998289877,-0.03816735623978573,0.18943429458669772,0.13085561620907296,0.20354175096729954,-0.09756740918248144,-1.6592093790664197,-0.034255277921757366,-0.16746125060803185
-9.082333307753338,-9.079523183177365,0.10966844675720575,-0.0024125149050989317,0.01690509473583028,-0.7081263458944105,3.906599519657654,-3.3953752990599595,-0.0022604398524961877,5.175773998289877,-0.03816735623978573,0.18943429458669772,0.13085561620907296,0.20354175096729954,0.0,-0.006113874725997448,0.006113874725997448,0.03499999999985448,-8.946212218139339,-9.197286490358493,0.10958260954606774,-0.0013256858339343136,0.016697884974889495,-0.7096238038644334,3.865512971139842,-3.351795551495294,-0.002638726252087789,5.116262488116231,-0.024126785296292308,0.09172433076873267,-0.13120009373375102,0.22413511461877733,0.031052259176261053,-1.7003288621112433,0.4011591698157657,-0.04278451342940289
-8.946212218139339,-9.197286490358493,0.10958260954606774,-0.0013256858339343136,0.016697884974889495,-0.7096238038644334,3.865512971139842,-3.351795551495294,-0.002638726252087789,5.116262488116231,-0.024126785296292308,0.09172433076873267,-0.13120009373375102,0.22413511461877733,-0.21222171187400818,-0.006113874725997448,0.006113874725997448,0.040000000000873115,-8.793198219338857,-9.330696723654006,0.10965754321481305,-0.0014849627206423932,0.016551436044168134,-0.7133319740450754,3.790546530777772,-3.3210166088561808,0.005248105383503718,5.039487806300237,-0.030934906517452454,0.1766083198563238,0.5084927129642559,0.06703499853058775,-0.003981922167615074,-1.91936704535796,-0.17020303052528848,-0.09270425451402815
-8.793198219338857,-9.330696723654006,0.10965754321481305,-0.0014849627206423932,0.016551436044168134,-0.7133319740450754,3.790546530777772,-3.3210166088561808,0.005248105383503718,5.039487806300237,-0.030934906517452454,0.1766083198563238,0.5084927129642559,0.06703499853058775,-0.3150598406791687,-0.007871001027524471,0.007871001027524471,0.059999999997671694,-8.566979052182043,-9.526919093291239,0.10977110607682564,-0.00045507782361897437,0.0152764378313156,-0.7151986944131695,3.7452568941405793,-3.234266955207012,-0.0023282158045620505,4.948457176602169,0.014265762722851072,-0.08249549446495882,-0.11321830985482595,-0.1658883803303334,0.017164748284389728,-1.5171771616933385,0.7533444873676257,-0.03111200613610896
-8.566979052182043,-9.526919093291239,0.10977110607682564,-0.00045507782361897437,0.0152764378313156,-0.7151986944131695,3.7452568941405793,-3.234266955207012,-0.0023282158045620505,4.948457176602169,0.014265762722851072,-0.08249549446495882,-0.11321830985482595,-0.1658883803303334,-0.5297066569328308,-0.008302575908601284,0.008302575908601284,0.030000000002473826,-8.454484891590237,-9.622395005006615,0.10981206673324836,0.004764721487356925,0.015204252180595778,-0.7054819902498274,3.759087500274899,-3.134503625351964,0.002839315848210469,4.894204790801004,0.05110066308866079,-0.21346986346284422,-0.06610806472476895,-0.37156496874838774,0.17399331035151566,-1.808412859889717,1.2278300120924095,0.323890138751363
-8.454484891590237,-9.622395005006615,0.10981206673324836,0.004764721487356925,0.015204252180595778,-0.7054819902498274,3.759087500274899,-3.134503625351964,0.002839315848210469,4.894204790801004,0.05110066308866079,-0.21346986346284422,-0.06610806472476895,-0.37156496874838774,-0.560995876789093,-0.004849976859986782,0.004849976859986782,0.01999999999679858,-8.379121326597126,-9.684393758149026,0.10990006959887866,0.008770398376870879,0.01596459451171308,-0.6945078300459664,3.7781424664445327,-3.064544370562392,0.0015706662248537728,4.864337663508341,0.06333870279259157,0.03032117058208443,-0.5299180549004222,-0.7272308824461804,0.20028384450775732,-1.4933563648721904,0.6119019852944868,0.548708010280882
-8.379121326597126,-9.684393758149026,0.10990006959887866,0.008770398376870879,0.01596459451171308,-0.6945078300459664,3.7781424664445327,-3.064544370562392,0.0015706662248537728,4.864337663508341,0.06333870279259157,0.03032117058208443,-0.5299180549004222,-0.7272308824461804,-0.5932098627090454,-0.006113874725997448,0.006113874725997448,0.06000000000130967,-8.149645290793458,-9.858695681856034,0.11100741066420922,0.039196215682444614,0.016361615036690296,-0.6272661518322246,3.895075243016803,-2.7190213616712215,0.026290235275015034,4.7494745264620075,0.08473509588899342,-0.34731559803038425,-0.32594194352982414,-1.078253155029369,0.5070969550818267,-1.9143856173970981,0.35660655159891347,1.1206946368712347
-8.149645290793458,-9.858695681856034,0.11100741066420922,0.039196215682444614,0.016361615036690296,-0.6272661518322246,3.895075243016803,-2.7190213616712215,0.026290235275015034,4.7494745264620075,0.08473509588899342,-0.34731559803038425,-0.32594194352982414,-1.078253155029369,-0.5963233709335327,-0.007408599369227886,0.007408599369227886,0.040000000000873115,-7.992088252164634,-9.961668293540738,0.11215944393723673,0.05671037630282915,0.01775694505835481,-0.5704537276010548,3.991426504984871,-2.4100696748318113,0.02493693828832015,4.660879570109577,0.12697643550996762,-0.5416084077017929,-0.7857170701308572,-1.4344979981538544,0.437854015500056,-2.2148739087624203,1.0560334905013042,1.4203106057482406
-7.992088252164634,-9.961668293540738,0.11215944393723673,0.05671037630282915,0.01775694505835481,-0.5704537276010548,3.991426504984871,-2.4100696748318113,0.02493693828832015,4.660879570109577,0.12697643550996762,-0.5416084077017929,-0.7857170701308572,-1.4344979981538544,-0.5905278921127319,-0.007871001027524471,0.007871001027524471,0.03499999999985448,-7.850921493849597,-10.041461240548697,0.11289253202158933,0.06116226853149455,0.017880858201091164,-0.5188080058864116,4.071331657160454,-2.149019206517,0.011232771512002027,4.601169729317026,0.15251929252568552,0.12517801216507485,0.26009545432963477,-1.5097872473275094,0.12719692081954023,-1.7059954512228337,0.7297959147378315,1.475592048995941
-7.850921493849597,-10.041461240548697,0.11289253202158933,0.06116226853149455,0.017880858201091164,-0.5188080058864116,4.071331657160454,-2.149019206517,0.011232771512002027,4.601169729317026,0.15251929252568552,0.12517801216507485,0.26009545432963477,-1.5097872473275094,-0.5963233709335327,-0.004325921647250652,0.004325921647250652,0.04499999999825377,-7.665875434566968,-10.129701279573345,0.11273598638327745,0.06287771256994405,0.01756437164891481,-0.4504826944359188,4.149238279685034,-1.774794751894558,-0.0030290950931866067,4.5080438509876535,0.20884288479258095,-0.034861583549293876,0.39234482387866604,-1.5092652012593908,0.03812097863369049,-2.0694639629552496,1.251635383757357,1.5183402545143152
-7.665875434566968,-10.129701279573345,0.11273598638327745,0.06287771256994405,0.01756437164891481,-0.4504826944359188,4.149238279685034,-1.774794751894558,-0.0030290950931866067,4.5080438509876535,0.20884288479258095,-0.034861583549293876,0.39234482387866604,-1.5092652012593908,-0.5806941986083984,-0.008734150789678097,0.008734150789678097,0.040000000000873115,-7.49891409957643,-10.194010138119022,0.11237028965317164,0.06381533570314735,0.015871952000743237,-0.3877367579253791,4.197066814955517,-1.4345011276124975,-0.009393201914697613,4.4278830629562425,0.25887239155156117,-0.21092504040999954,0.3891938317869746,-1.5927845206162707,0.023440578329570697,-2.004019700741532,1.2507376689472043,1.5686484127292528
-7.49891409957643,-10.194010138119022,0.11237028965317164,0.06381533570314735,0.015871952000743237,-0.3877367579253791,4.197066814955517,-1.4345011276124975,-0.009393201914697613,4.4278830629562425,0.25887239155156117,-0.21092504040999954,0.3891938317869746,-1.5927845206162707,-0.5860580205917358,-0.007871001027524471,0.007871001027524471,0.04500000000189175,-7.309433701266901,-10.251018744481632,0.11200069523614889,0.05292856455015052,0.018188035098085604,-0.32035247981490494,4.211964653081154,-1.1127119643934913,-0.005376436394734077,4.348073016361345,0.27025025235849154,0.07803882907851654,0.14964966064889845,-1.6073387570211866,-0.24192824783420355,-1.7735565909231723,0.25284135125449025,1.497428402392031
-7.309433701266901,-10.251018744481632,0.11200069523614889,0.05292856455015052,0.018188035098085604,-0.32035247981490494,4.211964653081154,-1.1127119643934913,-0.005376436394734077,4.348073016361345,0.27025025235849154,0.07803882907851654,0.14964966064889845,-1.6073387570211866,-0.5860580205917358,-0.008734150789678097,0.008734150789678097,0.05500000000029104,-7.0780556695487,-10.300425923099946,0.11201839501567071,0.054734281662414556,0.0178964407518067,-0.2278239480559129,4.201478539175565,-0.685266089068865,0.0022006171904062483,4.247686081839916,0.2813795979172,-0.03477762291343155,0.1697809467191943,-1.5740833391535964,0.03283122022280876,-1.8252169912890426,0.20235173742999252,1.6823369410636801
-7.0780556695487,-10.300425923099946,0.11201839501567071,0.054734281662414556,0.0178964407518067,-0.2278239480559129,4.201478539175565,-0.685266089068865,0.0022006171904062483,4.247686081839916,0.2813795979172,-0.03477762291343155,0.1697809467191943,-1.5740833391535964,-0.5878459811210632,-0.006113874725997448,0.006113874725997448,0.05499999999665306,-6.848204776949503,-10.327208681934302,0.1121196394564358,0.05462294842491764,0.018198568102740342,-0.13960857089808595,4.157719444074466,-0.28196022721339803,0.0020546699121797296,4.156503403353127,0.29935264034078524,0.19869445512672052,0.49811836515080404,-1.6913991809608266,-0.002024240681885294,-1.657866881678874,0.3267825895396171,1.6039159484217302
-6.848204776949503,-10.327208681934302,0.1121196394564358,0.05462294842491764,0.018198568102740342,-0.13960857089808595,4.157719444074466,-0.28196022721339803,0.0020546699121797296,4.156503403353127,0.29935264034078524,0.19869445512672052,0.49811836515080404,-1.6913991809608266,-0.5815573334693909,-0.0069770244881510735,0.0069770244881510735,0.04500000000189175,-6.662748474064411,-10.333185186506537,0.1120098794866578,0.05169608085380673,0.017709916194627088,-0.06569696786962942,4.082801611700677,0.019911186237263723,-0.0016391733584759927,4.072686743662592,0.2879030111652321,-0.16213098273088952,-0.3373297158379724,-1.5437662279390991,-0.06504150157750814,-1.8625924374891378,-0.25443620389048477,1.6424800672299862
-6.662748474064411,-10.333185186506537,0.1120098794866578,0.05169608085380673,0.017709916194627088,-0.06569696786962942,4.082801611700677,0.019911186237263723,-0.0016391733584759927,4.072686743662592,0.2879030111652321,-0.16213098273088952,-0.3373297158379724,-1.5437662279390991,-0.5493741631507874,-0.00521989818662405,0.00521989818662405,0.049999999999272404,-6.460939752144845,-10.32357128015101,0.11193708141806477,0.04901343668343329,0.01762760142443935,0.019144115613790418,3.9834324318427323,0.3611616152813052,-0.0006187582072721687,3.989616193186262,0.2848408019843095,-0.2161892304936915,0.2675534171898757,-1.439698789192575,-0.0536528834082496,-1.6614110095507777,-0.06124418361934307,1.696821669693089
-6.460939752144845,-10.32357128015101,0.11193708141806477,0.04901343668343329,0.01762760142443935,0.019144115613790418,3.9834324318427323,0.3611616152813052,-0.0006187582072721687,3.989616193186262,0.2848408019843095,-0.2161892304936915,0.2675534171898757,-1.439698789192575,-0.5073572993278503,0.07063432037830353,0.0,0.03499999999985448,-6.322784037475577,-10.30764548204316,0.11173677256961384,0.0450693785773721,0.016642872407535522,0.06856032615542977,3.907808844700865,0.5587430247707091,-0.0056624069348572,3.9369056783407155,0.28971954421622936,-0.10761722196959753,0.09069515461624363,-1.4011285998901741,-0.1126873744593596,-1.5060147098790173,0.13939263519828995,1.4118917297669946
-6.322784037475577,-10.30764548204316,0.11173677256961384,0.0450693785773721,0.016642872407535522,0.06856032615542977,3.907808844700865,0.5587430247707091,-0.0056624069348572,3.9369056783407155,0.28971954421622936,-0.10761722196959753,0.09069515461624363,-1.4011285998901741,-0.4563697874546051,0.35491886734962463,0.0,0.03499999999985448,-6.18711803388563,-10.284638813683577,0.11146346926754105,0.040709697126173734,0.012763972572342895,0.11920715854507162,3.850853241540379,0.7585127824214016,-0.008486084509202789,3.91373080255113,0.29516695977224194,-0.2941339916229698,0.7050525226914631,-1.4420105643135703,-0.1245623271776141,-0.6621393082766194,0.1556404444581494,1.4470523539957836
-6.18711803388563,-10.284638813683577,0.11146346926754105,0.040709697126173734,0.012763972572342895,0.11920715854507162,3.850853241540379,0.7585127824214016,-0.008486084509202789,3.91373080255113,0.29516695977224194,-0.2941339916229698,0.7050525226914631,-1.4420105643135703,-0.4161408245563507,0.48106202483177185,0.0,0.040000000000873115,-6.032943317912347,-10.250707559546653,0.11092530126721539,0.031181773444631643,0.004150328419532009,0.16711401743408807,3.86065356551567,0.9359040787223825,-0.014132183239364752,3.9625462160512734,0.2806953564913073,-0.1448241015943726,0.3027344172932391,-1.3351464359307437,-0.2381980920333529,1.2203853374769438,-0.36179008201546947,1.1976714721992687
-6.032943317912347,-10.250707559546653,0.11092530126721539,0.031181773444631643,0.004150328419532009,0.16711401743408807,3.86065356551567,0.9359040787223825,-0.014132183239364752,3.9625462160512734,0.2806953564913073,-0.1448241015943726,0.3027344172932391,-1.3351464359307437,-0.245298832654953,0.613247275352478,0.0,0.04499999999825377,-5.857523618605425,-10.204094895891975,0.11027077747343675,0.020741001737564678,-0.004602022750302168,0.21427445184957603,3.935475969041328,1.1249012065586195,-0.011031343174497436,4.084672634665573,0.26234194295427815,-0.3945270616022748,0.1787645959360575,-0.9272976703430629,-0.232017149054936,2.7139204137564117,-0.40785363417202963,1.0480096537181782
-5.857523618605425,-10.204094895891975,0.11027077747343675,0.020741001737564678,-0.004602022750302168,0.21427445184957603,3.935475969041328,1.1249012065586195,-0.011031343174497436,4.084672634665573,0.26234194295427815,-0.3945270616022748,0.1787645959360575,-0.9272976703430629,-0.08879128843545914,0.6219095587730408,0.0,0.0650000000023283,-5.597055707253075,-10.125248010223585,0.10951002313877542,-0.0008793503131265353,-0.007934989763280923,0.26041352630843306,4.093159294723052,1.2432288542703631,-0.008457947201755384,4.275259402424669,0.14740433524010044,-0.4243888766013677,-0.10086580331098487,-0.6195294766301855,-0.3326208007679503,2.9321041192656794,-1.7682708878470867,0.7098319147262205
-5.597055707253075,-10.125248010223585,0.10951002313877542,-0.0008793503131265353,-0.007934989763280923,0.26041352630843306,4.093159294723052,1.2432288542703631,-0.008457947201755384,4.275259402424669,0.14740433524010044,-0.4243888766013677,-0.10086580331098487,-0.6195294766301855,0.0,0.6564663648605347,0.0,0.040000000000873115,-5.43094359636428,-10.074650970995934,0.10928754334518917,-0.00046999470818523165,-0.008939478660808103,0.27859680088403604,4.210477749830111,1.2842862037124025,-0.0019981176894312835,4.4013187736135375,0.07685693135613647,0.4876337069120466,-0.4625688367339789,-0.28055034869295953,0.010233890123309207,3.1514842796529265,-1.7636850970606017,0.45458186438015197
-5.43094359636428,-10.074650970995934,0.10928754334518917,-0.00046999470818523165,-0.008939478660808103,0.27859680088403604,4.210477749830111,1.2842862037124025,-0.0019981176894312835,4.4013187736135375,0.07685693135613647,0.4876337069120466,-0.4625688367339789,-0.28055034869295953,0.18327535688877106,0.6720030903816223,0.0,0.03499999999985448,-5.2818270393683315,-10.02912775284482,0.10937055108727603,-0.0005387571021799126,-0.008211415318983133,0.28782825264778483,4.300923799571789,1.32323432758386,0.003937314356861753,4.499622286588041,0.04789460783384136,0.10025770721739914,0.3254005067568497,-0.25059911177782224,-0.001964639828427624,2.8086717992832018,-0.8274949577833007,0.2637557646796334
-5.2818270393683315,-10.02912775284482,0.10937055108727603,-0.0005387571021799126,-0.008211415318983133,0.28782825264778483,4.300923799571789,1.32323432758386,0.003937314356861753,4.499622286588041,0.04789460783384136,0.10025770721739914,0.3254005067568497,-0.25059911177782224,0.26376408338546753,0.6685504913330078,0.0,0.024999999997817213,-5.173271744083956,-9.995402461236116,0.10949837984013144,-0.0005343071854630579,-0.009038402691095467,0.29293179756634774,4.3771587266696415,1.3688897457847067,0.004107084890925337,4.585979020656207,0.046626995140734984,-0.04861254470354246,0.5015851444994429,-0.05399454359327779,0.00017799666868972806,3.4542693630282604,-0.05070450772868225,0.20414179676034025
-5.173271744083956,-9.995402461236116,0.10949837984013144,-0.0005343071854630579,-0.009038402691095467,0.29293179756634774,4.3771587266696415,1.3688897457847067,0.004107084890925337,4.585979020656207,0.046626995140734984,-0.04861254470354246,0.5015851444994429,-0.05399454359327779,0.271624892950058,0.6676873564720154,0.0,0.03499999999985448,-5.018000177512276,-9.94847200580173,0.10975073592252818,-0.003104724104706551,-0.009461877268478839,0.2906413773485698,4.497276425522942,1.3141801245631561,0.0071724044738254375,4.685262232863989,-0.02970617207892845,-0.610092005158958,-0.18524786311597732,0.14506066150702293,-0.07344048340726228,2.8366632059484167,-2.1809476348565946,-0.06544057765106985
-5.018000177512276,-9.94847200580173,0.10975073592252818,-0.003104724104706551,-0.009461877268478839,0.2906413773485698,4.497276425522942,1.3141801245631561,0.0071724044738254375,4.685262232863989,-0.02970617207892845,-0.610092005158958,-0.18524786311597732,0.14506066150702293,0.2834315598011017,0.6530137658119202,0.0,0.049999999999272404,-4.788857005591863,-9.883877178084068,0.10983737639661875,-0.0019648396177992995,-0.009593638099921694,0.2782699435224363,4.669899440601962,1.2621959054198115,0.00020330173654817263,4.836974084781896,-0.06914471882509865,-0.10671381661082208,-0.03836066749690066,0.33711920057195577,0.022797689738476776,3.034237038402286,-0.7887709349348822,-0.24742867652627132
-4.788857005591863,-9.883877178084068,0.10983737639661875,-0.0019648396177992995,-0.009593638099921694,0.2782699435224363,4.669899440601962,1.2621959054198115,0.00020330173654817263,4.836974084781896,-0.06914471882509865,-0.10671381661082208,-0.03836066749690066,0.33711920057195577,0.26965197920799255,0.6521506309509277,0.0,0.02500000000145519,-4.670966577349322,-9.852819458238384,0.10981858435380795,-0.003497072841109022,-0.008872529389969923,0.2671845846814246,4.751230037402692,1.2134872140366593,0.0005295496199651736,4.903028276374168,-0.08397504405116818,-0.7657044042582186,-0.015593071252557166,0.5554011928346335,-0.0612893289288214,2.64216766353709,-0.5932130090082517,-0.44341435361465764
-4.670966577349322,-9.852819458238384,0.10981858435380795,-0.003497072841109022,-0.008872529389969923,0.2671845846814246,4.751230037402692,1.2134872140366593,0.0005295496199651736,4.903028276374168,-0.08397504405116818,-0.7657044042582186,-0.015593071252557166,0.5554011928346335,0.18426181375980377,0.6481123566627502,0.0,0.029999999998835847,-4.52689958383831,-9.816951616429547,0.10988548225922026,-0.006128478782635426,-0.009412413580186869,0.251482733784504,4.860019754483907,1.1700645725983578,0.0019620445763272945,4.998304762366902,-0.07610926700432263,-0.2502502903776722,0.13692621521622547,0.5201121319337422,-0.08771353138761719,3.1758828665477137,0.2621925682383593,-0.5233950299176641
-4.52689958383831,-9.816951616429547,0.10988548225922026,-0.006128478782635426,-0.009412413580186869,0.251482733784504,4.860019754483907,1.1700645725983578,0.0019620445763272945,4.998304762366902,-0.07610926700432263,-0.2502502903776722,0.13692621521622547,0.5201121319337422,0.09390853345394135,0.6472800374031067,0.0,0.06999999999970896,-4.178646484817558,-9.738557208975937,0.10986897624584133,0.0009992825947321348,-0.008407283386372326,0.2302357415263746,5.074854658073856,1.129512590368431,-0.005289549178570066,5.198705298075326,-0.05840989760530624,0.16183330104009397,0.3186778390584423,0.1439411303228544,0.10182516253424566,2.8628647958465248,0.2528481342727141,-0.30352846083168156
-4.178646484817558,-9.738557208975937,0.10986897624584133,0.0009992825947321348,-0.008407283386372326,0.2302357415263746,5.074854658073856,1.129512590368431,-0.005289549178570066,5.198705298075326,-0.05840989760530624,0.16183330104009397,0.3186778390584423,0.1439411303228544,0.0811462476849556,0.6486672163009644,0.0,0.03499999999985448,-3.999257024514905,-9.698244014780117,0.10971720250900333,-0.0014224102611686243,-0.009067125112542446,0.2221962706647338,5.182061318486371,1.1576939234360752,-0.005087637791231885,5.309788334179553,-0.012750495059130396,0.18371847378111256,0.1216779225068227,0.058297475434419634,-0.06919122445459508,3.173801031562538,1.304554358467591,-0.22969916747640665
-3.999257024514905,-9.698244014780117,0.10971720250900333,-0.0014224102611686243,-0.009067125112542446,0.2221962706647338,5.182061318486371,1.1576939234360752,-0.005087637791231885,5.309788334179553,-0.012750495059130396,0.18371847378111256,0.1216779225068227,0.058297475434419634,0.0,0.6426559686660767,0.0,0.03500000000349246,-3.815930168221829,-9.658997021431386,0.10976427221115401,-0.002642994407584364,-0.008423999684514412,0.21180451919644205,5.293326056238437,1.094413589504886,0.004976748570449566,5.405109385508789,-0.04282958359053857,0.050809249750223405,-0.16218201439371258,0.025106865052628307,-0.034873832751255544,2.723458609134989,-0.8594025293830498,-0.29690718477870875
-3.815930168221829,-9.658997021431386,0.10976427221115401,-0.002642994407584364,-0.008423999684514412,0.21180451919644205,5.293326056238437,1.094413589504886,0.004976748570449566,5.405109385508789,-0.04282958359053857,0.050809249750223405,-0.16218201439371258,0.025106865052628307,-0.08521538227796555,0.602057158946991,0.0,0.039999999997235136,-3.6021419564308523,-9.614259336264352,0.10985399104038143,0.0005646837917741186,-0.009305886355764322,0.21109579870057082,5.38407490988427,1.1634380685341086,0.0074275575299343755,5.508335586139381,0.009478661836191726,-0.8225225494088926,-0.1301077802903485,0.018060411727962553,0.08019195498950506,2.580655015943189,1.3077061357586481,-0.017718012398005422
-3.6021419564308523,-9.614259336264352,0.10985399104038143,0.0005646837917741186,-0.009305886355764322,0.21109579870057082,5.38407490988427,1.1634380685341086,0.0074275575299343755,5.508335586139381,0.009478661836191726,-0.8225225494088926,-0.1301077802903485,0.018060411727962553,-0.30072537064552307,0.4240633249282837,0.0,0.030000000002473826,-3.4395600113133726,-9.57882023782714,0.10990198758854897,-0.000518840551023931,-0.005682620560507285,0.21127739543295068,5.444111107369154,1.1943509057572732,-0.0017424029021498241,5.573521141154422,0.026113685456600644,-0.28384439299479836,0.02624751856667804,-0.022311558481154785,-0.03611747809029005,2.1728518336555127,0.5545007873012393,0.006053224412162756
-3.4395600113133726,-9.57882023782714,0.10990198758854897,-0.000518840551023931,-0.005682620560507285,0.21127739543295068,5.444111107369154,1.1943509057572732,-0.0017424029021498241,5.573521141154422,0.026113685456600644,-0.28384439299479836,0.02624751856667804,-0.022311558481154785,-0.3785629868507385,0.32726722955703735,0.0,0.029999999998835847,-3.2755797784422427,-9.542134704966562,0.10990420428173017,-0.00011457808274147463,-0.0023372509922161768,0.21211678524184588,5.478322321435826,1.2544965328955193,0.0022390658502062597,5.6196479926612195,0.07303045369989047,0.1932294345279666,0.27689489067767886,0.08780083739245098,0.013475415609938129,1.5375617169529194,1.5638922748370148,0.027979660297592312
-3.2755797784422427,-9.542134704966562,0.10990420428173017,-0.00011457808274147463,-0.0023372509922161768,0.21211678524184588,5.478322321435826,1.2544965328955193,0.0022390658502062597,5.6196479926612195,0.07303045369989047,0.1932294345279666,0.27689489067767886,0.08780083739245098,-0.616453230381012,-0.0,0.0,0.03499999999985448,-3.083973423581515,-9.497920143339423,0.11000403897668373,0.011754278126005954,0.005919948443847005,0.22989291665268263,5.450638553740137,1.3131652933647489,0.011627091964077421,5.6064718796128465,0.03656219805352201,0.3871183453449651,-0.27372800474542036,-0.8021872573638212,0.3391101773941936,-0.3764603728122213,-1.0419501613291453,0.5078894688831618
-3.083973423581515,-9.497920143339423,0.11000403897668373,0.011754278126005954,0.005919948443847005,0.22989291665268263,5.450638553740137,1.3131652933647489,0.011627091964077421,5.6064718796128465,0.03656219805352201,0.3871183453449651,-0.27372800474542036,-0.8021872573638212,-0.6316508650779724,-0.008734150789678097,0.008734150789678097,0.05500000000029104,-2.789043065661547,-9.419313321062175,0.11106967199427967,0.03906767317944919,0.01603880471867382,0.2773120359986633,5.252861516687387,1.5738138814336289,0.03365593886206,5.4830400734608125,0.07560290808790371,0.036578328523762055,-1.0630253691981297,-1.191724232242693,0.49660718278724914,-2.244214657297835,0.7098310915304565,0.8621658062859949
-2.789043065661547,-9.419313321062175,0.11106967199427967,0.03906767317944919,0.01603880471867382,0.2773120359986633,5.252861516687387,1.5738138814336289,0.03365593886206,5.4830400734608125,0.07560290808790371,0.036578328523762055,-1.0630253691981297,-1.191724232242693,-0.6370146870613098,-0.014899506233632565,0.014899506233632565,0.05500000000029104,-2.5070200821351776,-9.321696970653266,0.1128484275266515,0.06981550598846444,0.01769352247407022,0.36213385438826845,4.969571846402326,2.0075280958335866,0.027035185482135113,5.358468260280788,0.11675313991164948,0.02226638739820347,-0.6799486022589206,-1.9245770682894234,0.5590515056155008,-2.2649420578066364,0.7481860331550549,1.5422148798028423
-2.5070200821351776,-9.321696970653266,0.1128484275266515,0.06981550598846444,0.01769352247407022,0.36213385438826845,4.969571846402326,2.0075280958335866,0.027035185482135113,5.358468260280788,0.11675313991164948,0.02226638739820347,-0.6799486022589206,-1.9245770682894234,-0.6366447806358337,-0.018444586545228958,0.018444586545228958,0.06499999999869033,-2.1964616002179724,-9.175046710629442,0.11410354959012284,0.08607795613167098,0.020851247853802893,0.5044837496635518,4.562956837398431,2.5212432435492076,0.02721954750137942,5.2131794470724415,0.0016265685040641742,-0.11228108637976845,0.14603155680745247,-2.7547609083165816,0.2501915406697571,-2.235212510942679,-1.7711780216908457,2.189998388894639
-2.1964616002179724,-9.175046710629442,0.11410354959012284,0.08607795613167098,0.020851247853802893,0.5044837496635518,4.562956837398431,2.5212432435492076,0.02721954750137942,5.2131794470724415,0.0016265685040641742,-0.11228108637976845,0.14603155680745247,-2.7547609083165816,-0.6182720065116882,-0.021064862608909607,0.021064862608909607,0.06000000000130967,-1.9369076899817852,-9.009516476049116,0.11674065630358668,0.08766274356458242,0.02649229918282491,0.6509088703335072,4.093700107231794,2.9429348618351185,0.019662185334489823,5.039828061033055,-0.1392094974414042,0.01584697349137984,-1.026774111911633,-2.006396039640361,0.026413123881280906,-2.8891897672600435,-2.3472677657065706,2.440418677779321
-1.9369076899817852,-9.009516476049116,0.11674065630358668,0.08766274356458242,0.02649229918282491,0.6509088703335072,4.093700107231794,2.9429348618351185,0.019662185334489823,5.039828061033055,-0.1392094974414042,0.01584697349137984,-1.026774111911633,-2.006396039640361,-0.30519527196884155,-0.0,0.0,0.040000000000873115,-1.7782046814533903,-8.887402840222551,0.11651454493225771,0.07851671653760535,0.023293644108041852,0.7344889502505192,3.820500006053997,3.150915707154285,-0.033512780670577516,4.9472421006023835,-0.22200380149334054,-0.26068461018992606,-0.05472789103258982,-2.0677980587221723,-0.2286506756694359,-2.3146490107162654,-2.0698576012532275,2.0895019978796907
-1.7782046814533903,-8.887402840222551,0.11651454493225771,0.07851671653760535,0.023293644108041852,0.7344889502505192,3.820500006053997,3.150915707154285,-0.033512780670577516,4.9472421006023835,-0.22200380149334054,-0.26068461018992606,-0.05472789103258982,-2.0677980587221723,-0.12004964053630829,0.03521435335278511,0.0,0.039999999997235136,-1.6320110810624247,-8.756523031297176,0.11476220728412259,0.0830841187607139,0.018908249402406777,0.7897597927347526,3.4862525413274668,3.392524532671964,-0.04266844950180954,4.863694580010508,-0.08749010841095517,0.8798348506642544,-0.7734737986043771,-0.8447334800765656,0.11418505558560625,-2.0886880149412645,3.3628423272920793,1.3817710622013457
-1.6320110810624247,-8.756523031297176,0.11476220728412259,0.0830841187607139,0.018908249402406777,0.7897597927347526,3.4862525413274668,3.392524532671964,-0.04266844950180954,4.863694580010508,-0.08749010841095517,0.8798348506642544,-0.7734737986043771,-0.8447334800765656,-0.08250262588262558,0.11037003248929977,0.0,0.030000000002473826,-1.5311585644563523,-8.652416419986077,0.11341062446274142,0.07749418244591622,0.014784110583499575,0.8166283307329038,3.2448596681615904,3.547055978840342,-0.04779661433188466,4.806940088398672,0.06361894084724984,-0.31632653970855884,0.22664636791066023,-0.8619440261733455,-0.1863312104778909,-1.8918163869051803,5.036968308191481,0.8956179331978513
-1.5311585644563523,-8.652416419986077,0.11341062446274142,0.07749418244591622,0.014784110583499575,0.8166283307329038,3.2448596681615904,3.547055978840342,-0.04779661433188466,4.806940088398672,0.06361894084724984,-0.31632653970855884,0.22664636791066023,-0.8619440261733455,-0.07041852921247482,0.2633325159549713,0.0,0.04499999999825377,-1.39258471749557,-8.4893607978459,0.11127016785398705,0.04473897000888288,0.014748875270100636,0.8479145712654959,2.951963048320343,3.6666725098577926,-0.039296368766246335,4.70251318864673,0.21199727309363547,-0.8865274327441858,0.8532597577404026,-0.38349949674655104,-0.7278936097400978,-2.320597772355438,3.297296272269855,0.6952497896401371
-1.39258471749557,-8.4893607978459,0.11127016785398705,0.04473897000888288,0.014748875270100636,0.8479145712654959,2.951963048320343,3.6666725098577926,-0.039296368766246335,4.70251318864673,0.21199727309363547,-0.8865274327441858,0.8532597577404026,-0.38349949674655104,-0.0655478984117508,0.3704555630683899,0.0,0.05500000000029104,-1.2309706667880267,-8.28667407315155,0.10915970461543453,-0.010343734053573953,0.005137189298650643,0.8504065325501383,2.993080112871525,3.6649024186169354,-0.021393935982065994,4.7288205758245665,0.16820898224976988,-0.16835533243581027,0.12321368997787026,0.09486732922641805,-1.0015037102211883,0.47831613050358784,-0.7961507426115252,0.04530838699325958
-1.2309706667880267,-8.28667407315155,0.10915970461543453,-0.010343734053573953,0.005137189298650643,0.8504065325501383,2.993080112871525,3.6649024186169354,-0.021393935982065994,4.7288205758245665,0.16820898224976988,-0.16835533243581027,0.12321368997787026,0.09486732922641805,-0.027661792933940887,0.3799501955509186,0.0,0.03499999999985448,-1.1240449110202535,-8.15959262685938,0.1089596077359479,-0.010872377010167546,0.0025912470088459935,0.8511763267739052,3.110573326569912,3.6133891944485406,0.004176880762244338,4.767647471669809,0.04225489801385418,0.7005971292470257,-0.21431261203292032,-0.008967236823306024,-0.015104084474165471,1.1093398812972604,-3.5986881210411252,0.02199412067914528
-1.1240449110202535,-8.15959262685938,0.1089596077359479,-0.010872377010167546,0.0025912470088459935,0.8511763267739052,3.110573326569912,3.6133891944485406,0.004176880762244338,4.767647471669809,0.04225489801385418,0.7005971292470257,-0.21431261203292032,-0.008967236823306024,0.024178367108106613,0.33417242765426636,0.0,0.06499999999869033,-0.9212305081378407,-7.92353558125237,0.1096904391461491,0.002904464982298762,0.003068659692543343,0.8636744672657349,3.0909593917960145,3.6837324602634647,0.012996948757337836,4.808538446110713,0.04327600727740988,-0.429508729471526,0.197600453698811,0.2204429079075909,0.211951415272983,0.6290919144881225,0.01570937328578879,0.19227908449356243
-0.9212305081378407,-7.92353558125237,0.1096904391461491,0.002904464982298762,0.003068659692543343,0.8636744672657349,3.0909593917960145,3.6837324602634647,0.012996948757337836,4.808538446110713,0.04327600727740988,-0.429508729471526,0.197600453698811,0.2204429079075909,0.2254772186279297,0.33417242765426636,0.0,0.040000000000873115,-0.7957858747472857,-7.777066844607916,0.11008550378893953,-0.012970195172421588,0.003267820519644296,0.8502189380776711,3.1975356983137844,3.6250942612462325,0.00914333559933907,4.83377970515471,-0.010803098899839103,-0.24356034713756852,-0.15688711975292693,0.13316247321962563,-0.396866503859346,0.631031476086134,-1.3519776544017137,-0.3363882296942526
-0.7957858747472857,-7.777066844607916,0.11008550378893953,-0.012970195172421588,0.003267820519644296,0.8502189380776711,3.1975356983137844,3.6250942612462325,0.00914333559933907,4.83377970515471,-0.010803098899839103,-0.24356034713756852,-0.15688711975292693,0.13316247321962563,0.39043131470680237,0.4732936918735504,0.0,0.03499999999985448,-0.6823975646768918,-7.650870196058812,0.11027462180013359,-0.0034294305498151507,0.002158328764029074,0.8466795509030235,3.2651306957875383,3.6064145169259914,-0.0021332210146710606,4.86457488593158,-0.05670368270498383,0.29681793086939184,-0.3451432095559761,0.047871389900182366,0.2725932749327458,0.8798623079142373,-1.3114452515810162,-0.10112534784749572
-0.6823975646768918,-7.650870196058812,0.11027462180013359,-0.0034294305498151507,0.002158328764029074,0.8466795509030235,3.2651306957875383,3.6064145169259914,-0.0021332210146710606,4.86457488593158,-0.05670368270498383,0.29681793086939184,-0.3451432095559761,0.047871389900182366,0.3374400734901428,0.557080864906311,0.0,0.020000000000436557,-0.616588911788627,-7.578690160070771,0.11011699408810979,-0.002330171899628193,-0.00012250194459278185,0.8420650977658769,3.316301993793836,3.606931468178976,-0.008776922203819827,4.8992465835560886,-0.07208636275128733,-0.27772354689881174,0.23832162080991245,0.2742050839235078,0.05496293250814816,1.7335848811875958,-0.7691340022983864,-0.23072265685229332
-0.616588911788627,-7.578690160070771,0.11011699408810979,-0.002330171899628193,-0.00012250194459278185,0.8420650977658769,3.316301993793836,3.606931468178976,-0.008776922203819827,4.8992465835560886,-0.07208636275128733,-0.27772354689881174,0.23832162080991245,0.2742050839235078,0.01141608040779829,0.5536282658576965,0.0,0.06999999999970896,-0.3766511499212548,-7.326088701515552,0.10954318742780828,-0.00677188693978408,-0.005043260376971924,0.80779992223576,3.5472376877252563,3.6015013582483673,0.0007701696244971877,5.054513019712607,-0.07486908733918662,-0.2608692324622144,0.1088703693944222,0.6651433555722359,-0.06345307200249077,2.2180919451023384,-0.039753208398726696,-0.4895025075751334
-0.3766511499212548,-7.326088701515552,0.10954318742780828,-0.00677188693978408,-0.005043260376971924,0.80779992223576,3.5472376877252563,3.6015013582483673,0.0007701696244971877,5.054513019712607,-0.07486908733918662,-0.2608692324622144,0.1088703693944222,0.6651433555722359,-0.1460057944059372,0.557080864906311,0.0,0.03499999999985448,-0.25026667191633223,-7.200038590481008,0.10967585395400833,-0.0015512022625252377,-0.005783620864990583,0.795983569809578,3.6672268163847677,3.6049142571761994,0.004549594729978353,5.141425775185549,-0.09849021606971142,0.610387792656163,-0.4285602715158099,-0.27551946244863473,0.14916241935087282,2.4832215849515458,-0.6748893923035145,-0.3376100693208912
-0.25026667191633223,-7.200038590481008,0.10967585395400833,-0.0015512022625252377,-0.005783620864990583,0.795983569809578,3.6672268163847677,3.6049142571761994,0.004549594729978353,5.141425775185549,-0.09849021606971142,0.610387792656163,-0.4285602715158099,-0.27551946244863473,-0.41521602869033813,0.555385410785675,0.0,0.03499999999985448,-0.12295166943026459,-7.071230851893436,0.10994553197691628,0.012910773077151261,-0.005899168708047215,0.8050465335129667,3.614918742224387,3.759443517705945,0.012317282242374415,5.215462874993493,-0.0002743556045934348,-0.14165518543327676,-0.2843969219672177,-0.1839871314490129,0.4131992954210465,2.11534570880719,2.806167441872181,0.2589418200978986
-0.12295166943026459,-7.071230851893436,0.10994553197691628,0.012910773077151261,-0.005899168708047215,0.8050465335129667,3.614918742224387,3.759443517705945,0.012317282242374415,5.215462874993493,-0.0002743556045934348,-0.14165518543327676,-0.2843969219672177,-0.1839871314490129,-0.466203510761261,0.5558169484138489,0.0,0.03499999999985448,0.002484037671136363,-6.936931572686645,0.11039735669241454,0.02544943755779301,-0.004744328864778724,0.824511682909086,3.5420519251206852,3.919989062007233,0.01571133256894732,5.2828742628309,0.060709221921978695,0.14044820667228738,-0.7067180886583239,-0.7360435515305912,0.3582475565912538,1.9260396525053372,1.7423879293378766,0.5561471256057214
0.002484037671136363,-6.936931572686645,0.11039735669241454,0.02544943755779301,-0.004744328864778724,0.824511682909086,3.5420519251206852,3.919989062007233,0.01571133256894732,5.2828742628309,0.060709221921978695,0.14044820667228738,-0.7067180886583239,-0.7360435515305912,-0.5243428349494934,0.5536282658576965,0.0,0.030000000002473826,0.10796324551765579,-6.816919898495506,0.11087558300076159,0.03043575426705636,-0.004350043437637244,0.84677396405611,3.469885756073167,4.082455683693195,0.008597566134079884,5.3568249397357,0.10477659349275381,1.0148577833954937,-0.19871453428180327,-1.217859446905372,0.16621055696173903,2.465022563290086,1.4689123855713762,0.7420760381729411
0.10796324551765579,-6.816919898495506,0.11087558300076159,0.03043575426705636,-0.004350043437637244,0.84677396405611,3.469885756073167,4.082455683693195,0.008597566134079884,5.3568249397357,0.10477659349275381,1.0148577833954937,-0.19871453428180327,-1.217859446905372,-0.5323886275291443,0.5493125319480896,0.0,0.06999999999970896,0.3425550263367665,-6.518783150464348,0.1119739074217054,0.05029661173326041,-0.003724252928697182,0.9285779680731204,3.208522627097689,4.454662299384776,0.013175617393832151,5.488974844853631,0.09893837840785435,0.13419561554528486,-0.12537615382800227,-1.31346001446696,0.28372653523266606,1.887855787406862,-0.08340307264176756,1.1686286288192929
0.3425550263367665,-6.518783150464348,0.1119739074217054,0.05029661173326041,-0.003724252928697182,0.9285779680731204,3.208522627097689,4.454662299384776,0.013175617393832151,5.488974844853631,0.09893837840785435,0.13419561554528486,-0.12537615382800227,-1.31346001446696,-0.5753303170204163,0.5527651309967041,0.0,0.03499999999985448,0.4522196835935617,-6.359190766723729,0.11227697602746359,0.05307385681064995,-0.0034820701105530813,0.9647961029469355,3.0466415450833,4.658730508178736,0.0066314403809073635,5.564483130169405,0.14940597753421514,-0.054830681599181315,0.2180228335983792,-0.8880769871396768,0.07934985935431688,2.15737958045965,1.4419314036163033,1.0348038535418764
0.4522196835935617,-6.359190766723729,0.11227697602746359,0.05307385681064995,-0.0034820701105530813,0.9647961029469355,3.0466415450833,4.658730508178736,0.0066314403809073635,5.564483130169405,0.14940597753421514,-0.054830681599181315,0.2180228335983792,-0.8880769871396768,-0.6692286729812622,0.21493446826934814,0.0,0.06999999999970896,0.6528364630097041,-6.023701757216887,0.11234603874399121,0.054392920177181385,0.007124813549193698,1.045870128622374,2.647339578576512,4.915362383527309,-0.0029795114306197454,5.580274517295598,0.1724253963727871,0.37745209503267313,0.433700937285332,-1.4371430858043015,0.01884376237909881,0.22559124466083147,0.3288488405523951,1.1582003667967928
