x_pos,y_pos,z_pos,roll,pitch,yaw,u_x,u_y,u_z,comp_u_x,comp_u_y,roll_mder,pitch_mder,yaw_mder,steer,throttle,brake,time_step,act_x_pos,act_y_pos,act_z_pos,act_roll,act_pitch,act_yaw,act_u_x,act_u_y,act_u_z,act_comp_u_x,act_comp_u_y,act_roll_mder,act_pitch_mder,act_yaw_mder,accel_roll,accel_x,accel_y,accel_yaw
1.8810654399476014,-1.1631034992567215,0.10910511918719618,7.484997944588633e-07,-0.019124330894461677,2.1298674802572624,-0.211144250578406,0.3281767679209326,-0.0008820582324058331,0.39020194238953354,0.004932515664596737,0.03465690852795654,-0.06633720198132072,-0.015302812778706095,-0.018136318773031235,1.0,0.0,0.03999999999996362,1.8701239889003958,-1.1461444662348494,0.10924141350806332,5.427918318146668e-07,-0.020886784803404265,2.1309869620092545,-0.3306275217508818,0.514741469627379,0.005911879242176445,0.6117433837764557,0.006585673770834355,0.06890764109580463,-0.1255943157328309,-0.01987433567259843,-5.14269906610959e-06,5.53853603467809,0.04132895265597803,0.027987043799829667
1.8701239889003958,-1.1461444662348494,0.10924141350806332,5.427918318146668e-07,-0.020886784803404265,2.1309869620092545,-0.3306275217508818,0.514741469627379,0.005911879242176445,0.6117433837764557,0.006585673770834355,0.06890764109580463,-0.1255943157328309,-0.01987433567259843,-0.013666435144841671,1.0,0.0,0.030000000000086402,1.858763177999272,-1.1284957397970252,0.10945408551763708,-1.767336445632527e-05,-0.02125195149472634,2.1319082790720185,-0.4247473188467622,0.6550111852465081,0.0073764397668517594,0.7805942780202724,0.011068459132065556,-0.0207706335158271,-0.04268275261256686,-0.011336129326218532,-0.0006072052096029157,5.628363141444347,0.14942617870727634,0.030710568758711327
1.858763177999272,-1.1284957397970252,0.10945408551763708,-1.767336445632527e-05,-0.02125195149472634,2.1319082790720185,-0.4247473188467622,0.6550111852465081,0.0073764397668517594,0.7805942780202724,0.011068459132065556,-0.0207706335158271,-0.04268275261256686,-0.011336129326218532,-0.014991986565291882,1.0,0.0,0.029999999999972715,1.8447012729203678,-1.1066747805870687,0.10962926219258615,9.283718622153709e-06,-0.021206688374491654,2.133102157063143,-0.5134178460621953,0.7929673115826589,0.0042433953105836045,0.9445953504556441,0.011604559076171805,-0.014770236942728304,0.01645320067052281,-0.04526679581770068,0.0008985694359501165,5.466702414517364,0.017869998136891243,0.03979593303751853
1.8447012729203678,-1.1066747805870687,0.10962926219258615,9.283718622153709e-06,-0.021206688374491654,2.133102157063143,-0.5134178460621953,0.7929673115826589,0.0042433953105836045,0.9445953504556441,0.011604559076171805,-0.014770236942728304,0.01645320067052281,-0.04526679581770068,-0.016995728015899658,1.0,0.0,0.04499999999995907,1.8184155947787684,-1.0662338380785192,0.10971708552329501,1.8909538078744194e-06,-0.021330310616658528,2.135526204153506,-0.6534754924952969,0.9976912456317342,-0.00020418743437037798,1.1925149318427994,0.018060405148704883,0.07074764718245691,-0.1236484766993673,-0.07026912889109717,-0.0001642836625396892,5.509324030830684,0.1434632460564211,0.05386771311923002
1.8184155947787684,-1.0662338380785192,0.10971708552329501,1.8909538078744194e-06,-0.021330310616658528,2.135526204153506,-0.6534754924952969,0.9976912456317342,-0.00020418743437037798,1.1925149318427994,0.018060405148704883,0.07074764718245691,-0.1236484766993673,-0.07026912889109717,-0.016317538917064667,1.0,0.0,0.030000000000086402,1.7973517418409894,-1.034187451186437,0.10968461860388926,-1.3785051644747146e-05,-0.021343797096380436,2.1379691351199424,-0.7420819663317415,1.136962533226625,-0.0015728027556076926,1.3576239356641868,0.015056428114666898,0.08618556860381134,-0.11988428876232152,-0.06943798715592951,-0.0005225335150858806,5.503633460697062,-0.1001325678009778,0.0814310322143061
1.7973517418409894,-1.034187451186437,0.10968461860388926,-1.3785051644747146e-05,-0.021343797096380436,2.1379691351199424,-0.7420819663317415,1.136962533226625,-0.0015728027556076926,1.3576239356641868,0.015056428114666898,0.08618556860381134,-0.11988428876232152,-0.06943798715592951,-0.018136318773031235,1.0,0.0,0.03999999999996362,1.7650246310056303,-0.9850570639311002,0.10961234531121555,-3.6477559579532435e-06,-0.021229013133559738,2.1413123701834733,-0.8707654674468744,1.3149136287358407,-0.0013306812624662157,1.5769319513454132,0.02271499855111425,-0.025881245585141717,0.039598255050571664,-0.0979916335352046,0.00025343239217007804,5.482700392035646,0.191464260911358,0.08358087658834998
1.7650246310056303,-0.9850570639311002,0.10961234531121555,-3.6477559579532435e-06,-0.021229013133559738,2.1413123701834733,-0.8707654674468744,1.3149136287358407,-0.0013306812624662157,1.5769319513454132,0.02271499855111425,-0.025881245585141717,0.039598255050571664,-0.0979916335352046,-0.021712224930524826,1.0,0.0,0.01999999999998181,1.7469259132446506,-0.9578353444033353,0.10958539605985418,6.21504224218514e-06,-0.021229551841170795,2.143501124467246,-0.9345434716658595,1.4038979360322341,-0.0011943795874622132,1.6863254741883762,0.024643667182299156,0.047085718623943396,-0.08758444883910067,-0.09715020459694675,0.0004931399100073676,5.469676142153125,0.09643343155933293,0.1094377141887311
1.7469259132446506,-0.9578353444033353,0.10958539605985418,6.21504224218514e-06,-0.021229551841170795,2.143501124467246,-0.9345434716658595,1.4038979360322341,-0.0011943795874622132,1.6863254741883762,0.024643667182299156,0.047085718623943396,-0.08758444883910067,-0.09715020459694675,-0.021712224930524826,1.0,0.0,0.029999999999972715,1.7174265085228395,-0.9136671838612233,0.10956969127966065,5.259029089774227e-06,-0.021082293339947242,2.14673221765124,-1.0279532743776174,1.537837117458034,-0.0003188580716538547,1.8496016488547555,0.024590133978281137,-0.08836383402527584,0.0016624926510957654,-0.03918347419108845,-3.186710508039274e-05,5.442539155550928,-0.001784440133935596,0.1077031061332259
1.7174265085228395,-0.9136671838612233,0.10956969127966065,5.259029089774227e-06,-0.021082293339947242,2.14673221765124,-1.0279532743776174,1.537837117458034,-0.0003188580716538547,1.8496016488547555,0.024590133978281137,-0.08836383402527584,0.0016624926510957654,-0.03918347419108845,-0.014560411684215069,1.0,0.0,0.035000000000081855,1.6793044215978572,-0.8571055828949056,0.10958028926987215,-7.911720198666428e-07,-0.021186619870330617,2.1509809363335597,-1.1448037848899097,1.6922643054472968,0.00035479350275530175,2.04290129983172,0.02980712222192594,-0.033037656168776866,-0.001833728535964055,-0.10020483679461366,-0.00017286288884647773,5.522847170757497,0.14905680696093154,0.12139196235171346
1.6793044215978572,-0.8571055828949056,0.10958028926987215,-7.911720198666428e-07,-0.021186619870330617,2.1509809363335597,-1.1448037848899097,1.6922643054472968,0.00035479350275530175,2.04290129983172,0.02980712222192594,-0.033037656168776866,-0.001833728535964055,-0.10020483679461366,0.0,1.0,0.0,0.024999999999977263,1.649797027775202,-0.8132430862671974,0.10959735233455756,-9.723207619285642e-05,-0.021267519047577288,2.1531747165349566,-1.2201735175480473,1.807279759262488,0.0010833023781033624,2.1804719644160553,0.0250110687704328,-0.07742321541312212,-0.10021218121546756,0.0006398832688997897,-0.0038576361669230997,5.502826583378417,-0.1918421380599002,0.08775120805595714
1.649797027775202,-0.8132430862671974,0.10959735233455756,-9.723207619285642e-05,-0.021267519047577288,2.1531747165349566,-1.2201735175480473,1.807279759262488,0.0010833023781033624,2.1804719644160553,0.0250110687704328,-0.07742321541312212,-0.10021218121546756,0.0006398832688997897,0.0,1.0,0.0,0.024999999999977263,1.618239474022447,-0.7665954039497557,0.10961614199262651,1.0909572438723637e-05,-0.021314995406533085,2.1557900110900725,-1.3057832668789695,1.9164393108554154,0.0006087620455663689,2.3188111367720414,0.030405332345617486,0.04008308156102543,-0.03068485101303748,-0.14161246574562833,0.0043256659452671365,5.533566894244478,0.21577054300758375,0.10461178220473066
1.618239474022447,-0.7665954039497557,0.10961614199262651,1.0909572438723637e-05,-0.021314995406533085,2.1557900110900725,-1.3057832668789695,1.9164393108554154,0.0006087620455663689,2.3188111367720414,0.030405332345617486,0.04008308156102543,-0.03068485101303748,-0.14161246574562833,0.0,1.0,0.0,0.024999999999977263,1.5846483618789033,-0.7172313261066243,0.10962605592095573,-0.00012966057784333343,-0.02112031208435039,2.15846532627212,-1.38412305028123,2.0277970499114044,-0.0002600857375347626,2.454993369093187,0.02765956720004059,-0.16442055126066418,0.014749200362311636,-0.002531803484183493,-0.005622806011287397,5.4472892928507815,-0.10983060582317569,0.10701260728199953
1.5846483618789033,-0.7172313261066243,0.10962605592095573,-0.00012966057784333343,-0.02112031208435039,2.15846532627212,-1.38412305028123,2.0277970499114044,-0.0002600857375347626,2.454993369093187,0.02765956720004059,-0.16442055126066418,0.014749200362311636,-0.002531803484183493,-0.13170216977596283,1.0,0.0,0.029999999999972715,1.5419191878906489,-0.6543115374816325,0.1096300177350594,3.7201956982414684e-05,-0.020833622713590582,2.161135701155624,-1.465563007954446,2.1644301093252785,-6.035009641507799e-05,2.6138996211915377,0.012704281681993779,0.0680732501866675,0.2124126631664366,-0.12536592210717526,0.005562084494196663,5.296875069949839,-0.4985095172686805,0.08901249611687988
1.5419191878906489,-0.6543115374816325,0.1096300177350594,3.7201956982414684e-05,-0.020833622713590582,2.161135701155624,-1.465563007954446,2.1644301093252785,-6.035009641507799e-05,2.6138996211915377,0.012704281681993779,0.0680732501866675,0.2124126631664366,-0.12536592210717526,-0.31324106454849243,1.0,0.0,0.05000000000006821,1.4637889441016352,-0.5411859509006905,0.10962750785823744,0.00026748754133611353,-0.020871719422766857,2.167088268020186,-1.6501595762149832,2.3599646001445116,0.0006529721470418873,2.8793842090543253,0.04007639651780348,0.300098892410251,-0.41937695150243126,-0.18033486900038223,0.004605711687067694,5.309691757248508,0.5474422967154472,0.11905133729108032
1.4637889441016352,-0.5411859509006905,0.10962750785823744,0.00026748754133611353,-0.020871719422766857,2.167088268020186,-1.6501595762149832,2.3599646001445116,0.0006529721470418873,2.8793842090543253,0.04007639651780348,0.300098892410251,-0.41937695150243126,-0.18033486900038223,-0.5949978232383728,1.0,0.0,0.029999999999972715,1.4126734254804383,-0.4683081542776592,0.10962774504617975,0.0004345221386925106,-0.021012438893614073,2.1724025306194594,-1.7532046673268202,2.491710481361496,0.0007002011446559792,3.0464916314792867,0.035163443943365014,-0.014493888754354697,0.10147690908554621,-0.22239184617500626,0.005567819911884967,5.570247414170445,-0.1637650858147645,0.17714208664260297
1.4126734254804383,-0.4683081542776592,0.10962774504617975,0.0004345221386925106,-0.021012438893614073,2.1724025306194594,-1.7532046673268202,2.491710481361496,0.0007002011446559792,3.0464916314792867,0.035163443943365014,-0.014493888754354697,0.10147690908554621,-0.22239184617500626,-0.6938284635543823,1.0,0.0,0.029999999999972715,1.357996834209784,-0.3920355929458017,0.1096870690612565,0.006242663847583457,-0.019336982391389746,2.18391083406503,-1.8877510720889608,2.584568242503511,0.002725177027068329,3.2000595430649206,0.056710062333233946,0.2581610348348878,0.653670622637759,-0.6118283385103304,0.19360472362987433,5.118930386192451,0.7182206129962843,0.38361011485269964
1.357996834209784,-0.3920355929458017,0.1096870690612565,0.006242663847583457,-0.019336982391389746,2.18391083406503,-1.8877510720889608,2.584568242503511,0.002725177027068329,3.2000595430649206,0.056710062333233946,0.2581610348348878,0.653670622637759,-0.6118283385103304,-0.6361207365989685,1.0,0.0,0.07000000000005002,1.2087349215946492,-0.20847190886075498,0.11066106299143544,0.030569829180382427,-0.01757144002579848,2.2528414704616773,-2.397403388843328,2.6509223994703115,0.0084351553766513,3.569151453965199,0.18997493389658948,-0.10362742980869108,0.5362081459632807,-1.0188594767206225,0.3475309333254512,5.2727415842859235,1.9037838794751472,0.984723377094258
1.2087349215946492,-0.20847190886075498,0.11066106299143544,0.030569829180382427,-0.01757144002579848,2.2528414704616773,-2.397403388843328,2.6509223994703115,0.0084351553766513,3.569151453965199,0.18997493389658948,-0.10362742980869108,0.5362081459632807,-1.0188594767206225,-0.34724298119544983,1.0,0.0,0.04499999999995907,1.0942194094165405,-0.08838909240188211,0.11090859901216218,0.02647200542097326,-0.01851345516938815,2.2969008520429037,-2.698166795565119,2.6848449719860517,-0.0005008017323732683,3.7991167833784076,0.23496435163962137,0.16813610796729364,-0.25668093188320346,-0.9782716556526245,-0.09106275020917544,5.110340653631508,0.9997648387349513,0.9790973684725897
1.0942194094165405,-0.08838909240188211,0.11090859901216218,0.02647200542097326,-0.01851345516938815,2.2969008520429037,-2.698166795565119,2.6848449719860517,-0.0005008017323732683,3.7991167833784076,0.23496435163962137,0.16813610796729364,-0.25668093188320346,-0.9782716556526245,0.0,1.0,0.0,0.029999999999972715,1.0106453656675978,-0.006988713122463998,0.1107299645602963,0.01830453440970343,-0.01965684390680101,2.3230056350849724,-2.870734207310058,2.741859072217346,-0.010227420200095316,3.9634933105933197,0.22277081901066986,-0.4736582661401376,-0.11888959500802314,-0.7190657414650151,-0.27224903370924186,5.479217573835384,-0.40645108763208665,0.870159434736413
1.0106453656675978,-0.006988713122463998,0.1107299645602963,0.01830453440970343,-0.01965684390680101,2.3230056350849724,-2.870734207310058,2.741859072217346,-0.010227420200095316,3.9634933105933197,0.22277081901066986,-0.4736582661401376,-0.11888959500802314,-0.7190657414650151,0.0,1.0,0.0,0.035000000000081855,0.9072135349313495,0.09095211429829389,0.11013928448908708,-0.004037505420671134,-0.020621851200237722,2.3368584335058387,-3.010125966178756,2.8696511800630935,-0.01998170380749134,4.15493253850413,0.1796992709521199,-0.5936171126019467,-0.27112703205724015,-0.08047857827020087,-0.6383439951520661,5.469692226010355,-1.230615658812835,0.395794240595254
0.9072135349313495,0.09095211429829389,0.11013928448908708,-0.004037505420671134,-0.020621851200237722,2.3368584335058387,-3.010125966178756,2.8696511800630935,-0.01998170380749134,4.15493253850413,0.1796992709521199,-0.5936171126019467,-0.27112703205724015,-0.08047857827020087,0.0,1.0,0.0,0.03499999999996817,0.8016512197309158,0.1957593486740601,0.10987189001537481,-0.017579733884492358,-0.02189194684055653,2.336232469283693,-3.0317628396681013,3.116836920073312,0.001196843247543447,4.3480511344184585,0.026638971579884707,-0.045548596531073376,-0.3071828360351126,0.09563900803204725,-0.38692081325238686,5.517674168985837,-4.373151410639268,-0.01788469206131794
0.8016512197309158,0.1957593486740601,0.10987189001537481,-0.017579733884492358,-0.02189194684055653,2.336232469283693,-3.0317628396681013,3.116836920073312,0.001196843247543447,4.3480511344184585,0.026638971579884707,-0.045548596531073376,-0.3071828360351126,0.09563900803204725,-0.0029078898951411247,1.0,0.0,0.03999999999996362,0.6789964887474174,0.32520764128498275,0.11000033977826545,-0.0029324457205575165,-0.02089668763747572,2.339533654702103,-3.1146290226439524,3.3295733476693763,-0.0016726284159387095,4.558638912088222,-0.0760519256915515,0.34051569374246077,0.49092137492016996,-0.34281493544065594,0.36618220409870406,5.264694441748877,-2.5672724317882403,0.082529635460324
0.6789964887474174,0.32520764128498275,0.11000033977826545,-0.0029324457205575165,-0.02089668763747572,2.339533654702103,-3.1146290226439524,3.3295733476693763,-0.0016726284159387095,4.558638912088222,-0.0760519256915515,0.34051569374246077,0.49092137492016996,-0.34281493544065594,-0.00022596027702093124,1.0,0.0,0.030000000000086402,0.5828692831727711,0.425954088206525,0.10999210940883666,0.012796145917649682,-0.019847486705019877,2.3485164258671616,-3.2963091404171196,3.366930976454,0.002946973240424283,4.711866807741987,-0.013759923774199212,0.29581909376834814,0.44461092169093613,-0.370984087187761,0.52428638793873,5.107596521777447,2.076400063905763,0.2994257055010884
0.5828692831727711,0.425954088206525,0.10999210940883666,0.012796145917649682,-0.019847486705019877,2.3485164258671616,-3.2963091404171196,3.366930976454,0.002946973240424283,4.711866807741987,-0.013759923774199212,0.29581909376834814,0.44461092169093613,-0.370984087187761,0.0,1.0,0.0,0.03499999999996817,0.4636303224605385,0.5449165966129704,0.1101734981048178,0.00775071983542023,-0.021194973398310994,2.351141822808684,-3.5006818326356575,3.4288399356451045,0.004442214587425691,4.899592612974797,0.07555676344888029,0.08386645957498935,-0.7357099546909337,0.09375623914584828,-0.1441550309209726,5.363594435228038,2.551905349233164,0.07501134118642301
0.4636303224605385,0.5449165966129704,0.1101734981048178,0.00775071983542023,-0.021194973398310994,2.351141822808684,-3.5006818326356575,3.4288399356451045,0.004442214587425691,4.899592612974797,0.07555676344888029,0.08386645957498935,-0.7357099546909337,0.09375623914584828,0.0,1.0,0.0,0.03499999999996817,0.33916066944332535,0.6677258315861282,0.11007931416580946,-0.0066209456650556065,-0.0206897384425215,2.345944253542471,-3.584534061473619,3.6050549679334174,-0.0010735131943766796,5.0836888210685895,0.037599604096690165,-0.2542695704880812,0.10672795306493921,-0.016894820252637596,-0.41061901429968306,5.259891659827419,-1.0844902672064185,-0.14850197903479723
0.33916066944332535,0.6677258315861282,0.11007931416580946,-0.0066209456650556065,-0.0206897384425215,2.345944253542471,-3.584534061473619,3.6050549679334174,-0.0010735131943766796,5.0836888210685895,0.037599604096690165,-0.2542695704880812,0.10672795306493921,-0.016894820252637596,-0.00022596027702093124,1.0,0.0,0.03999999999996362,0.19407306659380197,0.8164446358234222,0.10996487938285895,0.00018286527659105753,-0.019722359905126056,2.3461301390476885,-3.6678117152896403,3.802879490891157,-0.003298002865985708,5.283270078322714,-0.0423376966358231,0.08645774523299761,0.48151181755111905,-0.04812073488468447,0.17009527354132128,4.989531431357638,-1.9984325183146492,0.0046471376304466705
0.19407306659380197,0.8164446358234222,0.10996487938285895,0.00018286527659105753,-0.019722359905126056,2.3461301390476885,-3.6678117152896403,3.802879490891157,-0.003298002865985708,5.283270078322714,-0.0423376966358231,0.08645774523299761,0.48151181755111905,-0.04812073488468447,0.0,1.0,0.0,0.02500000000009095,0.10033839882754947,0.9122374700458066,0.10988775622612793,0.00232764947262139,-0.02099214964214525,2.346599034156357,-3.8163241222873934,3.8591725906643273,-0.0038171067571592526,5.427436641833276,0.021780490650936013,-0.611168382946221,-0.12546933729315304,-0.03660504792140254,0.08579136784090119,5.7666625404015015,2.564727491461034,0.01875580434667794
0.10033839882754947,0.9122374700458066,0.10988775622612793,0.00232764947262139,-0.02099214964214525,2.346599034156357,-3.8163241222873934,3.8591725906643273,-0.0038171067571592526,5.427436641833276,0.021780490650936013,-0.611168382946221,-0.12546933729315304,-0.03660504792140254,0.0,1.0,0.0,0.03499999999996817,-0.03544775195247496,1.0497481616468898,0.10981364063370533,-0.000763019669458746,-0.02014577512233242,2.345350425386474,-3.9211047654585274,4.011935763278796,-0.002104363121243666,5.609873405512422,-0.0033947756113876792,-0.10703362135533516,0.6568321852005968,-0.11842999057947796,-0.08830483263094134,5.212478962266073,-0.7192933217813311,-0.035674536282412676
-0.03544775195247496,1.0497481616468898,0.10981364063370533,-0.000763019669458746,-0.02014577512233242,2.345350425386474,-3.9211047654585274,4.011935763278796,-0.002104363121243666,5.609873405512422,-0.0033947756113876792,-0.10703362135533516,0.6568321852005968,-0.11842999057947796,-0.00022596027702093124,1.0,0.0,0.06499999999994088,-0.2980444317398394,1.3186291946887598,0.10987745644594707,-0.0014959674903258185,-0.021052933180521975,2.3434557176520654,-4.155068355849891,4.262549862016384,0.0027448095342083034,5.952640114924698,-0.00017363838030481915,0.4067650039945543,-0.15865976160673795,-0.13540493949841767,-0.01127612032104214,5.273333990962884,0.04955595740131984,-0.02914934976015688
-0.2980444317398394,1.3186291946887598,0.10987745644594707,-0.0014959674903258185,-0.021052933180521975,2.3434557176520654,-4.155068355849891,4.262549862016384,0.0027448095342083034,5.952640114924698,-0.00017363838030481915,0.4067650039945543,-0.15865976160673795,-0.13540493949841767,0.0,1.0,0.0,0.035000000000081855,-0.4461232941245594,1.4699264004220238,0.10988700461987538,-0.000940043906858774,-0.02043456496693945,2.343447558305631,-4.298075322474757,4.388572836523917,-0.002751918436997791,6.14270447706081,0.014308271703700193,0.1044431957078358,0.3047350718937939,0.006010076760339472,0.015883530956164123,5.430410346733351,0.4137688595420327,-0.0002331241838423057
-0.4461232941245594,1.4699264004220238,0.10988700461987538,-0.000940043906858774,-0.02043456496693945,2.343447558305631,-4.298075322474757,4.388572836523917,-0.002751918436997791,6.14270447706081,0.014308271703700193,0.1044431957078358,0.3047350718937939,0.006010076760339472,0.0,1.0,0.0,0.03999999999996362,-0.6205643523753714,1.6482237973160683,0.10993922221583433,0.0008033392168137685,-0.020328466561475727,2.3431747438738886,-4.447919610882598,4.524736431644697,0.0004540351097008233,6.344795372342363,0.028289995223107933,0.2142481802953237,-0.14379278988932126,-0.2537412682054257,0.043584578091853204,5.05227238204342,0.3495430879855114,-0.00682036079356417
-0.6205643523753714,1.6482237973160683,0.10993922221583433,0.0008033392168137685,-0.020328466561475727,2.3431747438738886,-4.447919610882598,4.524736431644697,0.0004540351097008233,6.344795372342363,0.028289995223107933,0.2142481802953237,-0.14379278988932126,-0.2537412682054257,0.0,1.0,0.0,0.029999999999972715,-0.7550637220420704,1.7862790677504379,0.10991352234383811,-0.002228697720657053,-0.01912992763507238,2.34466840937653,-4.505100427167569,4.665123260511125,0.004380781412147525,6.485200820534719,-0.038408488165600385,0.538913818800187,-0.5005431300174288,0.16375438186782337,-0.10106789791578598,4.680181606416139,-2.2232827796256327,0.04978885008809215
-0.7550637220420704,1.7862790677504379,0.10991352234383811,-0.002228697720657053,-0.01912992763507238,2.34466840937653,-4.505100427167569,4.665123260511125,0.004380781412147525,6.485200820534719,-0.038408488165600385,0.538913818800187,-0.5005431300174288,0.16375438186782337,0.0,1.0,0.0,0.030000000000086402,-0.8922931715555,1.9280447064150672,0.10995875192366888,0.0019338298076081453,-0.021960354753377653,2.344645807800552,-4.663491870333401,4.777683625669527,-0.0031707454331588447,6.676406516439231,-0.003644023081473158,-0.08379817098495894,0.24377480847290273,-0.007734239859167502,0.13875091760844033,6.373523196798706,1.1588155028009035,-0.0007533858659274128
-0.8922931715555,1.9280447064150672,0.10995875192366888,0.0019338298076081453,-0.021960354753377653,2.344645807800552,-4.663491870333401,4.777683625669527,-0.0031707454331588447,6.676406516439231,-0.003644023081473158,-0.08379817098495894,0.24377480847290273,-0.007734239859167502,0.0,1.0,0.0,0.03499999999996817,-1.0576362554533478,2.0965114884872316,0.10998549770259824,-0.0022124098320729347,-0.020761119703272417,2.343005461261255,-4.782349367992659,4.883494865756542,0.0036964074650686907,6.835132816004434,0.01862710362868336,-0.17146397582820874,-0.11236192271371699,0.1811688914669746,-0.11846398970528146,4.535037130438484,0.6363179060050507,-0.046867043979954046
-1.0576362554533478,2.0965114884872316,0.10998549770259824,-0.0022124098320729347,-0.020761119703272417,2.343005461261255,-4.782349367992659,4.883494865756542,0.0036964074650686907,6.835132816004434,0.01862710362868336,-0.17146397582820874,-0.11236192271371699,0.1811688914669746,0.0,1.0,0.0,0.03999999999996362,-1.2510658460087143,2.2948801135160166,0.11011953998513166,-0.001103788078333948,-0.019588072624412586,2.3421321035265787,-4.899886981200054,5.042336389710552,0.00022808231098128684,7.030934876736878,-0.0018586602748538184,-0.04043671737179399,0.10354420289546955,0.12566624100705617,0.027715543843499876,4.895051518315563,-0.5121440975888952,-0.021833943366931105
-1.2510658460087143,2.2948801135160166,0.11011953998513166,-0.001103788078333948,-0.019588072624412586,2.3421321035265787,-4.899886981200054,5.042336389710552,0.00022808231098128684,7.030934876736878,-0.0018586602748538184,-0.04043671737179399,0.10354420289546955,0.12566624100705617,0.0,1.0,0.0,0.024999999999977263,-1.3746141538114642,2.4216606895913015,0.11014737077058173,0.0020941221025401412,-0.0204926332990545,2.346075174025123,-5.008376671266432,5.113838125020626,-0.003380024802351639,7.157874870803447,-0.0021410560089032415,-0.1480306854497831,-0.04028853611871336,-0.09514725373498135,0.1279164072350799,5.077599762667368,-0.011295829361987201,0.15772281994191806
-1.3746141538114642,2.4216606895913015,0.11014737077058173,0.0020941221025401412,-0.0204926332990545,2.346075174025123,-5.008376671266432,5.113838125020626,-0.003380024802351639,7.157874870803447,-0.0021410560089032415,-0.1480306854497831,-0.04028853611871336,-0.09514725373498135,0.0,1.0,0.0,0.035000000000081855,-1.5530468640032584,2.6018770577927257,0.11013077037056643,-0.0004282667046083945,-0.01981782517055321,2.346111820431908,-5.171690208663007,5.199847429227876,-0.005881573361493281,7.3336125653126505,0.05403372573638432,0.08043783189480876,0.7579871728390294,-0.005879646125770722,-0.07206825163264677,5.0210769859655064,1.6049937641473195,0.001047040193845853
-1.5530468640032584,2.6018770577927257,0.11013077037056643,-0.0004282667046083945,-0.01981782517055321,2.346111820431908,-5.171690208663007,5.199847429227876,-0.005881573361493281,7.3336125653126505,0.05403372573638432,0.08043783189480876,0.7579871728390294,-0.005879646125770722,0.0,1.0,0.0,0.03999999999996362,-1.7620524373904765,2.813416623126446,0.11013781869453412,-0.003017775614442087,-0.02129944282336329,2.3469330367323655,-5.274983671289053,5.38695261923356,0.009542320288259298,7.5395373772543826,-0.009348326992288047,-0.11718287693460931,0.38787658481713483,0.01989186666151451,-0.0647377227459012,5.148120298547984,-1.5845513182182502,0.020530407511461866
-1.7620524373904765,2.813416623126446,0.11013781869453412,-0.003017775614442087,-0.02129944282336329,2.3469330367323655,-5.274983671289053,5.38695261923356,0.009542320288259298,7.5395373772543826,-0.009348326992288047,-0.11718287693460931,0.38787658481713483,0.01989186666151451,-0.001119936816394329,1.0,0.0,0.029999999999972715,-1.9221583803438724,2.9765288710281395,0.11015143225640231,0.0030203588957478417,-0.021090588995569207,2.3480871099608738,-5.420679548392259,5.475203697902236,-0.003122391877485281,7.704612294935329,0.02390992705573103,0.471242814289672,-0.16877230844073976,-0.2647161773641402,0.20127115033984735,5.50249725603654,1.1086084682683108,0.03846910761697651
-1.9221583803438724,2.9765288710281395,0.11015143225640231,0.0030203588957478417,-0.021090588995569207,2.3480871099608738,-5.420679548392259,5.475203697902236,-0.003122391877485281,7.704612294935329,0.02390992705573103,0.471242814289672,-0.16877230844073976,-0.2647161773641402,0.0,1.0,0.0,0.03999999999996362,-2.141504602016237,3.1979931468706906,0.11026648159818109,-0.004569839992439806,-0.01917702114932272,2.342582712978096,-5.521233981435869,5.632664186776173,0.005277739190360675,7.887338869770244,0.02856697681791598,-0.03382363003320027,0.7003597101357878,0.08335368504609217,-0.1897549722048638,4.56816437087704,0.11642624405472965,-0.13760992456957358
-2.141504602016237,3.1979931468706906,0.11026648159818109,-0.004569839992439806,-0.01917702114932272,2.342582712978096,-5.521233981435869,5.632664186776173,0.005277739190360675,7.887338869770244,0.02856697681791598,-0.03382363003320027,0.7003597101357878,0.08335368504609217,0.0,1.0,0.0,0.04000000000007731,-2.364113869677122,3.4274811307247983,0.11035418778071934,0.0027846349957747728,-0.018066330877422782,2.3457783307513846,-5.601479417717665,5.816108248700787,-0.000199027038252364,8.07459648251739,-0.06766440894437586,0.7630808845007498,0.9911692225461114,-0.17376338486791934,0.18386187470500912,4.681440318669583,-2.4057846440526465,0.07989044433206574
-2.364113869677122,3.4274811307247983,0.11035418778071934,0.0027846349957747728,-0.018066330877422782,2.3457783307513846,-5.601479417717665,5.816108248700787,-0.000199027038252364,8.07459648251739,-0.06766440894437586,0.7630808845007498,0.9911692225461114,-0.17376338486791934,0.0,0.14147424697875977,0.0,0.06499999999994088,-2.7386068243871753,3.8060648723530153,0.11088352267992041,-0.003328981990903526,0.0023226127698827994,2.3482298203370013,-5.806650730849328,5.798415186043363,0.0038012474528286537,8.205714147855232,0.07118078041032838,-0.9220641258941147,-0.40863636791911734,0.5295694461101911,-0.09405564594898244,2.0171948513532683,2.136079836228162,0.037715224394137305
-2.7386068243871753,3.8060648723530153,0.11088352267992041,-0.003328981990903526,0.0023226127698827994,2.3482298203370013,-5.806650730849328,5.798415186043363,0.0038012474528286537,8.205714147855232,0.07118078041032838,-0.9220641258941147,-0.40863636791911734,0.5295694461101911,0.0,-0.0,0.0,0.035000000000081855,-2.9393445345295977,4.009969743947356,0.11114186916915794,-0.007904124400165299,0.011944234630117142,2.340954323446564,-5.688011009581499,5.842834451457412,0.007330188793695874,8.154260533883066,0.014792491846439049,0.3628719193325905,0.039060465747091,0.037581387614412765,-0.13071835455003067,-1.470103256344161,-1.6110939589644988,-0.20787133972628988
-2.9393445345295977,4.009969743947356,0.11114186916915794,-0.007904124400165299,0.011944234630117142,2.340954323446564,-5.688011009581499,5.842834451457412,0.007330188793695874,8.154260533883066,0.014792491846439049,0.3628719193325905,0.039060465747091,0.037581387614412765,0.0,-0.04307518154382706,0.04307518154382706,0.06999999999993634,-3.334802546674381,4.414248763171467,0.11070958047477078,0.006726441320599899,0.017351596075300374,2.3595704890385663,-5.667340244869457,5.679729041885681,-0.01835881188790238,8.023514341021894,-0.03584773036944089,-0.49740866757709584,0.41154435588682037,0.23344784147022807,0.2090080817254072,-1.8678027551613077,-0.7234317459417999,0.2659452227431287
-3.334802546674381,4.414248763171467,0.11070958047477078,0.006726441320599899,0.017351596075300374,2.3595704890385663,-5.667340244869457,5.679729041885681,-0.01835881188790238,8.023514341021894,-0.03584773036944089,-0.49740866757709584,0.41154435588682037,0.23344784147022807,-0.001119936816394329,-0.2816127836704254,0.2816127836704254,0.029999999999972715,-3.503812218552886,4.583517304869638,0.11039490167515761,-0.00039107114817620107,0.023494954892564663,2.3523169729756295,-5.584633492038787,5.621934062436161,-0.00723296764757525,7.924282611787548,0.004351011699957663,-0.058865054671308745,0.3076242582663947,0.048079523776515594,-0.2372504156260858,-3.307724307814552,1.3399580689811703,-0.2417838687647793
-3.503812218552886,4.583517304869638,0.11039490167515761,-0.00039107114817620107,0.023494954892564663,2.3523169729756295,-5.584633492038787,5.621934062436161,-0.00723296764757525,7.924282611787548,0.004351011699957663,-0.058865054671308745,0.3076242582663947,0.048079523776515594,-0.00022596027702093124,-1.0,1.0,0.035000000000081855,-3.696976570836357,4.77841047821764,0.11038335433537047,0.00047581897458098056,0.03237440617402362,2.3536220397737475,-5.450648440900329,5.503941016974026,0.001352391861739466,7.746135799932686,-0.017757072378574268,0.5475520653273205,0.5757371147309397,-0.12929820431725414,0.024768289221575836,-5.089908910126995,-0.631659545099435,0.03728762280328529
-3.696976570836357,4.77841047821764,0.11038335433537047,0.00047581897458098056,0.03237440617402362,2.3536220397737475,-5.450648440900329,5.503941016974026,0.001352391861739466,7.746135799932686,-0.017757072378574268,0.5475520653273205,0.5757371147309397,-0.12929820431725414,-0.000750015489757061,-1.0,1.0,0.03499999999996817,-3.885056667218022,4.967476119620365,0.11055715358772364,0.002305351917970138,0.041021470750304455,2.3505959832594416,-5.307111355414649,5.3028729348753485,0.0067271678442916705,7.502257486743627,0.04499894225205692,0.1295503752855743,-0.2772330020490285,0.0656033300474737,0.05227236981116633,-6.967951805408028,1.793028989448236,-0.08645875755167506
-3.885056667218022,4.967476119620365,0.11055715358772364,0.002305351917970138,0.041021470750304455,2.3505959832594416,-5.307111355414649,5.3028729348753485,0.0067271678442916705,7.502257486743627,0.04499894225205692,0.1295503752855743,-0.2772330020490285,0.0656033300474737,-0.000657535158097744,-1.0,1.0,0.07000000000005002,-4.243486703077089,5.3276144324652694,0.11053856833669853,-0.0010084686920780333,0.04376004382441096,2.3584563021145173,-4.948925936271925,4.989021296690687,-0.01148025267194025,7.027107778523396,-0.044245797022475664,-0.497708865611759,0.44838253826455954,0.035844773285177794,-0.04734029442922576,-6.787852974569877,-1.2749248467781258,0.11229026935814339
-4.243486703077089,5.3276144324652694,0.11053856833669853,-0.0010084686920780333,0.04376004382441096,2.3584563021145173,-4.948925936271925,4.989021296690687,-0.01148025267194025,7.027107778523396,-0.044245797022475664,-0.497708865611759,0.44838253826455954,0.035844773285177794,-0.00022596027702093124,-1.0,1.0,0.03999999999996362,-4.438782542579835,5.522137704345591,0.11051712405700384,-0.0007334700888792751,0.04149062013190235,2.3633967651424457,-4.823310486459605,4.762745006673537,0.005072586751462715,6.778497482366966,-0.005994074542454708,0.10863991409155926,-0.9573481811809951,-0.13340067312896667,0.006874965079975209,-6.215257403916409,0.9562930620013936,0.12351157569832202
-4.438782542579835,5.522137704345591,0.11051712405700384,-0.0007334700888792751,0.04149062013190235,2.3633967651424457,-4.823310486459605,4.762745006673537,0.005072586751462715,6.778497482366966,-0.005994074542454708,0.10863991409155926,-0.9573481811809951,-0.13340067312896667,-0.00022596027702093124,-1.0,1.0,0.05999999999994543,-4.718010608487552,5.8002673893130865,0.11044571782301149,-0.002844952378257934,0.044551557913886215,2.3424457419583047,-4.503287874663631,4.499987529850516,0.006983505590704875,6.365643313948215,0.08985905902584745,0.41311807939195705,-0.5454192230768159,0.26710608433304406,-0.035191371489676326,-6.88090280698543,1.5975522261398223,-0.3491837197360008
-4.718010608487552,5.8002673893130865,0.11044571782301149,-0.002844952378257934,0.044551557913886215,2.3424457419583047,-4.503287874663631,4.499987529850516,0.006983505590704875,6.365643313948215,0.08985905902584745,0.41311807939195705,-0.5454192230768159,0.26710608433304406,-0.0127416318282485,-1.0,1.0,0.030000000000086402,-4.85093977855217,5.933162016656971,0.11045263152983487,-0.001218824758547378,0.044331469689988856,2.341044385387579,-4.356429531422151,4.359986459758029,0.004477295899190492,6.162767638028838,0.09085830278422069,0.2451946430300443,-0.1921679228567322,-0.2794572564008825,0.05420425399019576,-6.762522530626425,0.03330812527901194,-0.04671188569072614
-4.85093977855217,5.933162016656971,0.11045263152983487,-0.001218824758547378,0.044331469689988856,2.341044385387579,-4.356429531422151,4.359986459758029,0.004477295899190492,6.162767638028838,0.09085830278422069,0.2451946430300443,-0.1921679228567322,-0.2794572564008825,-0.016317538917064667,-1.0,1.0,0.03999999999996362,-5.021233901965289,6.103761493217196,0.11027311041406371,-0.000851947165503164,0.04380714339213877,2.3415490779492023,-4.156992912687526,4.190284666305902,-0.006554927992728998,5.90212834556696,0.0629019337358212,-0.006457664904047147,0.3218166984827863,0.15113641023781182,0.00917193982611369,-6.515982311552879,-0.6989092262106228,0.012617314040597556
-5.021233901965289,6.103761493217196,0.11027311041406371,-0.000851947165503164,0.04380714339213877,2.3415490779492023,-4.156992912687526,4.190284666305902,-0.006554927992728998,5.90212834556696,0.0629019337358212,-0.006457664904047147,0.3218166984827863,0.15113641023781182,-0.028833210468292236,-1.0,1.0,0.03499999999996817,-5.163766953945007,6.247328233623134,0.11024236009911101,-0.0010349030499775137,0.043617914213116754,2.3449267391293707,-3.989888414642622,4.024672282699381,-0.008474420361037321,5.667067598873796,0.03926033905669257,-0.15015549820536028,1.007917750884954,-0.03894069143395157,-0.005227310984986171,-6.716021334096508,-0.6754741336900038,0.0965046051477551
-5.163766953945007,6.247328233623134,0.11024236009911101,-0.0010349030499775137,0.043617914213116754,2.3449267391293707,-3.989888414642622,4.024672282699381,-0.008474420361037321,5.667067598873796,0.03926033905669257,-0.15015549820536028,1.007917750884954,-0.03894069143395157,-0.0315459668636322,-0.9084136486053467,0.9084136486053467,0.029999999999972715,-5.281176570199863,6.365863219624062,0.11019722095755419,0.00023888754063334784,0.04461322222507093,2.34786248111217,-3.841144667987081,3.8779257219906205,0.005814947619031646,5.458234254948108,0.019470074297048612,0.369771215378105,-0.12730413510075456,-0.09798947659170747,0.042459686353734004,-6.9611114641959375,-0.659675491988732,0.09785806609340753
-5.281176570199863,6.365863219624062,0.11019722095755419,0.00023888754063334784,0.04461322222507093,2.34786248111217,-3.841144667987081,3.8779257219906205,0.005814947619031646,5.458234254948108,0.019470074297048612,0.369771215378105,-0.12730413510075456,-0.09798947659170747,-0.0315459668636322,-0.18919409811496735,0.18919409811496735,0.030000000000086402,-5.394359376658693,6.4802006670141274,0.11011743621687528,0.0001922241263502875,0.04023294825384597,2.3498165393506754,-3.7126792374934663,3.751131786160755,-0.004485487899062307,5.277777460311796,0.006471250683663943,-0.10644694215880586,-0.5291475313954079,-0.32312795099701097,-0.0015554471427641982,-6.015226487859736,-0.4332941204449077,0.06513527461665043
-5.394359376658693,6.4802006670141274,0.11011743621687528,0.0001922241263502875,0.04023294825384597,2.3498165393506754,-3.7126792374934663,3.751131786160755,-0.004485487899062307,5.277777460311796,0.006471250683663943,-0.10644694215880586,-0.5291475313954079,-0.32312795099701097,-0.0315459668636322,-0.090610072016716,0.090610072016716,0.029999999999972715,-5.5052679494849865,6.590985281553611,0.10991498282924858,-6.0789855216163177e-05,0.028859914984152312,2.3532853458167264,-3.675968447694723,3.6619743061042715,-0.010089848260560474,5.188658337880834,0.02498999309157135,0.130494353131922,-0.1082499754112662,-0.09969757272118931,-0.008433799385556027,-2.9706374143681162,0.617291413597475,0.11562688220180775
-5.5052679494849865,6.590985281553611,0.10991498282924858,-6.0789855216163177e-05,0.028859914984152312,2.3532853458167264,-3.675968447694723,3.6619743061042715,-0.010089848260560474,5.188658337880834,0.02498999309157135,0.130494353131922,-0.1082499754112662,-0.09969757272118931,-0.0315459668636322,-0.021958839148283005,0.021958839148283005,0.029999999999972715,-5.614545799059222,6.700540628784295,0.10962804450190936,5.381290441235833e-05,0.02184685156314337,2.354144385825899,-3.6189916046703092,3.634920960115601,-0.011985061386475718,5.129303077536184,-0.0007481575574952437,-0.0903598168978255,-0.1649171075157888,0.1618942783500148,0.003820091987620858,-1.9785086781567955,-0.8579383549696667,0.028634666972445533
-5.614545799059222,6.700540628784295,0.10962804450190936,5.381290441235833e-05,0.02184685156314337,2.354144385825899,-3.6189916046703092,3.634920960115601,-0.011985061386475718,5.129303077536184,-0.0007481575574952437,-0.0903598168978255,-0.1649171075157888,0.1618942783500148,-0.0315459668636322,-0.013142379932105541,0.013142379932105541,0.029999999999972715,-5.722807760275119,6.808892911993878,0.10943415091939904,-0.0009653913487329985,0.017756514072592978,2.352625772582123,-3.5843301253135995,3.606613421961836,-0.0016722085707481654,5.084788797293584,0.0023894818564151876,0.28138242056863577,0.03273410059299231,-0.21821372316862048,-0.033973475104876125,-1.4838093414213556,0.10458798046377617,-0.050620441459249786
-5.722807760275119,6.808892911993878,0.10943415091939904,-0.0009653913487329985,0.017756514072592978,2.352625772582123,-3.5843301253135995,3.606613421961836,-0.0016722085707481654,5.084788797293584,0.0023894818564151876,0.28138242056863577,0.03273410059299231,-0.21821372316862048,-0.0315459668636322,-0.013142379932105541,0.013142379932105541,0.035000000000081855,-5.847489465416809,6.934315646161514,0.10945676184254269,0.00021279842868391748,0.01658311030373513,2.355772408343861,-3.544637829737558,3.556678321894508,0.0008288490268089088,5.021391952448946,-0.006394475888278794,0.16740506672557787,-0.05720159882548642,-0.02139850751429409,0.03366256506897602,-1.8113384241282728,-0.25097022127638396,0.08990387890659016
-5.847489465416809,6.934315646161514,0.10945676184254269,0.00021279842868391748,0.01658311030373513,2.355772408343861,-3.544637829737558,3.556678321894508,0.0008288490268089088,5.021391952448946,-0.006394475888278794,0.16740506672557787,-0.05720159882548642,-0.02139850751429409,-0.034227896481752396,-0.010522103868424892,0.010522103868424892,0.03999999999996362,-5.9886114178922725,7.075458665780639,0.10960948986035202,-0.00036021601114184977,0.016712801155352668,2.3556427695931004,-3.5051315111493038,3.506124964998129,0.0013227329818642497,4.957706631941357,0.002032791091171937,-0.6161180392676326,-0.29070958701127597,0.12569191937661278,-0.01432536099565721,-1.5921330126911706,0.2106816744864599,-0.0032409687690167555
-5.9886114178922725,7.075458665780639,0.10960948986035202,-0.00036021601114184977,0.016712801155352668,2.3556427695931004,-3.5051315111493038,3.506124964998129,0.0013227329818642497,4.957706631941357,0.002032791091171937,-0.6161180392676326,-0.29070958701127597,0.12569191937661278,-0.034227896481752396,-0.00916572567075491,0.00916572567075491,0.05999999999994543,-6.196717909466343,7.283855712490829,0.10977046258351744,0.0010086867519564925,0.01627405358648855,2.3553640419956317,-3.445668252119746,3.4314160006024994,0.003416861813628186,4.862822863936172,0.0141161905767202,0.3032121941576799,0.3395856272401407,-0.019387643134569463,0.02281504605165979,-1.5813961334211892,0.20138999142598754,-0.0046454599578162215
-6.196717909466343,7.283855712490829,0.10977046258351744,0.0010086867519564925,0.01627405358648855,2.3553640419956317,-3.445668252119746,3.4314160006024994,0.003416861813628186,4.862822863936172,0.0141161905767202,0.3032121941576799,0.3395856272401407,-0.019387643134569463,-0.034227896481752396,-0.011107812635600567,0.011107812635600567,0.030000000000086402,-6.2991516975795925,7.386623577545272,0.10976874437798434,-0.0007634087308178417,0.015882580622077678,2.3542156784684964,-3.395035706234804,3.4136229461135343,-0.001573415761322125,4.814465285733444,-0.003616256307816812,-0.2942879359502416,-0.2294338492698279,0.194388523679669,-0.059069849425641016,-1.6119192734196135,-0.5910815628161981,-0.03827878423773009
-6.2991516975795925,7.386623577545272,0.10976874437798434,-0.0007634087308178417,0.015882580622077678,2.3542156784684964,-3.395035706234804,3.4136229461135343,-0.001573415761322125,4.814465285733444,-0.003616256307816812,-0.2942879359502416,-0.2294338492698279,0.194388523679669,-0.11650456488132477,0.1388847976922989,0.0,0.03499999999996817,-6.417296901343142,7.505452456379536,0.10970201804446009,-3.952331565578254e-05,0.015480319271183648,2.3534391886329664,-3.3552729434795396,3.3859979831226714,-0.004760847645789254,4.76684015329368,-0.008591851007805573,-0.29036934821442706,0.1114753290757717,-0.019897012588038193,0.0206824404332205,-1.3607180697087826,-0.14215984857123676,-0.022185423872306615
-6.417296901343142,7.505452456379536,0.10970201804446009,-3.952331565578254e-05,0.015480319271183648,2.3534391886329664,-3.3552729434795396,3.3859979831226714,-0.004760847645789254,4.76684015329368,-0.008591851007805573,-0.29036934821442706,0.1114753290757717,-0.019897012588038193,-0.2426169067621231,0.5579439997673035,0.0,0.029999999999972715,-6.5178634525814045,7.606350990718664,0.10961573880132344,0.0004874579761105564,0.010781489650286627,2.3538967960651758,-3.361319631906403,3.3506786665030703,-0.0010890711854213628,4.746069695326625,0.018429354313766577,0.004679811829253057,-0.3047395999128229,0.14572008933524383,0.01756604305889394,-0.6923485989024671,0.9007068440532242,0.015253581073658887
-6.5178634525814045,7.606350990718664,0.10961573880132344,0.0004874579761105564,0.010781489650286627,2.3538967960651758,-3.361319631906403,3.3506786665030703,-0.0010890711854213628,4.746069695326625,0.018429354313766577,0.004679811829253057,-0.3047395999128229,0.14572008933524383,-0.34277310967445374,0.7411475777626038,0.0,0.01999999999998181,-6.585377090816683,7.673334742048395,0.10953772176248569,-8.588770169881516e-05,0.004767730713643041,2.3538193703961037,-3.393357027998374,3.3575092025686706,-0.004421248173341909,4.7735096211176415,0.03668599046749543,0.17455793909632997,-0.40899044377517996,0.1288332023241176,-0.02866728389049465,1.3719962895520732,0.912831807687273,-0.003871283453608289
-6.585377090816683,7.673334742048395,0.10953772176248569,-8.588770169881516e-05,0.004767730713643041,2.3538193703961037,-3.393357027998374,3.3575092025686706,-0.004421248173341909,4.7735096211176415,0.03668599046749543,0.17455793909632997,-0.40899044377517996,0.1288332023241176,-0.4679914712905884,0.7446001768112183,0.0,0.04000000000007731,-6.723530711530941,7.80871374029765,0.10935465887704468,0.00036595279068107455,-0.0070778217871306556,2.3610375318895556,-3.522402631203091,3.407412975099341,-0.0012064232416430787,4.900455927433283,0.05757762122391563,0.07587772643934486,-0.010433103216400398,-0.13090845810844776,0.01129601230947541,3.1736576578849043,0.5222907689094956,0.18045403733594853
-6.723530711530941,7.80871374029765,0.10935465887704468,0.00036595279068107455,-0.0070778217871306556,2.3610375318895556,-3.522402631203091,3.407412975099341,-0.0012064232416430787,4.900455927433283,0.05757762122391563,0.07587772643934486,-0.010433103216400398,-0.13090845810844776,-0.6352575421333313,0.6556032299995422,0.0,0.03499999999996817,-6.8495048318791865,7.928657457846643,0.10937971936976462,0.004793077212751862,-0.00958181806173755,2.376378353450656,-3.6688827933946695,3.436813569704203,0.0036851087544566147,5.0267745607272865,0.06265764275340757,0.13798799539137982,0.5941159025760678,-0.6910573517681771,0.12648926920213754,3.6091038084033795,0.14514347227133031,0.4383091874604162
-6.8495048318791865,7.928657457846643,0.10937971936976462,0.004793077212751862,-0.00958181806173755,2.376378353450656,-3.6688827933946695,3.436813569704203,0.0036851087544566147,5.0267745607272865,0.06265764275340757,0.13798799539137982,0.5941159025760678,-0.6910573517681771,-0.6540310978889465,0.6556032299995422,0.0,0.07500000000004547,-7.140911573795049,8.179269467482833,0.11133169252660305,0.04730349929611482,-0.006479471473506067,2.4606877050563263,-4.120101997591311,3.2128325861370572,0.031518718464275404,5.223799800283441,0.09720773456223153,0.3577302322369521,0.8065216599205495,-1.235935019061259,0.5668056277778291,2.627003194080467,0.46066789078404013,1.1241246880749198
-7.140911573795049,8.179269467482833,0.11133169252660305,0.04730349929611482,-0.006479471473506067,2.4606877050563263,-4.120101997591311,3.2128325861370572,0.031518718464275404,5.223799800283441,0.09720773456223153,0.3577302322369521,0.8065216599205495,-1.235935019061259,-0.6379395127296448,0.6469717621803284,0.0,0.024999999999977263,-7.245587234281336,8.258671946924022,0.1119726988756326,0.04596676453419671,-0.007341391691485314,2.4886952044304445,-4.260189224349995,3.1337927187068426,0.023308189889351065,5.287732392023864,0.09876832199351337,0.5663059328008413,-0.0908104679462888,-0.9689144221058986,-0.05346939047677307,2.557303669619254,0.062423497251330604,1.1202999749657458
-7.245587234281336,8.258671946924022,0.1119726988756326,0.04596676453419671,-0.007341391691485314,2.4886952044304445,-4.260189224349995,3.1337927187068426,0.023308189889351065,5.287732392023864,0.09876832199351337,0.5663059328008413,-0.0908104679462888,-0.9689144221058986,-0.6200291514396667,0.6340245008468628,0.0,0.01999999999998181,-7.332042622570048,8.320751649857346,0.11226641004450141,0.046222560579631596,-0.006338230661740476,2.5094833002477817,-4.389273885148799,3.0668174629162857,0.003604304825940652,5.353214080133203,0.11913690427879953,-0.2540674842095169,0.4377641236749994,-1.0612559424646621,0.012789802271756013,3.2740844054699036,1.0184291142652337,1.0394047908678055
-7.332042622570048,8.320751649857346,0.11226641004450141,0.046222560579631596,-0.006338230661740476,2.5094833002477817,-4.389273885148799,3.0668174629162857,0.003604304825940652,5.353214080133203,0.11913690427879953,-0.2540674842095169,0.4377641236749994,-1.0612559424646621,-0.5154030323028564,0.6335929036140442,0.0,0.06499999999994088,-7.627740800908761,8.512376895691492,0.11196271646383535,0.04254459569420791,-0.006049395531819655,2.5741074042231933,-4.723192967726692,2.8305753213281384,-0.01045513533272445,5.504329271319936,0.1518806537558901,-0.6954249623915753,-0.4137390044091226,-0.9334397981218673,-0.056584075160415845,2.324849095182622,0.5037499919556978,0.9942169842380062
-7.627740800908761,8.512376895691492,0.11196271646383535,0.04254459569420791,-0.006049395531819655,2.5741074042231933,-4.723192967726692,2.8305753213281384,-0.01045513533272445,5.504329271319936,0.1518806537558901,-0.6954249623915753,-0.4137390044091226,-0.9334397981218673,-0.21937352418899536,0.6383402347564697,0.0,0.035000000000081855,-7.795833258074318,8.609137275906047,0.1115477803671738,0.04433308290366892,-0.005918576902236324,2.6142696923866477,-4.894269959552828,2.6895509702478555,-0.009373213012954074,5.582859745659356,0.13870803451413138,0.007322664846042451,-0.0879482553945228,-1.1463379020753823,0.05109963455590933,2.243727838263894,-0.3763605497636547,1.1474939475245867
-7.795833258074318,8.609137275906047,0.1115477803671738,0.04433308290366892,-0.005918576902236324,2.6142696923866477,-4.894269959552828,2.6895509702478555,-0.009373213012954074,5.582859745659356,0.13870803451413138,0.007322664846042451,-0.0879482553945228,-1.1463379020753823,-0.033303093165159225,0.6383402347564697,0.0,0.03499999999996817,-7.970314360992182,8.700806109205597,0.11138253849054983,0.04370532666182432,-0.008062781758352146,2.6522904536728866,-5.083005107516722,2.5418406150617745,0.001188903528364968,5.681261322983795,0.14547994840220557,0.6615422799931495,-0.3344601710560909,-0.5990154669891458,-0.017935892624147742,2.8114736378436933,0.19348325394515278,1.0863074653220988
-7.970314360992182,8.700806109205597,0.11138253849054983,0.04370532666182432,-0.008062781758352146,2.6522904536728866,-5.083005107516722,2.5418406150617745,0.001188903528364968,5.681261322983795,0.14547994840220557,0.6615422799931495,-0.3344601710560909,-0.5990154669891458,-0.02793923392891884,0.6374770998954773,0.0,0.03499999999996817,-8.151161530511699,8.788334820367036,0.11122115206572755,0.02500770679778252,-0.0073392767540703336,2.669474149861079,-5.22168071314152,2.478754092210473,-0.01162809711611272,5.777737653915509,0.16708956332221758,-0.2726359291285294,-0.28723136395776255,-0.21912587543644454,-0.5342177104016801,2.7564665980514795,0.6174175691437618,0.4909627482345081
-8.151161530511699,8.788334820367036,0.11122115206572755,0.02500770679778252,-0.0073392767540703336,2.669474149861079,-5.22168071314152,2.478754092210473,-0.01162809711611272,5.777737653915509,0.16708956332221758,-0.2726359291285294,-0.28723136395776255,-0.21912587543644454,0.0,0.6357199549674988,0.0,0.035000000000081855,-8.335781349411205,8.875477008031117,0.11048124178078675,-0.005922673593716711,-0.008563774963147917,2.6672452444939436,-5.293350557999191,2.5451148598830957,-0.02015191537594719,5.871418535370706,0.15366900264340755,0.7439647582696981,-1.3356617224451235,0.07410696359010972,-0.8837251540407685,2.6765966129993637,-0.3834445908222471,-0.06368301048942702
-8.335781349411205,8.875477008031117,0.11048124178078675,-0.005922673593716711,-0.008563774963147917,2.6672452444939436,-5.293350557999191,2.5451148598830957,-0.02015191537594719,5.871418535370706,0.15366900264340755,0.7439647582696981,-1.3356617224451235,0.07410696359010972,0.0,0.6340245008468628,0.0,0.03499999999996817,-8.52160021066243,8.967906835785588,0.11001680737866446,-0.016296793188925695,-0.008464335465418894,2.6656785947353,-5.316581881456837,2.722685963682034,-0.003416253407038543,5.973174711753524,0.015672330218817532,-0.14704566113979944,0.34201646793708484,-0.02024793203168222,-0.29640341700624057,2.9073193252260054,-3.9427620692775864,-0.04476142167557598
-8.52160021066243,8.967906835785588,0.11001680737866446,-0.016296793188925695,-0.008464335465418894,2.6656785947353,-5.316581881456837,2.722685963682034,-0.003416253407038543,5.973174711753524,0.015672330218817532,-0.14704566113979944,0.34201646793708484,-0.02024793203168222,-0.00916572567075491,0.6244990229606628,0.0,0.03499999999996817,-8.708657134282625,9.065173126901525,0.10984932491070287,2.9977678184417944e-05,-0.008410258943362992,2.6686896542672747,-5.388543301490979,2.8064012935603744,-0.009832157692528314,6.075388502904781,-0.0440643996105754,0.3958316567731444,0.1984700026182039,-0.09357257619976685,0.4664791676321418,2.920394032895721,-1.706763709412779,0.08603027234221482
-8.708657134282625,9.065173126901525,0.10984932491070287,2.9977678184417944e-05,-0.008410258943362992,2.6686896542672747,-5.388543301490979,2.8064012935603744,-0.009832157692528314,6.075388502904781,-0.0440643996105754,0.3958316567731444,0.1984700026182039,-0.09357257619976685,-0.022606201469898224,0.561396598815918,0.0,0.03999999999996362,-8.926690267502094,9.176775868788212,0.10976788287533432,-0.0014240175950967426,-0.008081398518969971,2.6685186091174926,-5.5066949397526495,2.8118001985346166,-0.005039810189154184,6.183031092945244,0.006001637200708565,0.1212217312923106,-0.13769230786550804,0.05320522284674044,-0.03634988183206207,2.691064751014021,1.2516509202832375,-0.0042761287445553
-8.926690267502094,9.176775868788212,0.10976788287533432,-0.0014240175950967426,-0.008081398518969971,2.6685186091174926,-5.5066949397526495,2.8118001985346166,-0.005039810189154184,6.183031092945244,0.006001637200708565,0.1212217312923106,-0.13769230786550804,0.05320522284674044,-0.03780380263924599,0.23999662697315216,0.0,0.02500000000009095,-9.064677616118471,9.24768275676979,0.10978122469086807,-0.0003406978407212652,-0.0048304717679295405,2.6696812751548955,-5.542455507074977,2.8423550232786075,-0.0030765465913869805,6.228775770647053,-0.012145997822239796,-0.67518278486353,-0.5121104614104955,0.048570211231915926,0.04333279017486145,1.8297871080656816,-0.7259054009152937,0.04650664149594653
-9.064677616118471,9.24768275676979,0.10978122469086807,-0.0003406978407212652,-0.0048304717679295405,2.6696812751548955,-5.542455507074977,2.8423550232786075,-0.0030765465913869805,6.228775770647053,-0.012145997822239796,-0.67518278486353,-0.5121104614104955,0.048570211231915926,-0.04137970879673958,0.1717461496591568,0.0,0.03499999999996817,-9.259076784048023,9.347658737788898,0.10993560284153012,-0.0004736395182707212,0.0027412878410085955,2.668136455146521,-5.550813690122535,2.8601902961629446,0.012343485015213543,6.244358125733386,-0.01458596256216893,-0.11151871078118825,-0.05388527604065313,0.26615830403740004,-0.003798333644273625,0.4452101453242046,-0.06971327828375297,-0.044137714525026586
-9.259076784048023,9.347658737788898,0.10993560284153012,-0.0004736395182707212,0.0027412878410085955,2.668136455146521,-5.550813690122535,2.8601902961629446,0.012343485015213543,6.244358125733386,-0.01458596256216893,-0.11151871078118825,-0.05388527604065313,0.26615830403740004,-0.11024672538042068,-0.0,0.0,0.03499999999996817,-9.452962106675589,9.448356746030159,0.11005797901649642,0.0009953863881727886,0.0073783249839445095,2.6637266758413993,-5.521515060152461,2.877272608340291,0.0012568725875660575,6.226201086599562,-0.015692400141589236,0.24566116893642115,0.09276314798848315,0.09266911730246262,0.04197216875556702,-0.5187725466811494,-0.03161250226918033,-0.12599369443216182
-9.452962106675589,9.448356746030159,0.11005797901649642,0.0009953863881727886,0.0073783249839445095,2.6637266758413993,-5.521515060152461,2.877272608340291,0.0012568725875660575,6.226201086599562,-0.015692400141589236,0.24566116893642115,0.09276314798848315,0.09266911730246262,-0.12051204591989517,-0.0,0.0,0.04000000000007731,-9.672801669477431,9.562958642860416,0.11016712535403969,0.002556563673666112,0.01332800370797515,2.6618599688417977,-5.464732240232294,2.8386491463335255,0.0017355863575434366,6.158020099426015,0.0039860355671375025,0.5762173907059991,0.24486645395708748,-0.20984308406112456,0.03902943213725765,-1.7045246793353872,0.49196089271721766,-0.04666767498995168
-9.672801669477431,9.562958642860416,0.11016712535403969,0.002556563673666112,0.01332800370797515,2.6618599688417977,-5.464732240232294,2.8386491463335255,0.0017355863575434366,6.158020099426015,0.0039860355671375025,0.5762173907059991,0.24486645395708748,-0.20984308406112456,-0.18894748389720917,-0.0,0.0,0.029999999999972715,-9.836743201868169,9.646825042206302,0.11020876200989535,0.005677572504231729,0.014458904491067298,2.6670197078814937,-5.460905716918826,2.751439293155478,-0.004778147064483984,6.114703752886314,0.0480358973546835,-0.02326830746536898,-0.12191023241107533,-0.09097514975442533,0.10403362768561518,-1.4438782179913414,1.4683287262528686,0.1719913013233571
-9.836743201868169,9.646825042206302,0.11020876200989535,0.005677572504231729,0.014458904491067298,2.6670197078814937,-5.460905716918826,2.751439293155478,-0.004778147064483984,6.114703752886314,0.0480358973546835,-0.02326830746536898,-0.12191023241107533,-0.09097514975442533,-0.20010678470134735,-0.0,0.0,0.05999999999994543,-10.163282319765331,9.807324351882524,0.11008018268478637,-0.0019272054241556685,0.015002098035471041,2.681783212239351,-5.414766612417433,2.617967319412453,1.3772684705759541e-05,6.014167732808043,0.05689318160161605,0.2637635155300029,-0.15514028745902833,-0.20308757573942113,-0.1267462988065719,-1.6756003346393666,0.14762140411567679,0.24605840596450906
-10.163282319765331,9.807324351882524,0.11008018268478637,-0.0019272054241556685,0.015002098035471041,2.681783212239351,-5.414766612417433,2.617967319412453,1.3772684705759541e-05,6.014167732808043,0.05689318160161605,0.2637635155300029,-0.15514028745902833,-0.20308757573942113,-0.2515566647052765,-0.0,0.0,0.035000000000081855,-10.352111659660247,9.898582462979165,0.10985212281849235,0.0019782576245174974,0.015442546465325021,2.687378083226023,-5.384712132532104,2.5719566012974,-0.0018942321666788886,5.967197269546238,0.05140287458532988,-0.03882941136559501,0.32488899583967173,-0.25895820315767387,0.11158465853325807,-1.3420132360484291,-0.15686591475066647,0.15985345676168317
-10.352111659660247,9.898582462979165,0.10985212281849235,0.0019782576245174974,0.015442546465325021,2.687378083226023,-5.384712132532104,2.5719566012974,-0.0018942321666788886,5.967197269546238,0.05140287458532988,-0.03882941136559501,0.32488899583967173,-0.25895820315767387,-0.37766900658607483,-0.0,0.0,0.029999999999972715,-10.513323689830102,9.974458566114494,0.10981400347971693,0.0036292390545350824,0.015452112210441554,2.698431822987468,-5.370183132198615,2.483952589681376,0.00011443326310393853,5.916539528429767,0.05871413512441759,-0.06089880071892233,-0.06215234347196785,-0.1620177472895234,0.05503271433396956,-1.688591370550585,0.2437086846364785,0.36845799204851554
