x_pos,y_pos,z_pos,roll,pitch,yaw,u_x,u_y,u_z,comp_u_x,comp_u_y,roll_mder,pitch_mder,yaw_mder,steer,throttle,brake,time_step,act_x_pos,act_y_pos,act_z_pos,act_roll,act_pitch,act_yaw,act_u_x,act_u_y,act_u_z,act_comp_u_x,act_comp_u_y,act_roll_mder,act_pitch_mder,act_yaw_mder
-0.007082976549783737,0.04667080646222775,0.10914521211801634,4.46097526327232e-06,-0.01689573730636819,2.353522681401361,-0.22626254978018231,0.2247134790527229,-0.003638524645182271,0.31888414335458454,0.0019473618104494383,0.15879207331234527,-0.16093325866824248,-0.006521318351632642,-0.006946197710931301,1.0,0.0,0.03999999999996362,-0.019528851605432607,0.05891270129410307,0.10917814702451153,-1.0309671470677477e-06,-0.02075497893844985,2.354277613549011,-0.3905517101047639,0.38203877194037306,0.004485506825396774,0.5462914265207514,0.007066741921593234,0.0705047900737983,-0.07186162492978591,-0.028831672125804283
-0.019528851605432607,0.05891270129410307,0.10917814702451153,-1.0309671470677477e-06,-0.02075497893844985,2.354277613549011,-0.3905517101047639,0.38203877194037306,0.004485506825396774,0.5462914265207514,0.007066741921593234,0.0705047900737983,-0.07186162492978591,-0.028831672125804283,-0.011847655288875103,1.0,0.0,0.03999999999996362,-0.03582344676801519,0.07470354317111494,0.10940116739122055,-9.31098700133578e-06,-0.021556104302179708,2.3558922614074795,-0.535322130990507,0.51586311355478,0.007082878509666619,0.7432960222057721,0.013984249272872673,0.06372056306192195,-0.07776398925369442,-0.05021185046531162
-0.03582344676801519,0.07470354317111494,0.10940116739122055,-9.31098700133578e-06,-0.021556104302179708,2.3558922614074795,-0.535322130990507,0.51586311355478,0.007082878509666619,0.7432960222057721,0.013984249272872673,0.06372056306192195,-0.07776398925369442,-0.05021185046531162,-0.01009052898734808,1.0,0.0,0.020000000000436557,-0.05056271213459773,0.08883476328124126,0.1095651821951196,-1.1422960739363389e-05,-0.021651039853890823,2.3576710322977807,-0.6385137286741629,0.6107238453923779,0.005305152327142933,0.8833724116667823,0.01834609882913768,0.04490485163472668,-0.04046872277674261,-0.08148615667418095
-0.05056271213459773,0.08883476328124126,0.1095651821951196,-1.1422960739363389e-05,-0.021651039853890823,2.3576710322977807,-0.6385137286741629,0.6107238453923779,0.005305152327142933,0.8833724116667823,0.01834609882913768,0.04490485163472668,-0.04046872277674261,-0.08148615667418095,-0.010984505526721478,1.0,0.0,0.03999999999996362,-0.060644241096682094,0.09844371919089785,0.10964070647961041,-1.0536535590058007e-05,-0.021654728407348587,2.358984621540425,-0.7006492481251172,0.6670670148753332,0.003927889256549688,0.9671839348701576,0.021047740070105347,0.03960533762329651,-0.033698188652707725,-0.09401871568924393
-0.060644241096682094,0.09844371919089785,0.10964070647961041,-1.0536535590058007e-05,-0.021654728407348587,2.358984621540425,-0.7006492481251172,0.6670670148753332,0.003927889256549688,0.9671839348701576,0.021047740070105347,0.03960533762329651,-0.033698188652707725,-0.09401871568924393,-0.011847655288875103,1.0,0.0,0.019999999999527063,-0.07554512623027065,0.11254778881728839,0.10970586396131637,0.00010917117288516535,-0.02150444182869173,2.361156120648519,-0.7839389905258843,0.7390052163224806,0.0021636668954648462,1.077028565932098,0.0264295059512637,0.012367241896865,0.06915688259579503,-0.1714996874683837
-0.07554512623027065,0.11254778881728839,0.10970586396131637,0.00010917117288516535,-0.02150444182869173,2.361156120648519,-0.7839389905258843,0.7390052163224806,0.0021636668954648462,1.077028565932098,0.0264295059512637,0.012367241896865,0.06915688259579503,-0.1714996874683837,-0.011847655288875103,1.0,0.0,0.020000000000436557,-0.09214695225463743,0.1280863327958209,0.10973011520290546,1.6899918725686035e-05,-0.021553250651964704,2.363679399717127,-0.8688577994502134,0.8114990682360719,0.00030254214464099996,1.1884620282828546,0.031664187077570016,0.014337817419937058,0.010917664660455344,-0.15282637109319042
-0.09214695225463743,0.1280863327958209,0.10973011520290546,1.6899918725686035e-05,-0.021553250651964704,2.363679399717127,-0.8688577994502134,0.8114990682360719,0.00030254214464099996,1.1884620282828546,0.031664187077570016,0.014337817419937058,0.010917664660455344,-0.15282637109319042,-0.00469584297388792,1.0,0.0,0.019999999999527063,-0.11036522708435825,0.145144836258091,0.10972104702114788,9.808291362296943e-05,-0.021517738381661704,2.366287183701228,-0.949264097278861,0.8876948647855958,-0.0010169231907295427,1.2992993717564352,0.0304243636367435,0.0367389813934035,0.034748720707827474,-0.17513704207020755
-0.11036522708435825,0.145144836258091,0.10972104702114788,9.808291362296943e-05,-0.021517738381661704,2.366287183701228,-0.949264097278861,0.8876948647855958,-0.0010169231907295427,1.2992993717564352,0.0304243636367435,0.0367389813934035,0.034748720707827474,-0.17513704207020755,-0.008271749131381512,1.0,0.0,0.020000000000436557,-0.15743908111048555,0.18886721391184663,0.1096442885046113,2.955131220117346e-06,-0.021493831141074896,2.3726276101128363,-1.136876567549391,1.0516942864336243,-0.0018182655280947063,1.5483341113135112,0.03479485167399021,0.025562379781962685,-0.005303712769088328,-0.16187304063070465
-0.15743908111048555,0.18886721391184663,0.1096442885046113,2.955131220117346e-06,-0.021493831141074896,2.3726276101128363,-1.136876567549391,1.0516942864336243,-0.0018182655280947063,1.5483341113135112,0.03479485167399021,0.025562379781962685,-0.005303712769088328,-0.16187304063070465,-0.01141608040779829,1.0,0.0,0.019999999999527063,-0.16904030240366552,0.1995910237304337,0.10962611987511059,-1.6030505252303965e-06,-0.021530947845825064,2.374069233485116,-1.1793007594914515,1.0892339329793332,-0.0019774450583277814,1.6049783373983173,0.035005407766151464,0.029232022341596338,-0.030152990713139562,-0.14916452200072222
-0.16904030240366552,0.1995910237304337,0.10962611987511059,-1.6030505252303965e-06,-0.021530947845825064,2.374069233485116,-1.1793007594914515,1.0892339329793332,-0.0019774450583277814,1.6049783373983173,0.035005407766151464,0.029232022341596338,-0.030152990713139562,-0.14916452200072222,-0.011847655288875103,1.0,0.0,0.020000000000436557,-0.21295534987651266,0.23992904735725,0.10958354568062612,0.00014639564843553753,-0.02142018877608599,2.379570813884669,-1.3308322024310335,1.2076532290116562,-0.0004991140616925349,1.7965257575444948,0.045120672079364654,0.061188675106375996,0.0221118628366197,-0.2444901788242956
-0.21295534987651266,0.23992904735725,0.10958354568062612,0.00014639564843553753,-0.02142018877608599,2.379570813884669,-1.3308322024310335,1.2076532290116562,-0.0004991140616925349,1.7965257575444948,0.045120672079364654,0.061188675106375996,0.0221118628366197,-0.2444901788242956,-0.00916572567075491,1.0,0.0,0.019999999999527063,-0.22651911318383533,0.25217173422509653,0.10957891455828439,1.7610925974383856e-06,-0.021409339665801896,2.3815636232088737,-1.3758944914347073,1.2394294629801554,-0.0001565493219857772,1.851165973333596,0.04955385389179201,0.028672809401129946,-0.04714163032885056,-0.2008155366477098
-0.22651911318383533,0.25217173422509653,0.10957891455828439,1.7610925974383856e-06,-0.021409339665801896,2.3815636232088737,-1.3758944914347073,1.2394294629801554,-0.0001565493219857772,1.851165973333596,0.04955385389179201,0.028672809401129946,-0.04714163032885056,-0.2008155366477098,-0.005589819513261318,1.0,0.0,0.03999999999996362,-0.2623385377627869,0.28430734143128333,0.10957957712307095,-1.6248641089609548e-05,-0.02150695544872502,2.3869650354745064,-1.4847626198520638,1.327995323095426,0.00021463190417275735,1.9913891226484748,0.049608241962671884,-0.012417212132446405,0.045225198087053976,-0.23426086820464517
-0.2623385377627869,0.28430734143128333,0.10957957712307095,-1.6248641089609548e-05,-0.02150695544872502,2.3869650354745064,-1.4847626198520638,1.327995323095426,0.00021463190417275735,1.9913891226484748,0.049608241962671884,-0.012417212132446405,0.045225198087053976,-0.23426086820464517,-0.006946197710931301,1.0,0.0,0.020000000000436557,-0.30884685291921166,0.3258417792358435,0.10959781067626087,0.00031109655500216577,-0.021674341778348313,2.393279773948468,-1.6186336619335615,1.4307768880765541,0.0008520806374268247,2.1597013644434764,0.052796320131864194,-0.005476818123380694,-0.07415592325328353,-0.17636165078387633
-0.30884685291921166,0.3258417792358435,0.10959781067626087,0.00031109655500216577,-0.021674341778348313,2.393279773948468,-1.6186336619335615,1.4307768880765541,0.0008520806374268247,2.1597013644434764,0.052796320131864194,-0.005476818123380694,-0.07415592325328353,-0.17636165078387633,-0.007377772592008114,1.0,0.0,0.03999999999996362,-0.35948998554322387,0.37031932592468086,0.10962349556354359,0.00025759300209610267,-0.021404746633954978,2.4002437174495284,-1.7532606408895368,1.528177486055563,0.0012389352739384102,2.325084922472401,0.05682787230750885,0.04743352163466587,0.0037473599517313886,-0.27340539262900837
-0.35948998554322387,0.37031932592468086,0.10962349556354359,0.00025759300209610267,-0.021404746633954978,2.4002437174495284,-1.7532606408895368,1.528177486055563,0.0012389352739384102,2.325084922472401,0.05682787230750885,0.04743352163466587,0.0037473599517313886,-0.27340539262900837,-0.010984505526721478,1.0,0.0,0.019999999999527063,-0.4142638672079162,0.41762646054754266,0.10964234392982117,0.00038111091572873057,-0.021259368051805345,2.4076413590743253,-1.8917551280520375,1.6210932134102096,0.00038362251413533166,2.4905142743464537,0.06339811000634787,-0.07136043760018379,-0.024216487841311626,-0.2140205974372636
-0.4142638672079162,0.41762646054754266,0.10964234392982117,0.00038111091572873057,-0.021259368051805345,2.4076413590743253,-1.8917551280520375,1.6210932134102096,0.00038362251413533166,2.4905142743464537,0.06339811000634787,-0.07136043760018379,-0.024216487841311626,-0.2140205974372636,-0.010984505526721478,1.0,0.0,0.020000000000436557,-0.4729401242050688,0.4678867168754395,0.10964563800391727,0.001184772473599857,-0.020934004095945844,2.414853102323667,-2.0227363371881086,1.7155948582640257,0.0002422899116642785,2.6515851746854278,0.06183905619895791,-0.14479496258175859,0.10258460272807321,-0.21156165834308263
-0.4729401242050688,0.4678867168754395,0.10964563800391727,0.001184772473599857,-0.020934004095945844,2.414853102323667,-2.0227363371881086,1.7155948582640257,0.0002422899116642785,2.6515851746854278,0.06183905619895791,-0.14479496258175859,0.10258460272807321,-0.21156165834308263,0.0,1.0,0.0,0.019999999999527063,-0.4831345254935542,0.47650219288991663,0.10964643981743974,0.001126506395018784,-0.021229466816653022,2.416225331317599,-2.0506854726727353,1.727067162624269,0.0008030489286856915,2.6801914832089944,0.06815794436464095,0.06514756239474415,-0.23389917532446147,-0.1786271000030714
-0.4831345254935542,0.47650219288991663,0.10964643981743974,0.001126506395018784,-0.021229466816653022,2.416225331317599,-2.0506854726727353,1.727067162624269,0.0008030489286856915,2.6801914832089944,0.06815794436464095,0.06514756239474415,-0.23389917532446147,-0.1786271000030714,0.012402537278831005,1.0,0.0,0.040000000000873115,-0.5359329629704339,0.520607461287003,0.1096445564889316,0.00025174923005017146,-0.02125421155074104,2.4229043287211223,-2.168963048660295,1.7979142486866364,0.00025753586523351996,2.8162564856308983,0.07480480750657503,-0.11022644942030262,0.08244510362802554,-0.29932504821227024
-0.5359329629704339,0.520607461287003,0.1096445564889316,0.00025174923005017146,-0.02125421155074104,2.4229043287211223,-2.168963048660295,1.7979142486866364,0.00025753586523351996,2.8162564856308983,0.07480480750657503,-0.11022644942030262,0.08244510362802554,-0.29932504821227024,0.01927690953016281,1.0,0.0,0.019999999999527063,-0.6029585877781631,0.5762289006586402,0.10963841044798214,0.0003896425965328128,-0.0213120379477493,2.4307196715495434,-2.3055073457690867,1.8914911189213364,0.0005426532613752727,2.9812858404954468,0.07097542965607984,0.1925375835305871,-0.3935982173422811,-0.15510927234671865
-0.6029585877781631,0.5762289006586402,0.10963841044798214,0.0003896425965328128,-0.0213120379477493,2.4307196715495434,-2.3055073457690867,1.8914911189213364,0.0005426532613752727,2.9812858404954468,0.07097542965607984,0.1925375835305871,-0.3935982173422811,-0.15510927234671865,0.012402537278831005,1.0,0.0,0.020000000000436557,-0.6862374947960745,0.6446216100804251,0.10963711385902139,-9.860126643554696e-05,-0.021206152657230543,2.4377228510325737,-2.4564960012999237,2.0032951692396224,0.0011964210533680492,3.169171521227085,0.06257801965966725,0.18615816841781782,-0.4408839242867983,-0.07980107693807895
-0.6862374947960745,0.6446216100804251,0.10963711385902139,-9.860126643554696e-05,-0.021206152657230543,2.4377228510325737,-2.4564960012999237,2.0032951692396224,0.0011964210533680492,3.169171521227085,0.06257801965966725,0.18615816841781782,-0.4408839242867983,-0.07980107693807895,0.013358167372643948,1.0,0.0,0.03999999999996362,-0.7486523894826753,0.696307022478017,0.10964093550560577,5.855637903680071e-07,-0.021174713839403315,2.441226390323388,-2.545789478152113,2.111256926217895,-7.840764663308297e-05,3.30722677181301,0.026475561870118014,0.0871584862056459,-0.15033812834604068,-0.11818104434061694
-0.7486523894826753,0.696307022478017,0.10964093550560577,5.855637903680071e-07,-0.021174713839403315,2.441226390323388,-2.545789478152113,2.111256926217895,-7.840764663308297e-05,3.30722677181301,0.026475561870118014,0.0871584862056459,-0.15033812834604068,-0.11818104434061694,0.01141608040779829,1.0,0.0,0.019999999999527063,-0.8267633429446555,0.761351223586238,0.1096398876687403,3.2286908193797614e-05,-0.021103581880717943,2.4427312160752686,-2.662944323627982,2.2197307882140396,0.0010803181699934328,3.466739983397516,0.013824991891639327,0.3236397333212296,-0.17000949703889984,-0.11764514647690949
-0.8267633429446555,0.761351223586238,0.1096398876687403,3.2286908193797614e-05,-0.021103581880717943,2.4427312160752686,-2.662944323627982,2.2197307882140396,0.0010803181699934328,3.466739983397516,0.013824991891639327,0.3236397333212296,-0.17000949703889984,-0.11764514647690949,0.014375451020896435,1.0,0.0,0.020000000000436557,-0.9082831131828657,0.829821005101124,0.10965519385630376,0.0006755808776286037,-0.020914457886315897,2.443054622203291,-2.7824700433774883,2.325869050307126,0.0015024776345986812,3.6265324523405105,0.008291778507338421,0.04668466708806242,-0.019551840785069705,-0.08170812881547079
-0.9082831131828657,0.829821005101124,0.10965519385630376,0.0006755808776286037,-0.020914457886315897,2.443054622203291,-2.7824700433774883,2.325869050307126,0.0015024776345986812,3.6265324523405105,0.008291778507338421,0.04668466708806242,-0.019551840785069705,-0.08170812881547079,0.01141608040779829,1.0,0.0,0.03999999999996362,-0.9222860652522726,0.8414909921424837,0.10965696291844954,-4.766337060556225e-05,-0.021243397606751643,2.4428410314921316,-2.8126816391362652,2.3405140735747603,-0.00023575957919927393,3.659082572950833,0.017287453927600227,-0.1494577056300645,-0.24797720960015937,0.10756491255445272
-0.9222860652522726,0.8414909921424837,0.10965696291844954,-4.766337060556225e-05,-0.021243397606751643,2.4428410314921316,-2.8126816391362652,2.3405140735747603,-0.00023575957919927393,3.659082572950833,0.017287453927600227,-0.1494577056300645,-0.24797720960015937,0.10756491255445272,0.01730399578809738,1.0,0.0,0.019999999999527063,-1.0817945558596165,0.9766177928167441,0.10970839841300747,0.0011265289985286707,-0.020539759676273486,2.440863696259604,-3.0099019064272734,2.540079896115238,0.0023498657707683723,3.938466025001811,-0.0008572454546365016,0.15625960739703718,-0.41132156546421406,0.2078793813275263
-1.0817945558596165,0.9766177928167441,0.10970839841300747,0.0011265289985286707,-0.020539759676273486,2.440863696259604,-3.0099019064272734,2.540079896115238,0.0023498657707683723,3.938466025001811,-0.0008572454546365016,0.15625960739703718,-0.41132156546421406,0.2078793813275263,0.022236280143260956,1.0,0.0,0.020000000000436557,-1.11220522730624,1.0021747134713836,0.10971513003192429,0.0001958874930569472,-0.020829107492203413,2.4397334735662874,-3.0643126489927606,2.567170987989005,0.001452576046296103,3.997505922531539,0.018035844164875803,0.28119185799713226,-0.4765845756583514,0.09378263245487217
-1.11220522730624,1.0021747134713836,0.10971513003192429,0.0001958874930569472,-0.020829107492203413,2.4397334735662874,-3.0643126489927606,2.567170987989005,0.001452576046296103,3.997505922531539,0.018035844164875803,0.28119185799713226,-0.4765845756583514,0.09378263245487217,0.02121899649500847,1.0,0.0,0.019999999999527063,-1.1897830280126138,1.0679187329269983,0.10972608623822613,-0.0013236691641006252,-0.02008357931013722,2.437682601444579,-3.1333510376086164,2.6867098129441507,-0.000706709046187845,4.127455618216564,-0.020210480100824046,-0.3616717164871229,0.16286953562287884,0.037883106178387124
-1.1897830280126138,1.0679187329269983,0.10972608623822613,-0.0013236691641006252,-0.02008357931013722,2.437682601444579,-3.1333510376086164,2.6867098129441507,-0.000706709046187845,4.127455618216564,-0.020210480100824046,-0.3616717164871229,0.16286953562287884,0.037883106178387124,0.10078290849924088,1.0,0.0,0.020000000000436557,-1.2694839754874945,1.1362403665044438,0.10972114570475441,0.0007954804918855095,-0.020432664821902258,2.4373098045732653,-3.246101076850579,2.7613604455880822,-0.0023816801296213386,4.2617223247574225,-0.002557000799624287,0.009510327247168236,0.07745365964874748,-0.030337890574459115
-1.2694839754874945,1.1362403665044438,0.10972114570475441,0.0007954804918855095,-0.020432664821902258,2.4373098045732653,-3.246101076850579,2.7613604455880822,-0.0023816801296213386,4.2617223247574225,-0.002557000799624287,0.009510327247168236,0.07745365964874748,-0.030337890574459115,0.13906976580619812,1.0,0.0,0.019999999999527063,-1.3516093229351913,1.2067253328305974,0.10974145016583126,-0.0012228246576961117,-0.019784017680464307,2.4353698451935397,-3.3143556390044218,2.8718995177831617,-0.001380502088063243,4.385384553922456,-0.03409481282993676,-0.2270451863873483,0.30173447875115966,0.10188295166974123
-1.3516093229351913,1.2067253328305974,0.10974145016583126,-0.0012228246576961117,-0.019784017680464307,2.4353698451935397,-3.3143556390044218,2.8718995177831617,-0.001380502088063243,4.385384553922456,-0.03409481282993676,-0.2270451863873483,0.30173447875115966,0.10188295166974123,0.14985913038253784,1.0,0.0,0.03999999999996362,-1.4705671228768908,1.309227718321877,0.10974892656317078,-0.0012605454667213162,-0.019950382225873888,2.433303266298251,-3.462702309458107,2.983775363672175,0.0032655506328249234,4.570890570871139,-0.013494217459156133,0.5246480137922255,-0.36045459482767955,0.016529738015120036
-1.4705671228768908,1.309227718321877,0.10974892656317078,-0.0012605454667213162,-0.019950382225873888,2.433303266298251,-3.462702309458107,2.983775363672175,0.0032655506328249234,4.570890570871139,-0.013494217459156133,0.5246480137922255,-0.36045459482767955,0.016529738015120036,0.33349424600601196,1.0,0.0,0.020000000000436557,-1.5758771729357006,1.4009678779370607,0.10979247103102532,-0.0018284036819282482,-0.0208973815808621,2.428386208299561,-3.5535705171027026,3.1335956136671195,0.002058523511624624,4.737644081619674,-0.04487143756837275,0.2769805474207366,0.1455735402213864,-0.038435220421693075
-1.5758771729357006,1.4009678779370607,0.10979247103102532,-0.0018284036819282482,-0.0208973815808621,2.428386208299561,-3.5535705171027026,3.1335956136671195,0.002058523511624624,4.737644081619674,-0.04487143756837275,0.2769805474207366,0.1455735402213864,-0.038435220421693075,0.41595587134361267,1.0,0.0,0.03999999999996362,-1.6115816427570229,1.4325337723977694,0.10979727594394226,-0.002386523542188707,-0.02008676564267333,2.425648216338857,-3.581461839959035,3.178126429304585,-0.0009934096193191938,4.788019372885495,-0.04719106483496027,-0.4953778264849993,-0.21841975979208594,0.45901069677555634
-1.6115816427570229,1.4325337723977694,0.10979727594394226,-0.002386523542188707,-0.02008676564267333,2.425648216338857,-3.581461839959035,3.178126429304585,-0.0009934096193191938,4.788019372885495,-0.04719106483496027,-0.4953778264849993,-0.21841975979208594,0.45901069677555634,0.5053226947784424,1.0,0.0,0.019999999999527063,-1.7019213569459826,1.5134972946740906,0.10980624381953269,-0.0007947531937304986,-0.021007883011209986,2.4214581255598464,-3.6632794186108772,3.292972707729431,-0.0011272045894563792,4.925418232422654,-0.05950284352397128,-0.0025314241775494855,-0.06183656765130046,0.3237035844755763
-1.7019213569459826,1.5134972946740906,0.10980624381953269,-0.0007947531937304986,-0.021007883011209986,2.4214581255598464,-3.6632794186108772,3.292972707729431,-0.0011272045894563792,4.925418232422654,-0.05950284352397128,-0.0025314241775494855,-0.06183656765130046,0.3237035844755763,0.5033805966377258,1.0,0.0,0.03999999999996362,-1.8309126275136052,1.6320443381780458,0.11000134157898847,-0.01949305809904081,-0.018887706631726,2.395181816072096,-3.6922794278858135,3.502248220067146,0.013762580749195896,5.088670891853383,-0.06401970756245534,-0.6648560792246816,-0.2549379631444877,0.743025183211753
-1.8309126275136052,1.6320443381780458,0.11000134157898847,-0.01949305809904081,-0.018887706631726,2.395181816072096,-3.6922794278858135,3.502248220067146,0.013762580749195896,5.088670891853383,-0.06401970756245534,-0.6648560792246816,-0.2549379631444877,0.743025183211753,0.11746019124984741,1.0,0.0,0.03999999999996362,-1.9975644870597584,1.796883631468171,0.11079868466153564,-0.027829527180388787,-0.01955694760184744,2.358181351162417,-3.7071550378721025,3.81506731169708,0.016667451940255887,5.318852325941034,-0.08687348520548754,-0.20755072462406732,0.06277925009615387,0.9648672746259602
-1.9975644870597584,1.796883631468171,0.11079868466153564,-0.027829527180388787,-0.01955694760184744,2.358181351162417,-3.7071550378721025,3.81506731169708,0.016667451940255887,5.318852325941034,-0.08687348520548754,-0.20755072462406732,0.06277925009615387,0.9648672746259602,0.018290452659130096,1.0,0.0,0.040000000000873115,-2.0904530625841655,1.8946272529554347,0.11103812172941949,-0.029319866821699167,-0.01848104850408052,2.3382821354324284,-3.704580401588518,3.9941431493839157,0.013308535794757659,5.446613711726933,-0.10721252180776197,0.5115492882525413,-0.7786607442983139,0.6203583973313428
-2.0904530625841655,1.8946272529554347,0.11103812172941949,-0.029319866821699167,-0.01848104850408052,2.3382821354324284,-3.704580401588518,3.9941431493839157,0.013308535794757659,5.446613711726933,-0.10721252180776197,0.5115492882525413,-0.7786607442983139,0.6203583973313428,0.0,1.0,0.0,0.03999999999996362,-2.238773113757734,2.0601017014132808,0.11105333735076231,-0.019970446369618998,-0.01922918496017782,2.3129984156157106,-3.727767326177918,4.263755581627004,-0.008306190947983613,5.661955149207203,-0.1346283266669377,-0.05841620097666021,0.5764308153706686,0.2171084838495121
-2.238773113757734,2.0601017014132808,0.11105333735076231,-0.019970446369618998,-0.01922918496017782,2.3129984156157106,-3.727767326177918,4.263755581627004,-0.008306190947983613,5.661955149207203,-0.1346283266669377,-0.05841620097666021,0.5764308153706686,0.2171084838495121,-0.001119936816394329,1.0,0.0,0.03999999999996362,-2.3902522638693586,2.2336478772212915,0.11036166803334538,0.006205740116625893,-0.01916993375881826,2.3119266625023367,-3.878836625102597,4.387054683213423,-0.019490328799876944,5.855044899452077,-0.10035727747579415,-0.17811142987775638,0.41266292481939587,-0.13562113806281595
-2.3902522638693586,2.2336478772212915,0.11036166803334538,0.006205740116625893,-0.01916993375881826,2.3119266625023367,-3.878836625102597,4.387054683213423,-0.019490328799876944,5.855044899452077,-0.10035727747579415,-0.17811142987775638,0.41266292481939587,-0.13562113806281595,-0.00022596027702093124,1.0,0.0,0.03999999999996362,-2.6773601779211447,2.545089123917089,0.10994800728778151,-0.00032447731158641736,-0.01974024409995577,2.313624300249677,-4.273737727788193,4.526719657865666,-0.0007187625884477328,6.224838223321962,0.08610528611831025,-0.5340924549948294,-0.2447713841495962,0.41226687041721516
-2.6773601779211447,2.545089123917089,0.10994800728778151,-0.00032447731158641736,-0.01974024409995577,2.313624300249677,-4.273737727788193,4.526719657865666,-0.0007187625884477328,6.224838223321962,0.08610528611831025,-0.5340924549948294,-0.2447713841495962,0.41226687041721516,-0.011847655288875103,1.0,0.0,0.03999999999996362,-2.827490861825968,2.7074658681320733,0.11002560383549068,-0.006862539525250478,-0.02033039028378631,2.3061786664094903,-4.317541268554225,4.7424998488838215,-8.409659263425295e-05,6.413428136358112,0.020173301713400704,-0.2832983378065467,0.44781127286872563,0.04452387807244613
-2.827490861825968,2.7074658681320733,0.11002560383549068,-0.006862539525250478,-0.02033039028378631,2.3061786664094903,-4.317541268554225,4.7424998488838215,-8.409659263425295e-05,6.413428136358112,0.020173301713400704,-0.2832983378065467,0.44781127286872563,0.04452387807244613,-0.019893445074558258,1.0,0.0,0.019999999999527063,-2.957953702700589,2.8521991849277706,0.11006481053055675,0.0001406541738024937,-0.0213076117896492,2.307727843882564,-4.4127461620178785,4.883022530781409,-0.0041651176346080565,6.581493007676593,-0.013693663735709016,-0.6382461246807497,0.04266314205200398,0.0156900683836578
-2.957953702700589,2.8521991849277706,0.11006481053055675,0.0001406541738024937,-0.0213076117896492,2.307727843882564,-4.4127461620178785,4.883022530781409,-0.0041651176346080565,6.581493007676593,-0.013693663735709016,-0.6382461246807497,0.04266314205200398,0.0156900683836578,-0.019893445074558258,1.0,0.0,0.03999999999996362,-3.0021407931495814,2.9011330791391154,0.11006054976618584,0.0004666724752001974,-0.020080267088739702,2.3086784798597275,-4.440112622230342,4.908385491362255,0.0008436259923038925,6.618652974126238,-0.016764187859404256,-0.1925498355800699,-0.013987116429830854,-0.2158548272085488
-3.0021407931495814,2.9011330791391154,0.11006054976618584,0.0004666724752001974,-0.020080267088739702,2.3086784798597275,-4.440112622230342,4.908385491362255,0.0008436259923038925,6.618652974126238,-0.016764187859404256,-0.1925498355800699,-0.013987116429830854,-0.2158548272085488,-0.034227896481752396,1.0,0.0,0.020000000000436557,-3.1143680063775765,3.0247873234825358,0.11006887191144263,0.0018643400011935942,-0.02080422232385915,2.308771606784211,-4.542017993084212,4.990499273026216,-0.000711223150242829,6.747962862075535,0.0027668800606943655,0.4897121276963675,0.23042513687531394,-0.1925802842668865
-3.1143680063775765,3.0247873234825358,0.11006887191144263,0.0018643400011935942,-0.02080422232385915,2.308771606784211,-4.542017993084212,4.990499273026216,-0.000711223150242829,6.747962862075535,0.0027668800606943655,0.4897121276963675,0.23042513687531394,-0.1925802842668865,-0.08968526870012283,1.0,0.0,0.019999999999527063,-3.137179790400481,3.049772453526205,0.11008521465529736,0.0019346922461417986,-0.020402946723568485,2.3089678391440853,-4.569266899716908,5.002784755220394,0.002015264282988205,6.775387633345353,0.013331384961624781,-0.2962109922468712,0.33463034365836,0.002100051036410998
-3.137179790400481,3.049772453526205,0.11008521465529736,0.0019346922461417986,-0.020402946723568485,2.3089678391440853,-4.569266899716908,5.002784755220394,0.002015264282988205,6.775387633345353,0.013331384961624781,-0.2962109922468712,0.33463034365836,0.002100051036410998,-0.2032819390296936,1.0,0.0,0.020000000000436557,-3.276274326982377,3.201442551879841,0.11004761701382224,-0.0023922363375063383,-0.01924955437637284,2.3110842619113625,-4.66865424984057,5.107007842153743,-0.0013519935112845105,6.91938272724812,0.002068389373953483,-0.26720747468390466,0.06813859503360578,-0.3696707097724055
-3.276274326982377,3.201442551879841,0.11004761701382224,-0.0023922363375063383,-0.01924955437637284,2.3110842619113625,-4.66865424984057,5.107007842153743,-0.0013519935112845105,6.91938272724812,0.002068389373953483,-0.26720747468390466,0.06813859503360578,-0.3696707097724055,-0.2891036868095398,1.0,0.0,0.03999999999996362,-3.4658083558017356,3.4091387744708337,0.11023709663093642,0.005846558265726295,-0.020667991536301764,2.317643096977052,-4.844872900196296,5.252234816786866,0.0024949676425073675,7.145530338541573,-0.012655856611666128,-0.26927452636265664,0.4711671848393578,-0.24865025786870631
-3.4658083558017356,3.4091387744708337,0.11023709663093642,0.005846558265726295,-0.020667991536301764,2.317643096977052,-4.844872900196296,5.252234816786866,0.0024949676425073675,7.145530338541573,-0.012655856611666128,-0.26927452636265664,0.4711671848393578,-0.24865025786870631,-0.38032013177871704,1.0,0.0,0.03999999999996362,-3.6134984869296733,3.567221823440351,0.11037093318246002,0.006274427834547988,-0.020550124356522037,2.3219678234710104,-5.00295081252255,5.305974305820215,0.006411968395382772,7.292573887306869,0.035302474620491964,-0.21604842953301973,0.23085631365624806,-0.14633003066267172
-3.6134984869296733,3.567221823440351,0.11037093318246002,0.006274427834547988,-0.020550124356522037,2.3219678234710104,-5.00295081252255,5.305974305820215,0.006411968395382772,7.292573887306869,0.035302474620491964,-0.21604842953301973,0.23085631365624806,-0.14633003066267172,-0.105776846408844,0.8776485323905945,0.0,0.019999999999527063,-3.766051596060504,3.7270870320687863,0.11048308927154196,0.009651103182441632,-0.018511171196415783,2.3353023098704204,-5.163983047700234,5.342317902067947,0.002404301033506029,7.430089721748491,0.029124052920522114,-0.6425122706075261,0.2075910987667579,-0.5566759366529848
-3.766051596060504,3.7270870320687863,0.11048308927154196,0.009651103182441632,-0.018511171196415783,2.3353023098704204,-5.163983047700234,5.342317902067947,0.002404301033506029,7.430089721748491,0.029124052920522114,-0.6425122706075261,0.2075910987667579,-0.5566759366529848,-0.034227896481752396,0.8093980550765991,0.0,0.03999999999996362,-3.977861657630445,3.94131075604217,0.11087815255463035,0.022792701393379335,-0.019295425821473457,2.3623628572592863,-5.42800814168475,5.362448446284431,0.008310988543264536,7.6301458193554375,-0.0007075499950253139,0.8577993860728177,0.5152127438685277,-0.7911548200252125
-3.977861657630445,3.94131075604217,0.11087815255463035,0.022792701393379335,-0.019295425821473457,2.3623628572592863,-5.42800814168475,5.362448446284431,0.008310988543264536,7.6301458193554375,-0.0007075499950253139,0.8577993860728177,0.5152127438685277,-0.7911548200252125,-0.019893445074558258,0.22529226541519165,0.0,0.03999999999996362,-4.199243967089759,4.155312381115751,0.1112615060484364,0.018998641018143896,-0.010686418876393476,2.378226690052932,-5.622122009805692,5.339839811917774,-0.0009373506741324339,7.753793663055195,0.028791332875700792,-0.5913487460751697,0.2720549843963436,0.013100832536567426
-4.199243967089759,4.155312381115751,0.1112615060484364,0.018998641018143896,-0.010686418876393476,2.378226690052932,-5.622122009805692,5.339839811917774,-0.0009373506741324339,7.753793663055195,0.028791332875700792,-0.5913487460751697,0.2720549843963436,0.013100832536567426,-0.02057163417339325,0.014467931352555752,0.0,0.020000000000436557,-4.3690063961423276,4.314922453121511,0.11126512134884237,0.004161331578855185,0.001275810979163347,2.3765085248315914,-5.671189498635533,5.306125778610511,-0.01920005769621132,7.765776050292624,0.10041635609030397,-0.9960179516943833,-0.4106229272201774,0.4362641990243117
-4.3690063961423276,4.314922453121511,0.11126512134884237,0.004161331578855185,0.001275810979163347,2.3765085248315914,-5.671189498635533,5.306125778610511,-0.01920005769621132,7.765776050292624,0.10041635609030397,-0.9960179516943833,-0.4106229272201774,0.4362641990243117,-0.017211515456438065,-0.0,0.0,0.020000000000436557,-4.538356402122784,4.4739601356468235,0.1109297589370884,-0.011634076667435687,0.009376652893967557,2.368761942736586,-5.591048292089181,5.323283474604249,-0.0011577123417297747,7.719367988016566,0.0923353727079439,-0.4742803935561746,0.0860451619698661,0.2712846591485835
-4.538356402122784,4.4739601356468235,0.1109297589370884,-0.011634076667435687,0.009376652893967557,2.368761942736586,-5.591048292089181,5.323283474604249,-0.0011577123417297747,7.719367988016566,0.0923353727079439,-0.4742803935561746,0.0860451619698661,0.2712846591485835,-0.017211515456438065,-0.0069770244881510735,0.0069770244881510735,0.019999999999527063,-4.73222974392355,4.660756067438691,0.11081547661591559,-0.007635294199273239,0.014580887911611025,2.3667396939300773,-5.491863552116367,5.3458741670165475,-0.009549436599871813,7.664100307754408,0.022413329022204387,0.5022848028228705,0.3487107353426647,-0.1835091448531515
-4.73222974392355,4.660756067438691,0.11081547661591559,-0.007635294199273239,0.014580887911611025,2.3667396939300773,-5.491863552116367,5.3458741670165475,-0.009549436599871813,7.664100307754408,0.022413329022204387,0.5022848028228705,0.3487107353426647,-0.1835091448531515,-0.017211515456438065,-0.011385253630578518,0.011385253630578518,0.03999999999996362,-4.923743153839333,4.8469819934623946,0.11039592061266712,0.002410984279595118,0.017390083116331907,2.380158923280059,-5.472355791097727,5.275176776031771,-0.0034577313340465043,7.600812005936699,-0.04271736361627676,-0.6657084678671145,-0.5234552159571881,-0.2197736870773351
-4.923743153839333,4.8469819934623946,0.11039592061266712,0.002410984279595118,0.017390083116331907,2.380158923280059,-5.472355791097727,5.275176776031771,-0.0034577313340465043,7.600812005936699,-0.04271736361627676,-0.6657084678671145,-0.5234552159571881,-0.2197736870773351,-0.017211515456438065,-0.013758915476500988,0.013758915476500988,0.03999999999996362,-5.087530721503634,5.004416815435277,0.11014959309417127,0.0007115820070847594,0.016632809047517627,2.3829002100579735,-5.457063690770345,5.211662928212282,-0.008057064744231485,7.545872497828623,-0.027979437805194074,-0.16296914321431605,-0.06708897187514139,0.1666755532755954
-5.087530721503634,5.004416815435277,0.11014959309417127,0.0007115820070847594,0.016632809047517627,2.3829002100579735,-5.457063690770345,5.211662928212282,-0.008057064744231485,7.545872497828623,-0.027979437805194074,-0.16296914321431605,-0.06708897187514139,0.1666755532755954,-0.019461870193481445,-0.013820569030940533,0.013820569030940533,0.020000000000436557,-5.141951528011426,5.056547657186049,0.11011881367957146,-0.00030996693796037436,0.017279907192801026,2.380163047141304,-5.4279197006452,5.210705627646172,-0.002034610000698267,7.524164430324835,-0.026740233176135053,0.888221966395956,1.0244569722301216,-0.033046176452424636
-5.141951528011426,5.056547657186049,0.11011881367957146,-0.00030996693796037436,0.017279907192801026,2.380163047141304,-5.4279197006452,5.210705627646172,-0.002034610000698267,7.524164430324835,-0.026740233176135053,0.888221966395956,1.0244569722301216,-0.033046176452424636,-0.019616004079580307,-0.013820569030940533,0.013820569030940533,0.03999999999996362,-5.304012102726504,5.212465304962275,0.11019459768475223,-0.000142875243249181,0.018099449201377994,2.380895046389519,-5.366303212411563,5.179533126432186,0.01414561689638566,7.458019452938537,-0.05214800990840951,1.004852794541697,0.08460490480581824,-0.1726762744746139
-5.304012102726504,5.212465304962275,0.11019459768475223,-0.000142875243249181,0.018099449201377994,2.380895046389519,-5.366303212411563,5.179533126432186,0.01414561689638566,7.458019452938537,-0.05214800990840951,1.004852794541697,0.08460490480581824,-0.1726762744746139,-0.019893445074558258,-0.09326117485761642,0.09326117485761642,0.019999999999527063,-5.4917573842969585,5.39256534578417,0.11028157419796478,-0.0006970534013916064,0.018192888943514594,2.379578476624295,-5.346081899588755,5.121790354652835,-0.0006354474997377069,7.403588144521939,-0.014515523397957253,-0.5229764474641971,-0.5430406487533987,0.19065539507651283
-5.4917573842969585,5.39256534578417,0.11028157419796478,-0.0006970534013916064,0.018192888943514594,2.379578476624295,-5.346081899588755,5.121790354652835,-0.0006354474997377069,7.403588144521939,-0.014515523397957253,-0.5229764474641971,-0.5430406487533987,0.19065539507651283,-0.017766397446393967,-0.2816127836704254,0.2816127836704254,0.03999999999996362,-5.677950219579558,5.57095618725114,0.11037726290150143,-0.0030803048586743637,0.018594912733341448,2.3739681481372146,-5.28034167963784,5.099680100161435,-0.004517153891757941,7.340894902761271,-0.0027210874114445005,0.20553459978594063,0.2727878451830919,0.11082677311238898
-5.677950219579558,5.57095618725114,0.11037726290150143,-0.0030803048586743637,0.018594912733341448,2.3739681481372146,-5.28034167963784,5.099680100161435,-0.004517153891757941,7.340894902761271,-0.0027210874114445005,0.20553459978594063,0.2727878451830919,0.11082677311238898,-0.019030295312404633,-0.5210751891136169,0.5210751891136169,0.03999999999996362,-5.834649553459593,5.722674951915984,0.1102845794345794,0.00040552384911102734,0.0243412907246029,2.374851483918387,-5.18341081310999,5.007377058795016,-0.004514299678465089,7.207043294258677,-0.009981036680974054,-0.18756177581409925,0.13610598366005755,0.07883629299374477
-5.834649553459593,5.722674951915984,0.1102845794345794,0.00040552384911102734,0.0243412907246029,2.374851483918387,-5.18341081310999,5.007377058795016,-0.004514299678465089,7.207043294258677,-0.009981036680974054,-0.18756177581409925,0.13610598366005755,0.07883629299374477,-0.019893445074558258,-0.7138658761978149,0.7138658761978149,0.020000000000436557,-6.013947627342325,5.8963836511255385,0.11032622248735871,0.0004378593091834333,0.030783924369396736,2.372774247198114,-5.055154859517912,4.908408224964404,0.009369861017089726,7.04605503679128,-0.013052781849260953,0.23179206957823387,0.21833050027367648,-0.19159588658113066
-6.013947627342325,5.8963836511255385,0.11032622248735871,0.0004378593091834333,0.030783924369396736,2.372774247198114,-5.055154859517912,4.908408224964404,0.009369861017089726,7.04605503679128,-0.013052781849260953,0.23179206957823387,0.21833050027367648,-0.19159588658113066,-0.016317538917064667,-0.7781088352203369,0.7781088352203369,0.019999999999527063,-6.189410215514617,6.064959213865152,0.11050317060819106,0.0005969466009090339,0.036747142848563424,2.3775470573003767,-4.957298496175415,4.723655328216716,0.017297176546041293,6.847435026301653,0.019015797392897937,-0.04530978075326075,-0.7016578018150038,-0.06625682906280868
-6.189410215514617,6.064959213865152,0.11050317060819106,0.0005969466009090339,0.036747142848563424,2.3775470573003767,-4.957298496175415,4.723655328216716,0.017297176546041293,6.847435026301653,0.019015797392897937,-0.04530978075326075,-0.7016578018150038,-0.06625682906280868,-0.017211515456438065,-0.8899484276771545,0.8899484276771545,0.020000000000436557,-6.214182613959978,6.088589721552545,0.1105440790639236,-0.0009225929792796687,0.03408640828969491,2.377669998264683,-4.9541817553823755,4.728212769020041,0.003656651461110577,6.848339279059199,0.01272687639150405,0.22396681552217382,-0.4479820780178988,-0.018005664240389643
-6.214182613959978,6.088589721552545,0.1105440790639236,-0.0009225929792796687,0.03408640828969491,2.377669998264683,-4.9541817553823755,4.728212769020041,0.003656651461110577,6.848339279059199,0.01272687639150405,0.22396681552217382,-0.4479820780178988,-0.018005664240389643,-0.021712224930524826,-0.9682484269142151,0.9682484269142151,0.03999999999996362,-6.335964053206473,6.205431873751818,0.11053804301392037,0.0005828695934837699,0.040314638455846305,2.375182798689751,-4.7955694792915455,4.626031786283212,0.00092415358710074,6.663153360368141,-0.006634352265596721,-0.23964810992021743,0.12096194472490183,0.2754213547258301
-6.335964053206473,6.205431873751818,0.11053804301392037,0.0005828695934837699,0.040314638455846305,2.375182798689751,-4.7955694792915455,4.626031786283212,0.00092415358710074,6.663153360368141,-0.006634352265596721,-0.23964810992021743,0.12096194472490183,0.2754213547258301,-0.016317538917064667,-1.0,1.0,0.03999999999996362,-6.501104118895703,6.364633696951806,0.11055529472360423,-0.0002533896698486764,0.04294022829904773,2.3710014125886,-4.6322988304545385,4.471341766556201,-0.004807165307861461,6.438225516672269,0.018489035954136757,-0.20369391275508328,-0.05588212659319444,0.03843132722951174
-6.501104118895703,6.364633696951806,0.11055529472360423,-0.0002533896698486764,0.04294022829904773,2.3710014125886,-4.6322988304545385,4.471341766556201,-0.004807165307861461,6.438225516672269,0.018489035954136757,-0.20369391275508328,-0.05588212659319444,0.03843132722951174,-0.014560411684215069,-1.0,1.0,0.019999999999527063,-6.660108533846405,6.518408266252592,0.11044308207271533,0.0016470739610746602,0.044811871889971225,2.3737717047623423,-4.454052917878249,4.308852295558416,0.0033719616549209297,6.197157123676837,-0.006251772565593949,0.5888041386023698,0.13594988682009052,-0.17439999346459864
-6.660108533846405,6.518408266252592,0.11044308207271533,0.0016470739610746602,0.044811871889971225,2.3737717047623423,-4.454052917878249,4.308852295558416,0.0033719616549209297,6.197157123676837,-0.006251772565593949,0.5888041386023698,0.13594988682009052,-0.17439999346459864,-0.019461870193481445,-1.0,1.0,0.020000000000436557,-6.682349251667244,6.539908026087595,0.11043842421859967,0.0015799368711150571,0.04264292705631368,2.374789604984329,-4.444844812573565,4.291145989157386,-0.0020352197228457602,6.178231210815443,-0.006197889124718525,0.5116538420305289,0.0638451796622748,-0.26344966504033623
-6.682349251667244,6.539908026087595,0.11043842421859967,0.0015799368711150571,0.04264292705631368,2.374789604984329,-4.444844812573565,4.291145989157386,-0.0020352197228457602,6.178231210815443,-0.006197889124718525,0.5116538420305289,0.0638451796622748,-0.26344966504033623,-0.020787421613931656,-1.0,1.0,0.019999999999527063,-6.8351247409763225,6.686659522865137,0.11036702832316417,-0.0008507708457868708,0.043615694808161125,2.376909553046827,-4.2871494898948,4.1132535330656275,0.004705663493680012,5.941254527929702,-0.0001016706005620982,0.3540246511084031,-0.1583258284977069,0.01694495778096196
-6.8351247409763225,6.686659522865137,0.11036702832316417,-0.0008507708457868708,0.043615694808161125,2.376909553046827,-4.2871494898948,4.1132535330656275,0.004705663493680012,5.941254527929702,-0.0001016706005620982,0.3540246511084031,-0.1583258284977069,0.01694495778096196,-0.017211515456438065,-1.0,1.0,0.040000000000873115,-6.961455924556407,6.807857033485506,0.1102414405827237,0.0006375863708227849,0.044143789890239093,2.374812544033256,-4.148451295489408,3.960360109125448,-0.0014853536731400663,5.735277870379187,0.02623155616155204,0.16092619982033513,-0.050865616521316444,-0.22113843290997207
-6.961455924556407,6.807857033485506,0.1102414405827237,0.0006375863708227849,0.044143789890239093,2.374812544033256,-4.148451295489408,3.960360109125448,-0.0014853536731400663,5.735277870379187,0.02623155616155204,0.16092619982033513,-0.050865616521316444,-0.22113843290997207,-0.017211515456438065,-1.0,1.0,0.03999999999996362,-7.220820501168538,7.056454286038775,0.1101014172866849,-2.3395075830757813e-05,0.04369401104619316,2.3772456177816226,-3.831119954093166,3.6824199799322495,-0.0030644300601036234,5.313911175707031,-0.0067102869513897545,-0.2579849693974138,0.20044902341526144,-0.07870093937310602
-7.220820501168538,7.056454286038775,0.1101014172866849,-2.3395075830757813e-05,0.04369401104619316,2.3772456177816226,-3.831119954093166,3.6824199799322495,-0.0030644300601036234,5.313911175707031,-0.0067102869513897545,-0.2579849693974138,0.20044902341526144,-0.07870093937310602,-0.019893445074558258,-1.0,1.0,0.019999999999527063,-7.23992454443454,7.0748135325926444,0.11010593639472929,0.00034643779370578486,0.04264916795627013,2.377967065873932,-3.813879215181989,3.663326447381238,0.0049712669307350466,5.288247353820918,-0.008674842136059624,0.570248078092213,-0.32386654525369185,-0.1816383894622403
-7.23992454443454,7.0748135325926444,0.11010593639472929,0.00034643779370578486,0.04264916795627013,2.377967065873932,-3.813879215181989,3.663326447381238,0.0049712669307350466,5.288247353820918,-0.008674842136059624,0.570248078092213,-0.32386654525369185,-0.1816383894622403,-0.019893445074558258,-1.0,1.0,0.03999999999996362,-7.352182729341727,7.1826024862809605,0.11008604564092331,0.0016767019689188963,0.04318830564763414,2.381216969742812,-3.6754026620451556,3.5162920738345096,0.0020376167827156344,5.086519124586948,-0.014760484112871897,0.20149340259970774,-0.022125616087900087,-0.14348302326129792
-7.352182729341727,7.1826024862809605,0.11008604564092331,0.0016767019689188963,0.04318830564763414,2.381216969742812,-3.6754026620451556,3.5162920738345096,0.0020376167827156344,5.086519124586948,-0.014760484112871897,0.20149340259970774,-0.022125616087900087,-0.14348302326129792,-0.019030295312404633,-1.0,1.0,0.020000000000436557,-7.442824227235695,7.269003684102475,0.1100843577701349,-0.000605296527889873,0.04348894668301114,2.383070847990807,-3.551158417114748,3.410210018805433,0.003100841084516831,4.923331428475885,-0.03265151125869714,0.11654505732721065,-0.07235998904419857,0.32654879760463623
-7.442824227235695,7.269003684102475,0.1100843577701349,-0.000605296527889873,0.04348894668301114,2.383070847990807,-3.551158417114748,3.410210018805433,0.003100841084516831,4.923331428475885,-0.03265151125869714,0.11654505732721065,-0.07235998904419857,0.32654879760463623,-0.016317538917064667,-1.0,1.0,0.03999999999996362,-7.648089220488432,7.465567238516202,0.11004924780486483,1.7023810687753987e-06,0.043186126197103,2.376045104321283,-3.282913633986351,3.1449267133019028,-0.002547756837503995,4.546210749170351,0.0073337835618794145,-0.23161132411258464,0.47751875252593656,0.16742505736989385
-7.648089220488432,7.465567238516202,0.11004924780486483,1.7023810687753987e-06,0.043186126197103,2.376045104321283,-3.282913633986351,3.1449267133019028,-0.002547756837503995,4.546210749170351,0.0073337835618794145,-0.23161132411258464,0.47751875252593656,0.16742505736989385,-0.017211515456438065,-1.0,1.0,0.019999999999527063,-7.6644544198839535,7.481218679931297,0.11005330291136833,0.0003639672586682823,0.04208427368350514,2.3753237272638987,-3.266298715225862,3.123696006630443,0.0009387502002372039,4.51951070485175,0.014388455634097852,0.2458171065803744,-0.35418056687044974,0.14933229250930613
-7.6644544198839535,7.481218679931297,0.11005330291136833,0.0003639672586682823,0.04208427368350514,2.3753237272638987,-3.266298715225862,3.123696006630443,0.0009387502002372039,4.51951070485175,0.014388455634097852,0.2458171065803744,-0.35418056687044974,0.14933229250930613,-0.017211515456438065,-1.0,1.0,0.03999999999996362,-7.728757994937873,7.542750033090006,0.11002681066075401,-7.613109521233604e-05,0.041837366743297105,2.374756610265787,-3.17142825018482,3.042090142037858,4.8504949389155394e-05,4.3945616128350995,0.009889860991768806,0.30728569717253884,-0.1274329646188186,-0.104635513621798
-7.728757994937873,7.542750033090006,0.11002681066075401,-7.613109521233604e-05,0.041837366743297105,2.374756610265787,-3.17142825018482,3.042090142037858,4.8504949389155394e-05,4.3945616128350995,0.009889860991768806,0.30728569717253884,-0.1274329646188186,-0.104635513621798,-0.016317538917064667,-1.0,1.0,0.020000000000436557,-7.821667391590131,7.631768262026356,0.10999260256771307,0.00028469315022493517,0.04287048861337187,2.375122319414727,-3.0386801693908474,2.8954923336444045,0.0006154998617729224,4.197258299162019,0.021812752193553386,-0.2763515424942435,-0.13069277436512444,-0.047608289078444305
-7.821667391590131,7.631768262026356,0.10999260256771307,0.00028469315022493517,0.04287048861337187,2.375122319414727,-3.0386801693908474,2.8954923336444045,0.0006154998617729224,4.197258299162019,0.021812752193553386,-0.2763515424942435,-0.13069277436512444,-0.047608289078444305,-0.019893445074558258,-1.0,1.0,0.03999999999996362,-7.924977645382051,7.730516449485976,0.1099778368358987,0.00023609049813188727,0.042394200912589185,2.372313193005776,-2.873608196565249,2.746459723750061,-0.004754680433799424,3.9749210325889877,0.025843107977588264,-0.634522223966242,0.3199015141935857,0.09199186553407947
-7.924977645382051,7.730516449485976,0.1099778368358987,0.00023609049813188727,0.042394200912589185,2.372313193005776,-2.873608196565249,2.746459723750061,-0.004754680433799424,3.9749210325889877,0.025843107977588264,-0.634522223966242,0.3199015141935857,0.09199186553407947,-0.018136318773031235,-1.0,1.0,0.019999999999527063,-8.035913323591497,7.8369048650856525,0.10994948977368135,-8.997762785697787e-05,0.04284428286792984,2.371262573250891,-2.6770217354852233,2.5767371150646032,-0.003148923058314629,3.7156152479539606,0.014928549286486126,-0.34716969832374006,0.21608245394624587,-0.028012720055667146
-8.035913323591497,7.8369048650856525,0.10994948977368135,-8.997762785697787e-05,0.04284428286792984,2.371262573250891,-2.6770217354852233,2.5767371150646032,-0.003148923058314629,3.7156152479539606,0.014928549286486126,-0.34716969832374006,0.21608245394624587,-0.028012720055667146,-0.01674911379814148,-1.0,1.0,0.020000000000436557,-8.088504801015137,7.8875685589720295,0.10993787889784354,-9.631070787128893e-05,0.04193172134880356,2.3705941038092533,-2.588260508812458,2.493193723636027,0.0027144483068147207,3.59372617936713,0.015477492934274695,0.2741076536899935,-0.30809534266622857,0.022803645660223474
-8.088504801015137,7.8875685589720295,0.10993787889784354,-9.631070787128893e-05,0.04193172134880356,2.3705941038092533,-2.588260508812458,2.493193723636027,0.0027144483068147207,3.59372617936713,0.015477492934274695,0.2741076536899935,-0.30809534266622857,0.022803645660223474,-0.013666435144841671,-1.0,1.0,0.019999999999527063,-8.151697737529899,7.948455639885663,0.10991910697842291,-2.6020118751731835e-05,0.04233188360890454,2.370064345827453,-2.466012378398843,2.386737483473726,-0.0025120681609624718,3.4318597458050504,0.00845875627418291,-0.1866630853842762,0.2198715039786371,-0.0483300578189
-8.151697737529899,7.948455639885663,0.10991910697842291,-2.6020118751731835e-05,0.04233188360890454,2.370064345827453,-2.466012378398843,2.386737483473726,-0.0025120681609624718,3.4318597458050504,0.00845875627418291,-0.1866630853842762,0.2198715039786371,-0.0483300578189,-0.020787421613931656,-1.0,1.0,0.020000000000436557,-8.163971628378329,7.960327884197051,0.1099215143574093,-0.0001633377049263439,0.041193221235179385,2.3701766540814484,-2.4493103805960583,2.370351117426717,0.0016112184702456178,3.408462834211571,0.008177296626393993,0.41520521091473367,-0.40177782191929917,-0.0398136378880027
-8.163971628378329,7.960327884197051,0.1099215143574093,-0.0001633377049263439,0.041193221235179385,2.3701766540814484,-2.4493103805960583,2.370351117426717,0.0016112184702456178,3.408462834211571,0.008177296626393993,0.41520521091473367,-0.40177782191929917,-0.0398136378880027,-0.019461870193481445,-1.0,1.0,0.019999999999527063,-8.211850656014326,8.006737644821795,0.10990809861311215,0.00010442179606882907,0.04213764811630212,2.3703312643683785,-2.353395503839797,2.2743190433245144,0.000587911559347537,3.27275180086125,0.009651853777824515,0.17580693925354676,-0.0599286609561232,-0.060266443930845744
-8.211850656014326,8.006737644821795,0.10990809861311215,0.00010442179606882907,0.04213764811630212,2.3703312643683785,-2.353395503839797,2.2743190433245144,0.000587911559347537,3.27275180086125,0.009651853777824515,0.17580693925354676,-0.0599286609561232,-0.060266443930845744,-0.01674911379814148,-0.6486980319023132,0.6486980319023132,0.020000000000436557,-8.280359873398913,8.073056244062293,0.10989509981156728,-6.262888356115122e-05,0.0419895177967969,2.3702669092252755,-2.2229984342492934,2.1409861742436735,-0.0005030860649321289,3.086313622013355,0.014562402005683595,-0.03346269033436266,0.017818492181752126,0.02236068187616681
-8.280359873398913,8.073056244062293,0.10989509981156728,-6.262888356115122e-05,0.0419895177967969,2.3702669092252755,-2.2229984342492934,2.1409861742436735,-0.0005030860649321289,3.086313622013355,0.014562402005683595,-0.03346269033436266,0.017818492181752126,0.02236068187616681,-0.018136318773031235,-0.14606744050979614,0.14606744050979614,0.03999999999996362,-8.376308207408668,8.166072107846928,0.1097442567088226,8.119530895546755e-06,0.029716121459527685,2.370487055005375,-2.0773734494735248,2.021295848274613,-0.007075840645415513,2.898467562909124,-0.0017724540508476938,0.2904458193116385,-0.2877830376092732,-0.004882958774041534
-8.376308207408668,8.166072107846928,0.1097442567088226,8.119530895546755e-06,0.029716121459527685,2.370487055005375,-2.0773734494735248,2.021295848274613,-0.007075840645415513,2.898467562909124,-0.0017724540508476938,0.2904458193116385,-0.2877830376092732,-0.004882958774041534,-0.016317538917064667,-0.00521989818662405,0.00521989818662405,0.019999999999527063,-8.397036336140152,8.186206249660579,0.1096472138660706,-3.0116971682669977e-06,0.025659904757692753,2.3704756159255473,-2.0686846676177923,2.007041594240847,-0.00983897038251251,2.8823022608617572,0.002427360908362486,0.28799837655478905,-0.28203230394942325,0.001007955874830304
-8.397036336140152,8.186206249660579,0.1096472138660706,-3.0116971682669977e-06,0.025659904757692753,2.3704756159255473,-2.0686846676177923,2.007041594240847,-0.00983897038251251,2.8823022608617572,0.002427360908362486,0.28799837655478905,-0.28203230394942325,0.001007955874830304,-0.019893445074558258,-0.0,0.0,0.020000000000436557,-8.46899348239479,8.255945449004003,0.10930605838052496,-7.0862378996938694e-06,0.017622857124511452,2.3706499433037345,-2.0424460292192537,1.9792078645805076,-0.006997885477379985,2.8440880005460403,0.0036053627912993047,0.0605657912488699,-0.0664447567151933,-0.0013308369085770731
-8.46899348239479,8.255945449004003,0.10930605838052496,-7.0862378996938694e-06,0.017622857124511452,2.3706499433037345,-2.0424460292192537,1.9792078645805076,-0.006997885477379985,2.8440880005460403,0.0036053627912993047,0.0605657912488699,-0.0664447567151933,-0.0013308369085770731,-0.019893445074558258,-0.02017088606953621,0.02017088606953621,0.020000000000436557,-8.4995238098431,8.285539053487007,0.10921972009374001,-1.1723765185082214e-05,0.01597574865699793,2.3707366030064403,-2.0330550632315547,1.9645278457543667,-0.003754847208172221,2.827123729894759,0.007345933684621553,0.0735585522795979,-0.0910600556901946,0.003992436846326594
-8.4995238098431,8.285539053487007,0.10921972009374001,-1.1723765185082214e-05,0.01597574865699793,2.3707366030064403,-2.0330550632315547,1.9645278457543667,-0.003754847208172221,2.827123729894759,0.007345933684621553,0.0735585522795979,-0.0910600556901946,0.003992436846326594,-0.019893445074558258,-0.025010690093040466,0.025010690093040466,0.019999999999527063,-8.509659556972922,8.29536343380994,0.10920176787367472,-6.130598318675957e-06,0.015599593630789941,2.370768086570708,-2.02430907127232,1.9643609124242172,-0.003194617307229218,2.820733834295246,0.001283104651656819,0.0749275512165729,-0.06299843921502009,-0.001713909615533806
-8.509659556972922,8.29536343380994,0.10920176787367472,-6.130598318675957e-06,0.015599593630789941,2.370768086570708,-2.02430907127232,1.9643609124242172,-0.003194617307229218,2.820733834295246,0.001283104651656819,0.0749275512165729,-0.06299843921502009,-0.001713909615533806,-0.019893445074558258,-0.02636706829071045,0.02636706829071045,0.020000000000436557,-8.549960900510776,8.334473681924683,0.10918804901194148,-6.238920120763808e-06,0.0149812525790254,2.3707710530864023,-2.006728175911049,1.9452988102453965,0.0016991065211183903,2.7948413452144543,0.0026996698503980454,0.04507392033302744,-0.052064730364337536,0.0030266419416041432
-8.549960900510776,8.334473681924683,0.10918804901194148,-6.238920120763808e-06,0.0149812525790254,2.3707710530864023,-2.006728175911049,1.9452988102453965,0.0016991065211183903,2.7948413452144543,0.0026996698503980454,0.04507392033302744,-0.052064730364337536,0.0030266419416041432,-0.018136318773031235,-0.02636706829071045,0.02636706829071045,0.019999999999527063,-8.599838641616026,8.382830277991456,0.10926912438239203,-2.7150945425713956e-05,0.014607933139974981,2.3707475258430764,-1.9838244152060975,1.9236329181212295,0.004819989614544086,2.7633163765641324,0.002348842243818483,0.013053178402383557,-0.03232442325506073,0.012800550593555823
-8.599838641616026,8.382830277991456,0.10926912438239203,-2.7150945425713956e-05,0.014607933139974981,2.3707475258430764,-1.9838244152060975,1.9236329181212295,0.004819989614544086,2.7633163765641324,0.002348842243818483,0.013053178402383557,-0.03232442325506073,0.012800550593555823,-0.019893445074558258,-0.02636706829071045,0.02636706829071045,0.020000000000436557,-8.649105436680143,8.430630308343687,0.10939929155218348,8.262089602387732e-05,0.014631161635555542,2.3707374009926436,-1.9624358796521162,1.8969415570723542,0.00497527338314005,2.7293768559405547,0.006620494703245772,-0.06916701703953425,0.02183210029345001,0.007593506283734662
-8.649105436680143,8.430630308343687,0.10939929155218348,8.262089602387732e-05,0.014631161635555542,2.3707374009926436,-1.9624358796521162,1.8969415570723542,0.00497527338314005,2.7293768559405547,0.006620494703245772,-0.06916701703953425,0.02183210029345001,0.007593506283734662,-0.019893445074558258,-0.01755061000585556,0.01755061000585556,0.019999999999527063,-8.688067963327539,8.468462160144302,0.10950174376138283,3.7516946745764364e-05,0.014684278714989714,2.3708576777306445,-1.9373969637536568,1.8840000849872,0.0048001968016576635,2.7023989025873547,-0.0018672676096347374,-0.060494840276454805,-0.01899461914739805,-0.03105342882328604
-8.688067963327539,8.468462160144302,0.10950174376138283,3.7516946745764364e-05,0.014684278714989714,2.3708576777306445,-1.9373969637536568,1.8840000849872,0.0048001968016576635,2.7023989025873547,-0.0018672676096347374,-0.060494840276454805,-0.01899461914739805,-0.03105342882328604,-0.019893445074558258,0.1388847976922989,0.0,0.020000000000436557,-8.707423433085525,8.487211789993768,0.109543714773182,1.3175515317934298e-05,0.014609601745433526,2.3708141747804463,-1.930389653101303,1.8711884176825009,0.00479139503012644,2.6884463466154918,0.0025590309737071326,0.08773942303427976,-0.043614696825672795,0.013887216907086171
-8.707423433085525,8.487211789993768,0.109543714773182,1.3175515317934298e-05,0.014609601745433526,2.3708141747804463,-1.930389653101303,1.8711884176825009,0.00479139503012644,2.6884463466154918,0.0025590309737071326,0.08773942303427976,-0.043614696825672795,0.013887216907086171,-0.019030295312404633,0.3808441758155823,0.0,0.019999999999527063,-8.745847169933914,8.524437254914677,0.10959999887924823,2.5607311655178058e-05,0.014192147299990434,2.3707878449400024,-1.9134255887500489,1.8525736335435963,0.001831311454046837,2.6633079453992208,0.004164055448030668,0.05186769372828656,-0.05588566249588024,-0.005468714388846591
-8.745847169933914,8.524437254914677,0.10959999887924823,2.5607311655178058e-05,0.014192147299990434,2.3707878449400024,-1.9134255887500489,1.8525736335435963,0.001831311454046837,2.6633079453992208,0.004164055448030668,0.05186769372828656,-0.05588566249588024,-0.005468714388846591,-0.019030295312404633,0.6495611667633057,0.0,0.020000000000436557,-8.841863676662276,8.617488931948586,0.10945505194322644,-2.541368005446641e-05,0.0006157207145867868,2.370822432923648,-1.9542789496519284,1.8923844917798383,-0.005739880142584529,2.720350984628019,0.0039746968246738845,0.18695440742962935,-0.21186430052286262,-0.009692726831152737
