x_pos,y_pos,z_pos,roll,pitch,yaw,u_x,u_y,u_z,comp_u_x,comp_u_y,roll_mder,pitch_mder,yaw_mder,steer,throttle,brake,time_step,act_x_pos,act_y_pos,act_z_pos,act_roll,act_pitch,act_yaw,act_u_x,act_u_y,act_u_z,act_comp_u_x,act_comp_u_y,act_roll_mder,act_pitch_mder,act_yaw_mder,accel_roll,accel_x,accel_y,accel_yaw
-0.012901472528145774,0.051718347571888076,0.10911289418600859,-2.118685924855448e-06,-0.019502787182021343,2.356222496186295,-0.30293488741319563,0.2960012747429353,0.00015616241135065628,0.42351195890027227,0.004890943665822933,0.08727423438672645,-0.08738110348326816,-0.02016911435684565,-0.011847655288875103,1.0,0.0,0.05000000000006821,-0.03334113991399512,0.07145184138535257,0.10935136480232538,1.3898166600339111e-05,-0.021356923842181904,2.3582278167781983,-0.5101242770313578,0.48772068847711353,0.0069343645000169585,0.7056136944846809,0.014407017076216944,-0.07219496030727823,0.08909247203308952,-0.07234572925316995,0.0003203370505034542,5.642034711680476,0.19032146820762055,0.04010641183801091
-0.03334113991399512,0.07145184138535257,0.10935136480232538,1.3898166600339111e-05,-0.021356923842181904,2.3582278167781983,-0.5101242770313578,0.48772068847711353,0.0069343645000169585,0.7056136944846809,0.014407017076216944,-0.07219496030727823,0.08909247203308952,-0.07234572925316995,-0.008271749131381512,1.0,0.0,0.024999999999977263,-0.04742405625692747,0.08488017087583495,0.10952538655751037,2.2072840933989354e-06,-0.02158860657895992,2.359970386487567,-0.6128574039951157,0.5834457590649417,0.00631614653538686,0.8459865764812404,0.01760294907249449,0.004408562600291308,-0.0017684166048056642,-0.07695054047774684,-0.0004676353002780324,5.614915279867487,0.1278372798512181,0.06970278837481148
-0.04742405625692747,0.08488017087583495,0.10952538655751037,2.2072840933989354e-06,-0.02158860657895992,2.359970386487567,-0.6128574039951157,0.5834457590649417,0.00631614653538686,0.8459865764812404,0.01760294907249449,0.004408562600291308,-0.0017684166048056642,-0.07695054047774684,-0.010984505526721478,1.0,0.0,0.024999999999977263,-0.06410036666166619,0.10062436954245202,0.10965649619752724,4.347615544592904e-05,-0.021529221588639617,2.3623590000475327,-0.7187747794422229,0.671840007121557,0.003637929666571671,0.9834990479407758,0.02712566000851524,0.04509565030044155,-0.05865483305329778,-0.10879824733269435,0.0016507548541027056,5.500498858386418,0.3809084374411765,0.0955445423987181
-0.06410036666166619,0.10062436954245202,0.10965649619752724,4.347615544592904e-05,-0.021529221588639617,2.3623590000475327,-0.7187747794422229,0.671840007121557,0.003637929666571671,0.9834990479407758,0.02712566000851524,0.04509565030044155,-0.05865483305329778,-0.10879824733269435,-0.010984505526721478,1.0,0.0,0.03999999999996362,-0.0963333307396681,0.13043295102223798,0.10973116235694422,8.30586712774487e-05,-0.02159953002431322,2.3680701818749417,-0.8902290676911613,0.8145871351710378,-2.9544076706990857e-05,1.2060372718408325,0.03916749518611917,0.03681065223877289,-0.019698926949624627,-0.1792960401822292,0.0009895628957888915,5.563455597506478,0.3010458794403721,0.1427795456853531
-0.0963333307396681,0.13043295102223798,0.10973116235694422,8.30586712774487e-05,-0.02159953002431322,2.3680701818749417,-0.8902290676911613,0.8145871351710378,-2.9544076706990857e-05,1.2060372718408325,0.03916749518611917,0.03681065223877289,-0.019698926949624627,-0.1792960401822292,-0.011847655288875103,1.0,0.0,0.01999999999998181,-0.11498745445979885,0.14749470879017304,0.10971643636753878,4.7844950745080684e-05,-0.021500460159209662,2.3713701565019627,-0.9729717765385514,0.8866470772824248,-0.0014375518025957316,1.3157239868749984,0.041079288647803525,-0.019013634108085743,0.039428994543006426,-0.1916313238982497,-0.001760686026620002,5.484335751713279,0.09558967308430456,0.16499873135120155
-0.11498745445979885,0.14749470879017304,0.10971643636753878,4.7844950745080684e-05,-0.021500460159209662,2.3713701565019627,-0.9729717765385514,0.8866470772824248,-0.0014375518025957316,1.3157239868749984,0.041079288647803525,-0.019013634108085743,0.039428994543006426,-0.1916313238982497,-0.011847655288875103,1.0,0.0,0.02500000000009095,-0.14058355629490293,0.1709758230322271,0.10967326227390398,1.6584583186802292e-05,-0.0216261261544903,2.3752133272032463,-1.0736193072748184,0.9841262592337423,-0.0020285594806987023,1.45598615632266,0.03559808510897999,0.06814214875129629,-0.03502012058008114,-0.17269837187615272,-0.0012504147023265867,5.610486777886051,-0.21924814155214364,0.1537268280507845
-0.14058355629490293,0.1709758230322271,0.10967326227390398,1.6584583186802292e-05,-0.0216261261544903,2.3752133272032463,-1.0736193072748184,0.9841262592337423,-0.0020285594806987023,1.45598615632266,0.03559808510897999,0.06814214875129629,-0.03502012058008114,-0.17269837187615272,-0.01009052898734808,1.0,0.0,0.024999999999977263,-0.16877064565435518,0.19675140042107853,0.10962726000542466,-4.8689042626744395e-06,-0.021523756783223776,2.3790959176278874,-1.1788619217093121,1.073250278292677,-0.0014287478691888192,1.5937763171391115,0.03819216199655939,-0.060450829517948085,0.022251541572559336,-0.14073497318072672,-0.0008581394979798497,5.511606432663076,0.10376307550327035,0.155303616985786
-0.16877064565435518,0.19675140042107853,0.10962726000542466,-4.8689042626744395e-06,-0.021523756783223776,2.3790959176278874,-1.1788619217093121,1.073250278292677,-0.0014287478691888192,1.5937763171391115,0.03819216199655939,-0.060450829517948085,0.022251541572559336,-0.14073497318072672,-0.007377772592008114,1.0,0.0,0.024999999999977263,-0.1995903425768244,0.22476583129529565,0.10959303914565402,-6.537554171002159e-07,-0.021459770884833605,2.3831485314936627,-1.2829359467154322,1.163041560222557,-0.0013172124928188048,1.7312238735468868,0.03813415582985147,-0.02629561498144377,0.014066827852268015,-0.1572250733886476,0.0001686059538231223,5.497902256316012,-0.0023202466683190934,0.16210455463115814
-0.1995903425768244,0.22476583129529565,0.10959303914565402,-6.537554171002159e-07,-0.021459770884833605,2.3831485314936627,-1.2829359467154322,1.163041560222557,-0.0013172124928188048,1.7312238735468868,0.03813415582985147,-0.02629561498144377,0.014066827852268015,-0.1572250733886476,-0.01009052898734808,1.0,0.0,0.024999999999977263,-0.2331094792944075,0.25491823497135063,0.10957830951188216,6.768545035877078e-05,-0.0214661013100221,2.3875769909306417,-1.3915432923164832,1.2487575004092115,-0.00027226523494566085,1.8692233226933386,0.04233437277832608,0.128144270323487,-0.045247855499265584,-0.2289046880191335,0.0027335682310373264,5.519977965863092,0.16800867793913724,0.17713837747932126
-0.2331094792944075,0.25491823497135063,0.10957830951188216,6.768545035877078e-05,-0.0214661013100221,2.3875769909306417,-1.3915432923164832,1.2487575004092115,-0.00027226523494566085,1.8692233226933386,0.04233437277832608,0.128144270323487,-0.045247855499265584,-0.2289046880191335,-0.010984505526721478,1.0,0.0,0.01999999999998181,-0.26187014274621667,0.28057284087870105,0.10958047922966122,5.224826283146848e-05,-0.021521356978860897,2.3915429545243363,-1.479971639180095,1.3160842156372203,0.00020563761507760153,1.9799705067272968,0.04594026465864609,0.1332974135496502,-0.05635809922502647,-0.2400226518857816,-0.0007718593763658172,5.537359201702947,0.18029459401616454,0.19829817968491087
-0.26187014274621667,0.28057284087870105,0.10958047922966122,5.224826283146848e-05,-0.021521356978860897,2.3915429545243363,-1.479971639180095,1.3160842156372203,0.00020563761507760153,1.9799705067272968,0.04594026465864609,0.1332974135496502,-0.05635809922502647,-0.2400226518857816,-0.00916572567075491,1.0,0.0,0.020000000000095497,-0.2923790710905596,0.30763163417160627,0.10958995191643037,7.736828498734675e-05,-0.021623049476347758,2.3955683829893766,-1.5694239453934649,1.3839511051628126,0.0006910306113497786,2.0918954620599983,0.048842171005661905,0.12641952731913503,-0.07147378129162046,-0.23795720796026512,0.001256001107787916,5.596247766608355,0.14509531735009792,0.20127142325105304
-0.2923790710905596,0.30763163417160627,0.10958995191643037,7.736828498734675e-05,-0.021623049476347758,2.3955683829893766,-1.5694239453934649,1.3839511051628126,0.0006910306113497786,2.0918954620599983,0.048842171005661905,0.12641952731913503,-0.07147378129162046,-0.23795720796026512,-0.005589819513261318,1.0,0.0,0.049999999999954525,-0.3767676301249683,0.38084509998003685,0.109628694964056,0.00012580927278628317,-0.021641565211159917,2.40744676395826,-1.8013924821628275,1.5424462558289989,0.0011462867050202885,2.370726580088874,0.06173175336697989,0.13688177718256322,-0.19376103128768335,-0.22032800884803863,0.0009688197559796097,5.576622360582588,0.2577916472265942,0.23756761937788376
-0.3767676301249683,0.38084509998003685,0.109628694964056,0.00012580927278628317,-0.021641565211159917,2.40744676395826,-1.8013924821628275,1.5424462558289989,0.0011462867050202885,2.370726580088874,0.06173175336697989,0.13688177718256322,-0.19376103128768335,-0.22032800884803863,-0.011847655288875103,1.0,0.0,0.049999999999954525,-0.4724461149987462,0.46197694636050374,0.10964001846189056,0.00011479974441713644,-0.021061006856613263,2.420748813661397,-2.0264689041369413,1.6943101761342665,-0.0005470598829676945,2.6406594702949215,0.06465875290979395,-0.33156896864408986,-0.007931059174059861,-0.28712440352937774,-0.00022019056738313499,5.3986578041258575,0.058539990856334385,0.2660409940629837
-0.4724461149987462,0.46197694636050374,0.10964001846189056,0.00011479974441713644,-0.021061006856613263,2.420748813661397,-2.0264689041369413,1.6943101761342665,-0.0005470598829676945,2.6406594702949215,0.06465875290979395,-0.33156896864408986,-0.007931059174059861,-0.28712440352937774,-0.01141608040779829,1.0,0.0,0.030000000000086402,-0.5353062163916364,0.5143172178174245,0.1096389541175487,0.0007812872589506095,-0.021020751170071364,2.429651048519859,-2.1653082701154602,1.7844393981361526,-0.000703739803037999,2.8051268726489926,0.06361681061953872,-0.28667350067007147,0.04771901231567829,-0.2827303756127313,0.02221625048438512,5.482246745119914,-0.034731409675074196,0.2967411619478779
-0.5353062163916364,0.5143172178174245,0.1096389541175487,0.0007812872589506095,-0.021020751170071364,2.429651048519859,-2.1653082701154602,1.7844393981361526,-0.000703739803037999,2.8051268726489926,0.06361681061953872,-0.28667350067007147,0.04771901231567829,-0.2827303756127313,-0.0127416318282485,1.0,0.0,0.029999999999972715,-0.6025388794875735,0.5691231232411146,0.10964166604524297,0.001504665182345524,-0.021183591332269804,2.439831208282168,-2.313881028737446,1.8643829517774007,0.0008863628815067928,2.9707037538005063,0.06991718805025937,0.21425145023052353,0.056789840728556494,-0.4571748272058356,0.024112597446519078,5.519229371722143,0.21001258102421266,0.3393386587439351
-0.6025388794875735,0.5691231232411146,0.10964166604524297,0.001504665182345524,-0.021183591332269804,2.439831208282168,-2.313881028737446,1.8643829517774007,0.0008863628815067928,2.9707037538005063,0.06991718805025937,0.21425145023052353,0.056789840728556494,-0.4571748272058356,-0.007377772592008114,1.0,0.0,0.024999999999977263,-0.662182442482222,0.6163295116110111,0.10965367011643004,0.0010168749193969018,-0.020985510478526547,2.4495094137347473,-2.447437732057632,1.9117753197125413,-0.00051872544331244,3.1043121191630547,0.08990323786595433,-0.25351854155750975,0.1466814734141053,-0.34197608381813016,-0.019511610517962633,5.3443346145067965,0.7994419926285256,0.3871282181035309
-0.662182442482222,0.6163295116110111,0.10965367011643004,0.0010168749193969018,-0.020985510478526547,2.4495094137347473,-2.447437732057632,1.9117753197125413,-0.00051872544331244,3.1043121191630547,0.08990323786595433,-0.25351854155750975,0.1466814734141053,-0.34197608381813016,-0.01009052898734808,1.0,0.0,0.024999999999977263,-0.7248321259732817,0.6652263947564531,0.10965692576834826,-0.00011020228392764297,-0.021404144610198666,2.45657260982435,-2.546957392754737,2.011261922826873,0.00021860225505704323,3.2448823751029785,0.053896701822214954,0.09819888390633694,-0.07879367981293069,-0.2278415779862473,-0.04508308813302279,5.622810237602065,-1.440261441750885,0.2825278435843697
-0.7248321259732817,0.6652263947564531,0.10965692576834826,-0.00011020228392764297,-0.021404144610198666,2.45657260982435,-2.546957392754737,2.011261922826873,0.00021860225505704323,3.2448823751029785,0.053896701822214954,0.09819888390633694,-0.07879367981293069,-0.2278415779862473,0.010460450313985348,1.0,0.0,0.024999999999977263,-0.7899114236243356,0.7164626364920639,0.10965779858220256,0.0012767955550310273,-0.02162654624960191,2.4627440960763796,-2.669074910431056,2.0789383900446223,-0.0003163268673526398,3.3826906737857607,0.057874973664877594,0.277379966375854,-0.23065189917659973,-0.24167037021246326,0.055479913558397265,5.512331947316302,0.1591308737066503,0.24685945008140278
-0.7899114236243356,0.7164626364920639,0.10965779858220256,0.0012767955550310273,-0.02162654624960191,2.4627440960763796,-2.669074910431056,2.0789383900446223,-0.0003163268673526398,3.3826906737857607,0.057874973664877594,0.277379966375854,-0.23065189917659973,-0.24167037021246326,0.12926684319972992,1.0,0.0,0.030000000000086402,-0.8716312497975753,0.780631767878061,0.10965782106507435,-1.4146326472058985e-05,-0.021117332865736554,2.4668458999907323,-2.7753502695673835,2.199930438115194,0.00046244191735152207,3.5414700180337704,0.015911087371479837,0.24239495706108408,-0.09620366108518115,-0.12476295415755104,-0.043031396049978944,5.292644808251746,-1.3987962097758966,0.1367267971446987
-0.8716312497975753,0.780631767878061,0.10965782106507435,-1.4146326472058985e-05,-0.021117332865736554,2.4668458999907323,-2.7753502695673835,2.199930438115194,0.00046244191735152207,3.5414700180337704,0.015911087371479837,0.24239495706108408,-0.09620366108518115,-0.12476295415755104,0.3442836105823517,1.0,0.0,0.03499999999996817,-0.9719485614270198,0.8591977524063296,0.10966322777857548,-0.00039188573449936044,-0.021039613598563232,2.470715098614052,-2.942017713465511,2.296786286020551,-0.00010640762940375414,3.7322644729611976,0.029956199167828768,-0.012138391012146633,-0.11317706270138479,-0.036595562639589255,-0.010792554515075572,5.451270140788592,0.4012889084674773,0.11054853209494253
-0.9719485614270198,0.8591977524063296,0.10966322777857548,-0.00039188573449936044,-0.021039613598563232,2.470715098614052,-2.942017713465511,2.296786286020551,-0.00010640762940375414,3.7322644729611976,0.029956199167828768,-0.012138391012146633,-0.11317706270138479,-0.036595562639589255,0.3727983832359314,1.0,0.0,0.024999999999977263,-1.0465566251027223,0.9181259283331343,0.10967560161421855,-0.0014060792159154832,-0.02113287381793015,2.4704153808089044,-3.027542769937892,2.411973847845855,0.0009208938162145186,3.870865251949855,-0.005938665062758197,0.0193287724895141,-0.1689768939922714,0.14378618302984056,-0.040567739256681806,5.544031159551339,-1.4357945692247844,-0.011988712205905718
-1.0465566251027223,0.9181259283331343,0.10967560161421855,-0.0014060792159154832,-0.02113287381793015,2.4704153808089044,-3.027542769937892,2.411973847845855,0.0009208938162145186,3.870865251949855,-0.005938665062758197,0.0193287724895141,-0.1689768939922714,0.14378618302984056,0.399740993976593,0.22183966636657715,0.0,0.029999999999972715,-1.1387386840153368,0.9926730730309218,0.10971508306978003,-0.0009135658399641237,-0.020242134170160877,2.4647664780582312,-3.1128971654731217,2.550831782524782,-0.0011894226620598747,4.024346070653163,-0.03886192439392322,-0.28134320655442585,0.3095980737134565,0.17595530507102855,0.016417112531726914,5.116027290114915,-1.0974419777064988,-0.18829675835594464
-1.1387386840153368,0.9926730730309218,0.10971508306978003,-0.0009135658399641237,-0.020242134170160877,2.4647664780582312,-3.1128971654731217,2.550831782524782,-0.0011894226620598747,4.024346070653163,-0.03886192439392322,-0.28134320655442585,0.3095980737134565,0.17595530507102855,0.43069106340408325,-0.006113874725997448,0.006113874725997448,0.06000000000005912,-1.3251632272003766,1.151349242912296,0.11016405318689895,-0.013158975707203192,0.005836645884498088,2.4313924864199588,-3.0234021910168933,2.706229033236332,0.015024936229560866,4.056860674850014,-0.08073322632285618,-0.8515099603413409,-0.23016466843495398,1.0014759568271039,-0.20409016445378336,0.5419100699469778,-0.697855032148195,-0.55623319397066
-1.3251632272003766,1.151349242912296,0.11016405318689895,-0.013158975707203192,0.005836645884498088,2.4313924864199588,-3.0234021910168933,2.706229033236332,0.015024936229560866,4.056860674850014,-0.08073322632285618,-0.8515099603413409,-0.23016466843495398,1.0014759568271039,0.6162682771682739,-0.004325921647250652,0.004325921647250652,0.03499999999996817,-1.4282759366876494,1.2472905213198375,0.11078636351300222,-0.023132125966142714,0.013049637211119717,2.4008555097920916,-2.863755505583272,2.7806258050841413,0.016327354330983097,3.9898249169536477,-0.1194679694066545,-0.06350635590954479,0.015317629558779508,0.8443545697866541,-0.2849471502556741,-1.9153073684693376,-1.106706945252387,-0.8724850465112832
-1.4282759366876494,1.2472905213198375,0.11078636351300222,-0.023132125966142714,0.013049637211119717,2.4008555097920916,-2.863755505583272,2.7806258050841413,0.016327354330983097,3.9898249169536477,-0.1194679694066545,-0.06350635590954479,0.015317629558779508,0.8443545697866541,0.6732361316680908,-0.004757496528327465,0.004757496528327465,0.03499999999996817,-1.5253051853326047,1.3460021628734529,0.11129451010359095,-0.03790795403818903,0.01609265594405136,2.3606792152474405,-2.6707276784580025,2.872973199741482,0.018613427803881144,3.919307708318477,-0.1605877530506219,0.15168315264912696,-0.06270287226835167,1.323337364152161,-0.42216651634456437,-2.0147773895781365,-1.17485096125728,-1.1478941298482184
-1.5253051853326047,1.3460021628734529,0.11129451010359095,-0.03790795403818903,0.01609265594405136,2.3606792152474405,-2.6707276784580025,2.872973199741482,0.018613427803881144,3.919307708318477,-0.1605877530506219,0.15168315264912696,-0.06270287226835167,1.323337364152161,0.8018763065338135,-0.00521989818662405,0.00521989818662405,0.07000000000005002,-1.6961843448773921,1.5549477586285605,0.11216965905517959,-0.056367749431302565,0.01919119328064777,2.2565327493080316,-2.192013602303134,3.0893349428841517,0.011027711834604575,3.7790773830250535,-0.25978482464435815,-0.22010103386746446,-0.16377748344105764,1.887135983995592,-0.2637113627585764,-2.0032903613331916,-1.417101022766648,-1.487806656276207
-1.6961843448773921,1.5549477586285605,0.11216965905517959,-0.056367749431302565,0.01919119328064777,2.2565327493080316,-2.192013602303134,3.0893349428841517,0.011027711834604575,3.7790773830250535,-0.25978482464435815,-0.22010103386746446,-0.16377748344105764,1.887135983995592,0.8215129375457764,-0.005651473067700863,0.005651473067700863,0.04499999999995907,-1.7872380525684228,1.6968663663828067,0.11248361853891714,-0.05905917446364044,0.018686990457528432,2.176800360100246,-1.8487467363053394,3.2140128390156395,-0.0003279435953065374,3.694718821302323,-0.3111203237838831,0.07751745040300254,-0.012299379659440099,1.635760664684,-0.05980944516311824,-1.8746347049512713,-1.1407888697682587,-1.7718308712857331
-1.7872380525684228,1.6968663663828067,0.11248361853891714,-0.05905917446364044,0.018686990457528432,2.176800360100246,-1.8487467363053394,3.2140128390156395,-0.0003279435953065374,3.694718821302323,-0.3111203237838831,0.07751745040300254,-0.012299379659440099,1.635760664684,0.8274008631706238,-0.006113874725997448,0.006113874725997448,0.05000000000006821,-1.8701038207104803,1.8598026659120033,0.11231957606845175,-0.05968510202932399,0.01843306105832529,2.085053524678397,-1.46225646649187,3.3065149792082464,-0.005174909741931612,3.598111622659947,-0.35331010798617224,0.13775900463987875,-0.1298929430683199,1.8167488154257303,-0.012518551313654,-1.932143972844884,-0.8437956840446316,-1.8349367084344794
-1.8701038207104803,1.8598026659120033,0.11231957606845175,-0.05968510202932399,0.01843306105832529,2.085053524678397,-1.46225646649187,3.3065149792082464,-0.005174909741931612,3.598111622659947,-0.35331010798617224,0.13775900463987875,-0.1298929430683199,1.8167488154257303,0.8264144062995911,-0.004325921647250652,0.004325921647250652,0.03499999999996817,-1.9164559455834986,1.9763348235833724,0.11217558215300069,-0.05485134563571694,0.018700783205057806,2.0197837971945263,-1.1957446442566448,3.3481432838675875,-0.0060949805299838206,3.5353161926140366,-0.37604271275624335,0.35978086649051133,0.1767662864601754,1.8786129208021178,0.13810732553175564,-1.7941551441704995,-0.6495029934311938,-1.8648493566837168
-1.9164559455834986,1.9763348235833724,0.11217558215300069,-0.05485134563571694,0.018700783205057806,2.0197837971945263,-1.1957446442566448,3.3481432838675875,-0.0060949805299838206,3.5353161926140366,-0.37604271275624335,0.35978086649051133,0.1767662864601754,1.8786129208021178,0.8244414925575256,-0.00521989818662405,0.00521989818662405,0.03499999999996817,-1.9542879791235208,2.0936857077243896,0.11194544403803461,-0.0502454101470675,0.01877843009636158,1.9580623377607371,-0.9634392201538847,3.3576520472884193,-0.007204957684419033,3.4728520590714544,-0.37595342450095914,0.2591757340972214,0.023682040642960422,1.793297168126157,0.1315981568186751,-1.7846895297896854,0.0025510930081224163,-1.7634702695384368
-1.9542879791235208,2.0936857077243896,0.11194544403803461,-0.0502454101470675,0.01877843009636158,1.9580623377607371,-0.9634392201538847,3.3576520472884193,-0.007204957684419033,3.4728520590714544,-0.37595342450095914,0.2591757340972214,0.023682040642960422,1.793297168126157,0.5730799436569214,-0.004325921647250652,0.004325921647250652,0.07500000000004547,-2.0082762582841758,2.345073685211205,0.11139764539059041,-0.03910817068173857,0.017093001511437472,1.8252713585405707,-0.5030483777747311,3.335356576990276,-0.009068429485976977,3.3545794448553434,-0.3527859325541403,0.1800980278030651,-0.13870456659897068,1.453843632516556,0.14849652620429568,-1.5769681895471908,0.30889989262406375,-1.7705463896011462
-2.0082762582841758,2.345073685211205,0.11139764539059041,-0.03910817068173857,0.017093001511437472,1.8252713585405707,-0.5030483777747311,3.335356576990276,-0.009068429485976977,3.3545794448553434,-0.3527859325541403,0.1800980278030651,-0.13870456659897068,1.453843632516556,0.21271494030952454,-0.00521989818662405,0.00521989818662405,0.03999999999996362,-2.0241218049555947,2.4778084177791535,0.11104904915780728,-0.030989577677955942,0.016429341792779457,1.7644269959650258,-0.295893359579595,3.304066874982927,-0.011760392886515217,3.299257418686181,-0.3454146491493117,0.10998463666275449,0.19449767229126225,1.4216276166405606,0.20296482509475036,-1.3830506542303145,0.18428208512088315,-1.5211090643900038
-2.0241218049555947,2.4778084177791535,0.11104904915780728,-0.030989577677955942,0.016429341792779457,1.7644269959650258,-0.295893359579595,3.304066874982927,-0.011760392886515217,3.299257418686181,-0.3454146491493117,0.10998463666275449,0.19449767229126225,1.4216276166405606,-0.12723228335380554,-0.00521989818662405,0.00521989818662405,0.029999999999972715,-2.0315441445336457,2.5764992669882396,0.11062320087547434,-0.01664842105440764,0.01448041983070317,1.7297018674314704,-0.20818873481992603,3.276261275174441,-0.01764355730149411,3.267927146144539,-0.3128620462842744,0.5999863801465988,-0.014748301873661322,0.887236435375463,0.47803855411871143,-1.0443424180556906,1.085086762168897,-1.1575042844529018
-2.0315441445336457,2.5764992669882396,0.11062320087547434,-0.01664842105440764,0.01448041983070317,1.7297018674314704,-0.20818873481992603,3.276261275174441,-0.01764355730149411,3.267927146144539,-0.3128620462842744,0.5999863801465988,-0.014748301873661322,0.887236435375463,-0.3195297122001648,-0.00521989818662405,0.00521989818662405,0.06500000000005457,-2.046796962449349,2.7862532972154184,0.10952551159297594,0.013297777253989923,0.014935603409880111,1.6947541997652504,-0.32069305086861744,3.164122763391408,-0.0031652165651064254,3.1794953281538976,-0.07298186716329935,0.18871359810553753,0.0034930545136371677,0.1717974528463801,0.4607107432057296,-1.3604895075471866,3.6904642941657486,-0.5376564256337013
-2.046796962449349,2.7862532972154184,0.10952551159297594,0.013297777253989923,0.014935603409880111,1.6947541997652504,-0.32069305086861744,3.164122763391408,-0.0031652165651064254,3.1794953281538976,-0.07298186716329935,0.18871359810553753,0.0034930545136371677,0.1717974528463801,-0.6781684160232544,-0.0,0.0,0.04499999999995907,-2.0653184495902206,2.926682914603976,0.10991059730691069,0.018417368980605853,0.015143489732739532,1.7028933976795477,-0.4989341813448079,3.0736894618326587,0.012605323328005645,3.112627287327911,0.08974182568368849,0.009959703871627399,0.17148100021370982,-0.4156178127771763,0.11376870503601304,-1.485956462801052,3.6160820632696855,0.18087106476232653
-2.0653184495902206,2.926682914603976,0.10991059730691069,0.018417368980605853,0.015143489732739532,1.7028933976795477,-0.4989341813448079,3.0736894618326587,0.012605323328005645,3.112627287327911,0.08974182568368849,0.009959703871627399,0.17148100021370982,-0.4156178127771763,-1.0,0.014467931352555752,0.0,0.04000000000007731,-2.0875683099833315,3.047842950428841,0.11038253822433153,0.01763661003331731,0.015925207334008703,1.7265200809209416,-0.6196798147166681,2.9824798135841166,0.011072839894488595,3.0424997575349573,0.14961329019762076,-0.05223264167809453,-0.10507509366140583,-0.8653869906918288,-0.01951897368217583,-1.753188244820456,1.496786612845414,0.5906670810337042
-2.0875683099833315,3.047842950428841,0.11038253822433153,0.01763661003331731,0.015925207334008703,1.7265200809209416,-0.6196798147166681,2.9824798135841166,0.011072839894488595,3.0424997575349573,0.14961329019762076,-0.05223264167809453,-0.10507509366140583,-0.8653869906918288,-1.0,0.20716612040996552,0.0,0.029999999999972715,-2.10813971980882,3.1361846112630505,0.11069130066072644,0.030959225690698727,0.01482619594362976,1.764381595054668,-0.7727003478771578,2.908406869681259,0.013054260346611224,3.002731074539655,0.1987522105853088,0.35358627579369745,0.00736962312748677,-1.4764762644661367,0.4440871885797844,-1.3256227665112763,1.6379640129244237,1.2620504711253613
-2.10813971980882,3.1361846112630505,0.11069130066072644,0.030959225690698727,0.01482619594362976,1.764381595054668,-0.7727003478771578,2.908406869681259,0.013054260346611224,3.002731074539655,0.1987522105853088,0.35358627579369745,0.00736962312748677,-1.4764762644661367,-1.0,0.40673866868019104,0.0,0.03499999999996817,-2.138862938988396,3.236461014634497,0.11118812238230841,0.04210776124932102,0.011945417690059615,1.816950186543204,-0.9794378506034178,2.826932763230327,0.015113890160105711,2.980385044815317,0.2610600230998602,0.04811441258858773,-0.14438003119237366,-1.3722586204771483,0.31852958738949816,-0.6384579921245321,1.7802232147030883,1.5019597568166831
-2.138862938988396,3.236461014634497,0.11118812238230841,0.04210776124932102,0.011945417690059615,1.816950186543204,-0.9794378506034178,2.826932763230327,0.015113890160105711,2.980385044815317,0.2610600230998602,0.04811441258858773,-0.14438003119237366,-1.3722586204771483,-1.0,0.5493125319480896,0.0,0.04500000000007276,-2.1886992523755,3.362086652573957,0.11150479766005461,0.04015850626567533,0.005523792937384136,1.883683116412465,-1.2304620179649262,2.7637367360560074,0.000826852116451688,3.0082987175104323,0.3200255460192487,-0.006809333006671619,-0.40944164929175014,-1.5030981014272884,-0.04331677741427863,0.6203038376682296,1.3103449537620702,1.4829539970922898
-2.1886992523755,3.362086652573957,0.11150479766005461,0.04015850626567533,0.005523792937384136,1.883683116412465,-1.2304620179649262,2.7637367360560074,0.000826852116451688,3.0082987175104323,0.3200255460192487,-0.006809333006671619,-0.40944164929175014,-1.5030981014272884,-1.0,0.5847324728965759,0.0,0.03499999999996817,-2.2354981608242968,3.458517812389944,0.11137366305354146,0.04360628375343044,0.0009675351361525912,1.9430479566499785,-1.4467902358445597,2.7414970035153243,-0.0038090914285383963,3.0799514845600653,0.3505804609143357,0.3046370019101948,-0.14112088481096582,-1.7385215249235746,0.09850792822166406,2.047221915705661,0.872997568431851,1.6961382925019295
-2.2354981608242968,3.458517812389944,0.11137366305354146,0.04360628375343044,0.0009675351361525912,1.9430479566499785,-1.4467902358445597,2.7414970035153243,-0.0038090914285383963,3.0799514845600653,0.3505804609143357,0.3046370019101948,-0.14112088481096582,-1.7385215249235746,-1.0,0.6815285682678223,0.0,0.01999999999998181,-2.2657011739453115,3.513337464409491,0.11128796894251217,0.04284672522617243,-0.0016702310353199185,1.975993909010163,-1.573988137816216,2.736308842397129,-0.003899201591286516,3.1352016190361987,0.3678797996080707,-0.1792386564402397,-0.21968114648932266,-1.650231423961416,-0.03797792636293497,2.7625067238091807,0.8649669346875373,1.6472976180107228
-2.2657011739453115,3.513337464409491,0.11128796894251217,0.04284672522617243,-0.0016702310353199185,1.975993909010163,-1.573988137816216,2.736308842397129,-0.003899201591286516,3.1352016190361987,0.3678797996080707,-0.1792386564402397,-0.21968114648932266,-1.650231423961416,-1.0,0.7921350598335266,0.0,0.05499999999994998,-2.360518016769075,3.664213781129226,0.11081460295878123,0.033446900458806245,-0.007059737718897569,2.0626627159664914,-1.873829202188005,2.7523956608214233,-0.009085661426790088,3.3110640510562384,0.3518133062921094,0.30735127599172063,-0.08121294480900962,-1.7482782953625862,-0.17090590486135881,3.19749876400363,-0.29211806029047166,1.575796490116495
-2.360518016769075,3.664213781129226,0.11081460295878123,0.033446900458806245,-0.007059737718897569,2.0626627159664914,-1.873829202188005,2.7523956608214233,-0.009085661426790088,3.3110640510562384,0.3518133062921094,0.30735127599172063,-0.08121294480900962,-1.7482782953625862,-1.0,0.8681538701057434,0.0,0.04500000000007276,-2.4512595900589016,3.7888556686649366,0.11061571453662591,0.03420371932578161,-0.011246032417100735,2.1384367082666187,-2.1599654771926557,2.7767677032068794,-0.0017729875777997076,3.5025850982937694,0.32830986803221784,-0.08585645683718096,0.20998239680332315,-1.707538205442726,0.016818197043869828,4.256023271938253,-0.5222986279967453,1.683866495555661
-2.4512595900589016,3.7888556686649366,0.11061571453662591,0.03420371932578161,-0.011246032417100735,2.1384367082666187,-2.1599654771926557,2.7767677032068794,-0.0017729875777997076,3.5025850982937694,0.32830986803221784,-0.08585645683718096,0.20998239680332315,-1.707538205442726,-1.0,1.0,0.0,0.03499999999996817,-2.5307802385962015,3.8865689483740327,0.11066553575394608,0.03168965956747436,-0.014631064364506827,2.191939454307302,-2.386337894198553,2.8096475640629515,0.001174799953635515,3.6736094540024977,0.3054857754402569,-0.036750942267455275,-0.02799437166862207,-1.4975192452133403,-0.07183027880884388,4.886410163110967,-0.6521169311994772,1.5286498868780587
-2.5307802385962015,3.8865689483740327,0.11066553575394608,0.03168965956747436,-0.014631064364506827,2.191939454307302,-2.386337894198553,2.8096475640629515,0.001174799953635515,3.6736094540024977,0.3054857754402569,-0.036750942267455275,-0.02799437166862207,-1.4975192452133403,-1.0,1.0,0.0,0.029999999999972715,-2.6054086740518674,3.971286683625373,0.1107363380916345,0.03350867106596295,-0.016132750201518276,2.237771028717947,-2.59448029938284,2.831700643255485,0.0007634294468952599,3.8298342448226856,0.2867511361488331,0.07341532940630568,0.002789471348629259,-1.4180717212524212,0.06063371661634135,5.207493027344333,-0.6244879763813622,1.5277191470228897
-2.6054086740518674,3.971286683625373,0.1107363380916345,0.03350867106596295,-0.016132750201518276,2.237771028717947,-2.59448029938284,2.831700643255485,0.0007634294468952599,3.8298342448226856,0.2867511361488331,0.07341532940630568,0.002789471348629259,-1.4180717212524212,-1.0,1.0,0.0,0.035000000000081855,-2.700494812428479,4.070871175181399,0.1107414471445334,0.028662852040552807,-0.017588963323224172,2.2844256991408898,-2.8321133855859344,2.858115249843014,-0.0006331780539946541,4.014559821169019,0.2701822578475268,0.23911572327225475,-0.35262333066116935,-1.2873772294258914,-0.13845197215425165,5.277873609882902,-0.47339652289335765,1.3329905835095308
-2.700494812428479,4.070871175181399,0.1107414471445334,0.028662852040552807,-0.017588963323224172,2.2844256991408898,-2.8321133855859344,2.858115249843014,-0.0006331780539946541,4.014559821169019,0.2701822578475268,0.23911572327225475,-0.35262333066116935,-1.2873772294258914,-1.0,1.0,0.0,0.049999999999954525,-2.850259975489638,4.214673148578,0.11071648460811465,0.033465256285932624,-0.017910957293074094,2.351364493196619,-3.1728688516564714,2.874286413962877,0.004303441365786309,4.274914866669403,0.23178011569664836,-0.053266241228423716,-0.013932591348220998,-1.1152029365290699,0.0960480849076837,5.207100910012407,-0.7680428430182675,1.3387758811158
-2.850259975489638,4.214673148578,0.11071648460811465,0.033465256285932624,-0.017910957293074094,2.351364493196619,-3.1728688516564714,2.874286413962877,0.004303441365786309,4.274914866669403,0.23178011569664836,-0.053266241228423716,-0.013932591348220998,-1.1152029365290699,-1.0,1.0,0.0,0.024999999999977263,-2.93162175017361,4.286650859382107,0.1107122458387701,0.027589149709560036,-0.01744337685391109,2.380007649255279,-3.332074416864127,2.876321495199053,-0.00012908808548883766,4.396427643593176,0.21764475163504438,0.21925520565986978,-0.23747724142692153,-1.063387729420142,-0.23504426305511728,4.860511076955356,-0.5654145624646736,1.1457262423474408
-2.93162175017361,4.286650859382107,0.1107122458387701,0.027589149709560036,-0.01744337685391109,2.380007649255279,-3.332074416864127,2.876321495199053,-0.00012908808548883766,4.396427643593176,0.21764475163504438,0.21925520565986978,-0.23747724142692153,-1.063387729420142,-1.0,1.0,0.0,0.04500000000007276,-3.088380050292808,4.416239067648912,0.11076289389018687,0.031317692585774125,-0.017608450748853956,2.4326181552915918,-3.6313687610557643,2.8602880437622513,0.005753955422413068,4.618524501912662,0.19317918442046889,-0.19318002837821951,-0.7531241576136167,-1.011967873390482,0.08285650836017912,4.935485740425047,-0.5436792714341319,1.1691223563606186
-3.088380050292808,4.416239067648912,0.11076289389018687,0.031317692585774125,-0.017608450748853956,2.4326181552915918,-3.6313687610557643,2.8602880437622513,0.005753955422413068,4.618524501912662,0.19317918442046889,-0.19318002837821951,-0.7531241576136167,-1.011967873390482,-1.0,1.0,0.0,0.03499999999996817,-3.219891447573394,4.516375705065688,0.11076735891074865,0.029727977542502285,-0.018448417207087838,2.4669828390095843,-3.8791585926934404,2.8537204203318525,-0.0008763037125026213,4.811844482310202,0.19427893027095156,-0.15107633782340954,0.30953566548621575,-0.9472400887972485,-0.04542042980780815,5.523428011363305,0.031421310013819134,0.9818481062292503
-3.219891447573394,4.516375705065688,0.11076735891074865,0.029727977542502285,-0.018448417207087838,2.4669828390095843,-3.8791585926934404,2.8537204203318525,-0.0008763037125026213,4.811844482310202,0.19427893027095156,-0.15107633782340954,0.30953566548621575,-0.9472400887972485,-1.0,1.0,0.0,0.03499999999996817,-3.359499696403101,4.61584420333219,0.1108031061089739,0.027333166164576993,-0.017243607625328856,2.5008272110065133,-4.1025928366907145,2.8292621378506753,-0.0027975797144201425,4.980154979236086,0.1845226575013501,-0.3926912174897821,-0.19031879997506432,-0.9553153506429347,-0.06842318222649914,4.808871340743902,-0.2787506505602949,0.9669820570559944
-3.359499696403101,4.61584420333219,0.1108031061089739,0.027333166164576993,-0.017243607625328856,2.5008272110065133,-4.1025928366907145,2.8292621378506753,-0.0027975797144201425,4.980154979236086,0.1845226575013501,-0.3926912174897821,-0.19031879997506432,-0.9553153506429347,-1.0,1.0,0.0,0.01999999999998181,-3.4427855686208426,4.672302475706501,0.11074116040845997,0.02605299417817685,-0.01698238202124867,2.520584044229973,-4.2221441374364534,2.8113231001492522,-0.002836733112267037,5.069620583868156,0.17025224328069255,-0.19407473718512228,0.026642854262385586,-1.1187106335396555,-0.06400859932006532,4.473280231607585,-0.7135207110335268,0.9878416611738818
-3.4427855686208426,4.672302475706501,0.11074116040845997,0.02605299417817685,-0.01698238202124867,2.520584044229973,-4.2221441374364534,2.8113231001492522,-0.002836733112267037,5.069620583868156,0.17025224328069255,-0.19407473718512228,0.026642854262385586,-1.1187106335396555,-1.0,0.8854168653488159,0.0,0.05000000000006821,-3.662169717024258,4.8117966131778935,0.11074521504861914,0.030824789431265466,-0.014589287541284511,2.5701623022118967,-4.5394958710731546,2.731133795876203,0.0062093819579150805,5.2953929083842155,0.15788768255167795,0.6162848576883411,-0.06450578721518112,-0.9198329632004613,0.0954359050616421,4.515446490315028,-0.24729121457995454,0.9915651596371218
-3.662169717024258,4.8117966131778935,0.11074521504861914,0.030824789431265466,-0.014589287541284511,2.5701623022118967,-4.5394958710731546,2.731133795876203,0.0062093819579150805,5.2953929083842155,0.15788768255167795,0.6162848576883411,-0.06450578721518112,-0.9198329632004613,-1.0,0.0014898581430315971,0.0,0.06999999999993634,-3.9890019729206276,4.992113861216924,0.11194116871682758,0.04873309454866525,0.009694658086569895,2.65846826370983,-4.749745166734436,2.355664153192792,0.020685592820838088,5.300446091437772,0.12043248447448418,-0.30672627824782084,0.014331298716560553,-1.3486847121148264,0.255832930248801,0.07218832933658721,-0.535074258246112,1.2615137356859094
-3.9890019729206276,4.992113861216924,0.11194116871682758,0.04873309454866525,0.009694658086569895,2.65846826370983,-4.749745166734436,2.355664153192792,0.020685592820838088,5.300446091437772,0.12043248447448418,-0.30672627824782084,0.014331298716560553,-1.3486847121148264,-1.0,-0.0,0.0,0.07500000000004547,-4.347925541262514,5.1453302720633785,0.1129047789874611,0.0578739303953469,0.017594206638976595,2.770899085124055,-4.815198524508782,1.7412778539216627,-0.0084310754821742,5.118931262325736,0.12135949313434113,-0.018863800609289855,-0.429944703279511,-1.5170127628630805,0.12187781128901475,-2.420197721492344,0.01236011546475189,1.499077618855423
-4.347925541262514,5.1453302720633785,0.1129047789874611,0.0578739303953469,0.017594206638976595,2.770899085124055,-4.815198524508782,1.7412778539216627,-0.0084310754821742,5.118931262325736,0.12135949313434113,-0.018863800609289855,-0.429944703279511,-1.5170127628630805,-1.0,-0.0,0.0,0.03999999999996362,-4.540336440389471,5.20837366385623,0.11248652866304878,0.06293330348195685,0.016961239778952555,2.83772178428817,-4.8103766983928535,1.3985051030032585,-0.012675424247547251,5.008446340317917,0.10490833962631152,0.5424791624535088,0.5285486118296913,-1.3840049852430913,0.12648432716536373,-2.7621230501979874,-0.4112788377011144,1.6705674791043996
-4.540336440389471,5.20837366385623,0.11248652866304878,0.06293330348195685,0.016961239778952555,2.83772178428817,-4.8103766983928535,1.3985051030032585,-0.012675424247547251,5.008446340317917,0.10490833962631152,0.5424791624535088,0.5285486118296913,-1.3840049852430913,-0.8579193949699402,-0.0,0.0,0.03499999999996817,-4.70878075202862,5.252296189991159,0.11217312053966103,0.06503324885595602,0.01975906858575473,2.895181565967188,-4.80317011375388,1.091998446754586,0.002805023143815172,4.924451750066259,0.112599780826806,0.027881693805217503,0.09714754256537919,-1.6837638908322319,0.059998439257173734,-2.399845435763837,0.2197554628714706,1.6417080479734263
-4.70878075202862,5.252296189991159,0.11217312053966103,0.06503324885595602,0.01975906858575473,2.895181565967188,-4.80317011375388,1.091998446754586,0.002805023143815172,4.924451750066259,0.112599780826806,0.027881693805217503,0.09714754256537919,-1.6837638908322319,-0.06730502843856812,-0.0,0.0,0.04000000000007731,-4.900190138480029,5.289485477650652,0.112090681505612,0.06517876825279621,0.018200960793132468,2.967508957259718,-4.767860164880798,0.7419265739999209,-0.004222922467854898,4.82430306522745,0.09510798021956157,-0.024495249875574415,0.2871263564640915,-2.0335626686685124,0.0036379849209978773,-2.5037171209654003,-0.4372950151802654,1.8081847823097656
-4.900190138480029,5.289485477650652,0.112090681505612,0.06517876825279621,0.018200960793132468,2.967508957259718,-4.767860164880798,0.7419265739999209,-0.004222922467854898,4.82430306522745,0.09510798021956157,-0.024495249875574415,0.2871263564640915,-2.0335626686685124,0.24412742257118225,-0.0,0.0,0.03999999999996362,-5.090077151931541,5.312693315876567,0.11206039295938872,0.05923203196475171,0.015907426016947376,3.0447249463682486,-4.728537310621911,0.4140185580198882,0.002779359789569863,4.74641222375619,0.04524893928238327,0.18274207908193305,-1.1680306919036534,-1.9422171487945523,-0.14866840720124785,-1.947271036783266,-1.2464760234305912,1.9303997277150169
-5.090077151931541,5.312693315876567,0.11206039295938872,0.05923203196475171,0.015907426016947376,3.0447249463682486,-4.728537310621911,0.4140185580198882,0.002779359789569863,4.74641222375619,0.04524893928238327,0.18274207908193305,-1.1680306919036534,-1.9422171487945523,0.6948457360267639,-0.0,0.0,0.04499999999995907,-5.301365869319705,5.324420289705265,0.11206193595017336,0.052520127952174145,0.016463653800999043,3.100595414331866,-4.664492910772778,0.1091068829159964,-0.005910009562419244,4.665045309507825,0.08216256317929489,-0.06381613383007542,0.35809854227812277,-0.6829844025424167,-0.14915342250185926,-1.8081536499653126,0.8203027532654488,1.2415659547481799
-5.301365869319705,5.324420289705265,0.11206193595017336,0.052520127952174145,0.016463653800999043,3.100595414331866,-4.664492910772778,0.1091068829159964,-0.005910009562419244,4.665045309507825,0.08216256317929489,-0.06381613383007542,0.35809854227812277,-0.6829844025424167,0.8843379020690918,-0.0,0.0,0.035000000000081855,-5.463879391211025,5.32521007684378,0.11157624192561844,0.021695760212689808,0.017026501977299612,3.107618285776627,-4.6160083453498215,-0.023079273207329522,-0.027635467595651414,4.612560617190851,0.17986175227361023,-0.032060830534628125,-1.152057433727271,0.24366292586679114,-0.8806962211260643,-1.4995626376243263,2.791405402688196,0.20065346984984161
-5.463879391211025,5.32521007684378,0.11157624192561844,0.021695760212689808,0.017026501977299612,3.107618285776627,-4.6160083453498215,-0.023079273207329522,-0.027635467595651414,4.612560617190851,0.17986175227361023,-0.032060830534628125,-1.152057433727271,0.24366292586679114,1.0,-0.0,0.0,0.03499999999996817,-5.624079011915207,5.326168843193751,0.11032352361549777,-0.019139891042377653,0.01718052314276645,3.091255233503755,-4.529414898579316,0.12585155101770504,-0.02738460438875317,4.530010035315725,0.10221064672851068,-0.08309558349543816,-1.4201865342211712,0.8191650126925931,-1.1667328930029885,-2.3585880535771544,-2.2186030155762904,-0.46751577922533766
-5.624079011915207,5.326168843193751,0.11032352361549777,-0.019139891042377653,0.01718052314276645,3.091255233503755,-4.529414898579316,0.12585155101770504,-0.02738460438875317,4.530010035315725,0.10221064672851068,-0.08309558349543816,-1.4201865342211712,0.8191650126925931,1.0,-0.0,0.0,0.04499999999995907,-5.824432821554044,5.3402698730937495,0.11096458503934403,-0.06621007173746156,0.0204127845109633,3.0296113145389083,-4.3712507841887485,0.5336727573938131,0.04196734652323918,4.403508631599745,-0.041854052152656585,-0.19608596481638849,-0.6049387247437132,1.5283294766146671,-1.0460040154472605,-2.8111423048021114,-3.20143775291774,-1.369864865886725
-5.824432821554044,5.3402698730937495,0.11096458503934403,-0.06621007173746156,0.0204127845109633,3.0296113145389083,-4.3712507841887485,0.5336727573938131,0.04196734652323918,4.403508631599745,-0.041854052152656585,-0.19608596481638849,-0.6049387247437132,1.5283294766146671,1.0,-0.0,0.0,0.030000000000086402,-5.95370872631247,5.360012385065109,0.11207283970318763,-0.07001785378737359,0.019715042734488854,2.9822803249061587,-4.243377979847682,0.7915686114810986,0.030214476650458538,4.315216298691153,-0.10837823604642016,-0.31354755486803343,-0.3413814135665449,2.0036431408874544,-0.1269260683300354,-2.9430777636112664,-2.2174727964523995,-1.5776996544204436
-5.95370872631247,5.360012385065109,0.11207283970318763,-0.07001785378737359,0.019715042734488854,2.9822803249061587,-4.243377979847682,0.7915686114810986,0.030214476650458538,4.315216298691153,-0.10837823604642016,-0.31354755486803343,-0.3413814135665449,2.0036431408874544,1.0,-0.0,0.0,0.04499999999995907,-6.140226164363944,5.403949693685351,0.1134456598844332,-0.06895661421839465,0.0192304141840477,2.8940067374560394,-4.049339018114185,1.1470863895414132,0.014836819436421983,4.206971736872033,-0.11976006785659787,0.2660773150602319,0.4129408115489194,2.1221662026565102,0.023583101532886758,-2.405434707093746,-0.25292959578195695,-1.961635276671101
-6.140226164363944,5.403949693685351,0.1134456598844332,-0.06895661421839465,0.0192304141840477,2.8940067374560394,-4.049339018114185,1.1470863895414132,0.014836819436421983,4.206971736872033,-0.11976006785659787,0.2660773150602319,0.4129408115489194,2.1221662026565102,1.0,-0.0,0.0,0.029999999999972715,-6.259341018671048,5.441984916151861,0.1134193631653691,-0.07294023210482663,0.018829475638680288,2.825823683115334,-3.8946951428751793,1.397381216131462,-0.00917260005484015,4.136086335634364,-0.11880380175423744,-0.8031829580694297,-0.6545405180424974,2.592014867076776,-0.13278726288118672,-2.3628467079244624,0.03187553674537689,-2.272768478025587
-6.259341018671048,5.441984916151861,0.1134193631653691,-0.07294023210482663,0.018829475638680288,2.825823683115334,-3.8946951428751793,1.397381216131462,-0.00917260005484015,4.136086335634364,-0.11880380175423744,-0.8031829580694297,-0.6545405180424974,2.592014867076776,1.0,-0.0,0.0,0.08000000000004093,-6.5507153154351725,5.579207169120171,0.11334339357280857,-0.07810112757264218,0.018612298227377855,2.6071951710559045,-3.3767378256619427,2.0219361903642175,-0.0029468148706431746,3.935756225177169,-0.02018011743948156,-0.2653102379990695,-0.5136852189218454,2.380666380398819,-0.06451119334766135,-2.5041263807136516,1.2327960539338179,-2.732856400741469
-6.5507153154351725,5.579207169120171,0.11334339357280857,-0.07810112757264218,0.018612298227377855,2.6071951710559045,-3.3767378256619427,2.0219361903642175,-0.0029468148706431746,3.935756225177169,-0.02018011743948156,-0.2653102379990695,-0.5136852189218454,2.380666380398819,1.0,-0.0,0.0,0.04499999999995907,-6.694816425007473,5.677356211150852,0.11385809453588425,-0.08555486364368976,0.02089704768604726,2.4917838043946823,-3.0285594865136325,2.3362971586875205,0.023473388150039104,3.8248771807467534,-0.02777641528106156,0.6802036362523612,0.6782630405535311,2.329006968636483,-0.16563857935676368,-2.4639787651225857,-0.16880661870193134,-2.5646970369183815
-6.694816425007473,5.677356211150852,0.11385809453588425,-0.08555486364368976,0.02089704768604726,2.4917838043946823,-3.0285594865136325,2.3362971586875205,0.023473388150039104,3.8248771807467534,-0.02777641528106156,0.6802036362523612,0.6782630405535311,2.329006968636483,1.0,-0.0,0.0,0.05000000000006821,-6.836601738502825,5.801266371116842,0.11405975312913161,-0.07727901250022456,0.017546331118704867,2.3937687195829507,-2.642577907940564,2.618515281399346,-0.01693572428146318,3.718168049473247,-0.12274621922377205,-0.1694878445400789,-0.2771876157886927,1.6384586069897302,0.16551702286907818,-2.134182625467213,-1.8993960788516184,-1.9603016962319577
-6.836601738502825,5.801266371116842,0.11405975312913161,-0.07727901250022456,0.017546331118704867,2.3937687195829507,-2.642577907940564,2.618515281399346,-0.01693572428146318,3.718168049473247,-0.12274621922377205,-0.1694878445400789,-0.2771876157886927,1.6384586069897302,1.0,-0.0,0.0,0.03499999999996817,-6.924053677707452,5.896159853173852,0.11355560350742336,-0.07547877218415883,0.018204451108653628,2.3436573482603382,-2.3571992537066393,2.7953551217663652,-0.01373167043547504,3.64700400091142,-0.2641219335774352,0.7538691869944947,0.558333587582688,1.3533669290083874,0.051435437601924996,-2.0332585303397637,-4.03930612439405,-1.431753466361658
-6.924053677707452,5.896159853173852,0.11355560350742336,-0.07547877218415883,0.018204451108653628,2.3436573482603382,-2.3571992537066393,2.7953551217663652,-0.01373167043547504,3.64700400091142,-0.2641219335774352,0.7538691869944947,0.558333587582688,1.3533669290083874,1.0,-0.0,0.0,0.049999999999954525,-7.032765403162187,6.039185028050439,0.11182117044803047,-0.05771682762757567,0.02058587445217068,2.2669718077429453,-1.9788162947975596,2.910561700873102,-0.029752656042045036,3.502265994171922,-0.3481612402503014,-0.38214804632657673,0.1769945361132739,2.2196712806818497,0.3552388911319862,-2.8947601347925946,-1.6807861334588525,-1.533710810349254
-7.032765403162187,6.039185028050439,0.11182117044803047,-0.05771682762757567,0.02058587445217068,2.2669718077429453,-1.9788162947975596,2.910561700873102,-0.029752656042045036,3.502265994171922,-0.3481612402503014,-0.38214804632657673,0.1769945361132739,2.2196712806818497,1.0,-0.0,0.0,0.01999999999998181,-7.070851279883392,6.097761943012166,0.11143115040956783,-0.056833140591583106,0.02052814090513695,2.227340521772332,-1.826634704012523,2.950903241661786,-0.011713050781927269,3.452376135363826,-0.3542926805951383,0.28540282963761837,-0.018990796017062342,1.840850247137812,0.04418435179966839,-2.494492940407071,-0.30657201724212507,-1.9815642985324713
-7.070851279883392,6.097761943012166,0.11143115040956783,-0.056833140591583106,0.02052814090513695,2.227340521772332,-1.826634704012523,2.950903241661786,-0.011713050781927269,3.452376135363826,-0.3542926805951383,0.28540282963761837,-0.018990796017062342,1.840850247137812,1.0,-0.0,0.0,0.07000000000005002,-7.182062744219397,6.308505367747764,0.11137157118324978,-0.044836248325281575,0.019200211635278575,2.104458981916017,-1.3730412243955867,3.050087027857135,0.005312651783674988,3.32442397924084,-0.36942967888435896,0.22361849553212138,-0.005350593877457899,1.968574617044443,0.17138417523275654,-1.8278879446127818,-0.21624283270299777,-1.755450569374671
-7.182062744219397,6.308505367747764,0.11137157118324978,-0.044836248325281575,0.019200211635278575,2.104458981916017,-1.3730412243955867,3.050087027857135,0.005312651783674988,3.32442397924084,-0.36942967888435896,0.22361849553212138,-0.005350593877457899,1.968574617044443,1.0,-0.0,0.0,0.03499999999996817,-7.226168376679056,6.415945930195044,0.11147872693205246,-0.043053845122355314,0.01801340350157215,2.0396773704231825,-1.1464685975103628,3.0860527748151556,0.003250739531308125,3.2710647877240437,-0.3718159874636342,0.22974381159349858,-0.01489113957679386,1.7384224497356342,0.05092580579793949,-1.5245483290527047,-0.0681802451222118,-1.8509031855112426
-7.226168376679056,6.415945930195044,0.11147872693205246,-0.043053845122355314,0.01801340350157215,2.0396773704231825,-1.1464685975103628,3.0860527748151556,0.003250739531308125,3.2710647877240437,-0.3718159874636342,0.22974381159349858,-0.01489113957679386,1.7384224497356342,1.0,-0.0,0.0,0.035000000000081855,-7.2630358344894015,6.5240961706950635,0.11143578486853226,-0.03763241363369182,0.017188002344175647,1.981227789163093,-0.9579104019022396,3.095005923494738,-0.0026781871929729764,3.2201728547826947,-0.35656807184701234,0.6042787000151022,-0.0019917706460995527,1.5558541536953991,0.15489804253288048,-1.4540552268922875,0.435654731902463,-1.669988035998654
-7.2630358344894015,6.5240961706950635,0.11143578486853226,-0.03763241363369182,0.017188002344175647,1.981227789163093,-0.9579104019022396,3.095005923494738,-0.0026781871929729764,3.2201728547826947,-0.35656807184701234,0.6042787000151022,-0.0019917706460995527,1.5558541536953991,1.0,-0.0,0.0,0.049999999999954525,-7.303942391126279,6.678610582791534,0.11116995608000715,-0.03622191269070768,0.017045684073533823,1.8957601902952006,-0.6677275059735637,3.09042601946314,-0.0055983818957499945,3.1418685127625796,-0.35391418807320596,-0.2095711728776012,0.05221178997162576,1.7053523606759091,0.0282100188597084,-1.5660868404037254,0.05307767547617579,-1.7093519773594017
-7.303942391126279,6.678610582791534,0.11116995608000715,-0.03622191269070768,0.017045684073533823,1.8957601902952006,-0.6677275059735637,3.09042601946314,-0.0055983818957499945,3.1418685127625796,-0.35391418807320596,-0.2095711728776012,0.05221178997162576,1.7053523606759091,0.912821888923645,-0.0,0.0,0.03499999999996817,-7.324282966543813,6.7863983346159324,0.11104583949333532,-0.03402540708604233,0.01698923877849691,1.8401171933178033,-0.4899482277192203,3.0719204311590005,-0.005700222706716718,3.0915471707740783,-0.34508041395607525,-0.12387850490693848,0.2927323555855664,1.5877027627896187,0.06275730299049576,-1.4377526282442035,0.25239354620396415,-1.589799913641368
-7.324282966543813,6.7863983346159324,0.11104583949333532,-0.03402540708604233,0.01698923877849691,1.8401171933178033,-0.4899482277192203,3.0719204311590005,-0.005700222706716718,3.0915471707740783,-0.34508041395607525,-0.12387850490693848,0.2927323555855664,1.5877027627896187,0.8666741847991943,0.013573954813182354,0.0,0.029999999999972715,-7.336724944319153,6.878055154692116,0.11094434580467097,-0.03268749373006705,0.017451590766202296,1.7933166752078027,-0.3298589595296247,3.0395022299367667,-0.002462537281684829,3.0373573718678935,-0.3490572081082235,-0.15487553712227273,-0.018571409042213168,1.672817810845833,0.044597111865883,-1.806326630207803,-0.1325598050717287,-1.5600172703347732
-7.336724944319153,6.878055154692116,0.11094434580467097,-0.03268749373006705,0.017451590766202296,1.7933166752078027,-0.3298589595296247,3.0395022299367667,-0.002462537281684829,3.0373573718678935,-0.3490572081082235,-0.15487553712227273,-0.018571409042213168,1.672817810845833,0.8264144062995911,0.02741517871618271,0.0,0.04000000000007731,-7.345704998258972,6.998907123665423,0.11092003260225433,-0.0323186225606062,0.01656657437373495,1.7256586045646718,-0.12446773173698146,3.0021819813022286,-0.0005194922831526089,2.985452622119993,-0.34009043823133595,0.05870373674667667,0.11764212724266676,1.8006648071848756,0.009221779236503549,-1.2976187436950073,0.22416924692175547,-1.6914517660750035
-7.345704998258972,6.998907123665423,0.11092003260225433,-0.0323186225606062,0.01656657437373495,1.7256586045646718,-0.12446773173698146,3.0021819813022286,-0.0005194922831526089,2.985452622119993,-0.34009043823133595,0.05870373674667667,0.11764212724266676,1.8006648071848756,0.6614603400230408,0.025257304310798645,0.0,0.04499999999995907,-7.3464531450707975,7.132828164141174,0.11087145092391065,-0.0262573880858436,0.014973732438104709,1.6597277746641605,0.08269662676611887,2.950873289035366,-0.003814715453699949,2.931867400119593,-0.3444494856098234,0.2687569528544961,-0.12600313336997326,1.2946724281584716,0.1346940994392914,-1.1907827111210794,-0.09686771952203184,-1.465129553346027
-7.3464531450707975,7.132828164141174,0.11087145092391065,-0.0262573880858436,0.014973732438104709,1.6597277746641605,0.08269662676611887,2.950873289035366,-0.003814715453699949,2.931867400119593,-0.3444494856098234,0.2687569528544961,-0.12600313336997326,1.2946724281584716,0.08213270455598831,0.22270281612873077,0.0,0.055000000000063665,-7.33767844941633,7.294504922182412,0.11011548308884597,-0.004354574267650311,0.007148810077630123,1.5976383778664651,0.2135344817051676,2.9462412750812272,-0.023572308679978365,2.939448946502488,-0.2925312235894898,0.632658494962069,-0.044265188410696626,0.7938406173276386,0.39823297851214423,0.1378462978706584,0.9439684003686094,-1.1288981235931557
-7.33767844941633,7.294504922182412,0.11011548308884597,-0.004354574267650311,0.007148810077630123,1.5976383778664651,0.2135344817051676,2.9462412750812272,-0.023572308679978365,2.939448946502488,-0.2925312235894898,0.632658494962069,-0.044265188410696626,0.7938406173276386,-0.22384339570999146,0.4335271418094635,0.0,0.03499999999996817,-7.331502976894713,7.398526310679459,0.10932802734403096,0.0025070713834695517,0.0010587888670238776,1.5710087778984028,0.13371368342148185,3.0009359906963837,-0.016378566125810904,3.000907515352671,-0.13435123256184553,-0.12753525965647317,-0.10726804591178324,0.698822363794473,0.19604701860360293,1.7559591100068248,4.519428315079661,-0.7608457133739022
-7.331502976894713,7.398526310679459,0.10932802734403096,0.0025070713834695517,0.0010587888670238776,1.5710087778984028,0.13371368342148185,3.0009359906963837,-0.016378566125810904,3.000907515352671,-0.13435123256184553,-0.12753525965647317,-0.10726804591178324,0.698822363794473,-0.48229509592056274,0.6659918427467346,0.0,0.029999999999972715,-7.3281525687234375,7.489638716013244,0.10895879108681575,0.0009210408294899444,-0.004133092711374341,1.5565345364050391,0.10140882338375509,3.075450758802902,-0.006529609648922333,3.076584215169808,-0.057538563150267896,0.18822851199367402,-0.01909534442995574,0.2366253673582203,-0.05286768513270166,2.5225566605735343,2.560422313721583,-0.482474716445893
-7.3281525687234375,7.489638716013244,0.10895879108681575,0.0009210408294899444,-0.004133092711374341,1.5565345364050391,0.10140882338375509,3.075450758802902,-0.006529609648922333,3.076584215169808,-0.057538563150267896,0.18822851199367402,-0.01909534442995574,0.2366253673582203,-0.646879255771637,0.7627263069152832,0.0,0.06500000000005457,-7.328994699268411,7.69737270772893,0.10968821256276842,0.01885275908089868,-0.011717849821722784,1.583261349699637,-0.15275831167757148,3.316109447845071,0.022221735513106657,3.317755914494733,0.11141213447887512,0.01807538279491932,0.0983718366795558,-0.6896652689848116,0.27587258848297974,3.7103338357649567,2.599241501984633,0.41118174299346893
-7.328994699268411,7.69737270772893,0.10968821256276842,0.01885275908089868,-0.011717849821722784,1.583261349699637,-0.15275831167757148,3.316109447845071,0.022221735513106657,3.317755914494733,0.11141213447887512,0.01807538279491932,0.0983718366795558,-0.6896652689848116,-1.0,0.7748411893844604,0.0,0.03499999999996817,-7.3372609194749785,7.815314284140435,0.11051447112568233,0.03283231048143952,-0.009251688487730307,1.6195451263023193,-0.32866728405659024,3.412104715335804,0.027143511101815183,3.4240669681473626,0.16200669636806375,0.5282746019695914,0.12592546548291866,-1.478480744430057,0.39941575430153003,3.037458675792183,1.44555891112099,1.0366793315061493
-7.3372609194749785,7.815314284140435,0.11051447112568233,0.03283231048143952,-0.009251688487730307,1.6195451263023193,-0.32866728405659024,3.412104715335804,0.027143511101815183,3.4240669681473626,0.16200669636806375,0.5282746019695914,0.12592546548291866,-1.478480744430057,-1.0,0.7696623206138611,0.0,0.024999999999977263,-7.347643472150118,7.901497794105961,0.1112058319058849,0.04536482451801571,-0.00885887157031505,1.655501152560686,-0.5082928294134417,3.478430299151762,0.02394655630254628,3.508962438916893,0.2121828191926628,0.4804849579992239,0.6600797986947383,-1.5093066814662228,0.5013005614635038,3.395818830784305,2.007044912985787,1.4382410503359757
-7.347643472150118,7.901497794105961,0.1112058319058849,0.04536482451801571,-0.00885887157031505,1.655501152560686,-0.5082928294134417,3.478430299151762,0.02394655630254628,3.508962438916893,0.2121828191926628,0.4804849579992239,0.6600797986947383,-1.5093066814662228,-1.0,0.773978054523468,0.0,0.04499999999995907,-7.377310526295251,8.060331590953728,0.11189047816295242,0.044689568787956734,-0.007337984373921508,1.7141799951914634,-0.802180167589852,3.574803886411457,0.0016463695350244709,3.652745652103484,0.28313432963177265,-0.055733376420294405,0.3162309912330436,-1.5445353839029652,-0.015005682890213163,3.195182515260485,1.576700231981653,1.3039742806851278
