x_pos,y_pos,z_pos,roll,pitch,yaw,u_x,u_y,u_z,comp_u_x,comp_u_y,roll_mder,pitch_mder,yaw_mder,steer,throttle,brake,time_step,act_x_pos,act_y_pos,act_z_pos,act_roll,act_pitch,act_yaw,act_u_x,act_u_y,act_u_z,act_comp_u_x,act_comp_u_y,act_roll_mder,act_pitch_mder,act_yaw_mder,accel_roll,accel_x,accel_y,accel_yaw
-5.1778076434418,15.8046980402693,0.109214330109951,5.968136611982E-05,-0.017400468510991,2.75006641521446,-0.32682135687353,0.086871266773324,-0.003360202676992,0.335240082132817,0.044417379830868,0.134198913515421,-0.030938614556916,-0.216007407183358,-1,1,0,0.034999999996217,-5.1926996584181,15.8084847628907,0.109255481559754,1.55376107313163E-05,-0.019303961261143,2.75936483912227,-0.517350226021175,0.129605453629333,0.004627962511847,0.528357494923062,0.072713049263891,0.026680856755407,-0.013358937354493,-0.318619715976769,-0.001261250154094,5.51764036603204,0.808447698173762,-2.93178025155723
-5.1926996584181,15.8084847628907,0.109255481559754,1.55376107313163E-05,-0.019303961261143,2.75936483912227,-0.517350226021175,0.129605453629333,0.004627962511847,0.528357494923062,0.072713049263891,0.026680856755407,-0.013358937354493,-0.318619715976769,-1,1,0,0.029999999998836,-5.21067288551099,15.812945024796,0.109438629381421,0.000234887203173,-0.019538597030812,2.77047641081385,-0.675917580692376,0.163056072250404,0.006726647718721,0.689036465050343,0.093169782750047,-0.042466169094234,-0.004415399663771,-0.410743585157925,0.007311653081662,5.35596567111721,0.681891116231664,-3.07079563949104
-5.21067288551099,15.812945024796,0.109438629381421,0.000234887203173,-0.019538597030812,2.77047641081385,-0.675917580692376,0.163056072250404,0.006726647718721,0.689036465050343,0.093169782750047,-0.042466169094234,-0.004415399663771,-0.410743585157925,-1,1,0,0.020000000004075,-5.22534084065258,15.8164194448692,0.109568284564241,0.000358603387111,-0.019698296149016,2.77951527866904,-0.784734155524311,0.182200366318217,0.00577132975307,0.798392937510052,0.107579671253529,0.069115784073572,-0.019358911260785,-0.482723915844251,0.006185809195642,5.46782362187149,0.720494425027299,-3.59901653358309
-5.22534084065258,15.8164194448692,0.109568284564241,0.000358603387111,-0.019698296149016,2.77951527866904,-0.784734155524311,0.182200366318217,0.00577132975307,0.798392937510052,0.107579671253529,0.069115784073572,-0.019358911260785,-0.482723915844251,-1,1,0,0.025000000001455,-5.24673500287494,15.82129026507,0.109693570014502,0.000412003367293,-0.019784677505906,2.79239620249179,-0.920729967136626,0.204616905868211,0.003702865034347,0.935170235630865,0.122753333725013,0.06118494408787,0.001492985202911,-0.563928485561621,0.002135999207171,5.47109192451407,0.606946498824027,-3.2481827885057
-5.24673500287494,15.82129026507,0.109693570014502,0.000412003367293,-0.019784677505906,2.79239620249179,-0.920729967136626,0.204616905868211,0.003702865034347,0.935170235630865,0.122753333725013,0.06118494408787,0.001492985202911,-0.563928485561621,-1,1,0,0.044999999998254,-5.29383621638957,15.830990705612,0.10977030820884,0.000995364449521,-0.020176295018379,2.82115723833335,-1.16836658290228,0.221969070212146,-0.000349327229631,1.17881059165597,0.157341441372924,0.056259032462921,0.059397346377215,-0.761220026902369,0.012963579605566,5.41423013410129,0.768624614427856,-4.38425647440899
-5.29383621638957,15.830990705612,0.10977030820884,0.000995364449521,-0.020176295018379,2.82115723833335,-1.16836658290228,0.221969070212146,-0.000349327229631,1.17881059165597,0.157341441372924,0.056259032462921,0.059397346377215,-0.761220026902369,-1,1,0,0.029999999998836,-5.33143694371766,15.8377404123243,0.109749677989643,0.001511736446957,-0.020331375075942,2.84424646853561,-1.33495090812943,0.22481605466461,-0.001129297246047,1.34223724538683,0.176168563163021,0.071647300180746,0.067275555509564,-0.853673442026171,0.01721239991519,5.44755512457344,0.627570726360915,-3.0817805042463
-5.33143694371766,15.8377404123243,0.109749677989643,0.001511736446957,-0.020331375075942,2.84424646853561,-1.33495090812943,0.22481605466461,-0.001129297246047,1.34223724538683,0.176168563163021,0.071647300180746,0.067275555509564,-0.853673442026171,-1,1,0,0.025000000001455,-5.36658801147904,15.8433774356072,0.109721104742636,0.002134640525659,-0.020381241824897,2.86554538000395,-1.47469784520595,0.222297856276319,-0.000834611324528,1.4794545343198,0.188054121041579,0.037235079028811,0.009751659688775,-0.898545800213721,0.024916163146629,5.48869155699921,0.475422315114649,-1.79489432739752
-5.36658801147904,15.8433774356072,0.109721104742636,0.002134640525659,-0.020381241824897,2.86554538000395,-1.47469784520595,0.222297856276319,-0.000834611324528,1.4794545343198,0.188054121041579,0.037235079028811,0.009751659688775,-0.898545800213721,-1,1,0,0.025000000001455,-5.40521489255264,15.8487985057909,0.109711269332055,0.003711614702406,-0.020059302707712,2.88924603566179,-1.6119205470493,0.208565527554738,0.00022819845801,1.61294372422169,0.200499306177753,-0.12997110672516,0.076738254956125,-0.980843501747892,0.063078967066208,5.33956759576485,0.497807405417978,-3.29190806117522
-5.40521489255264,15.8487985057909,0.109711269332055,0.003711614702406,-0.020059302707712,2.88924603566179,-1.6119205470493,0.208565527554738,0.00022819845801,1.61294372422169,0.200499306177753,-0.12997110672516,0.076738254956125,-0.980843501747892,-1,1,0,0.029999999998836,-5.4562302785639,15.8546551928641,0.109741404453498,0.005972331594395,-0.01981131639588,2.91964853230503,-1.78134520082035,0.178448613917319,0.001820420906895,1.77693245481723,0.21804972669535,-0.162093479383748,0.050769478870269,-1.07557378521537,0.075357229735918,5.46629102006366,0.585014017275962,-3.15767611570527
-5.4562302785639,15.8546551928641,0.109741404453498,0.005972331594395,-0.01981131639588,2.91964853230503,-1.78134520082035,0.178448613917319,0.001820420906895,1.77693245481723,0.21804972669535,-0.162093479383748,0.050769478870269,-1.07557378521537,-1,1,0,0.064999999995052,-5.58423676855255,15.8630287845191,0.109949106575443,0.013005866878337,-0.019076639970645,2.99459247189721,-2.14955554742556,0.06108507645596,0.004175454202536,2.1353196218346,0.254421993235239,0.149993747551496,0.130217236911696,-1.24754661219848,0.108208235145801,5.5136487237637,0.5595733314255,-2.64573579994151
-5.58423676855255,15.8630287845191,0.109949106575443,0.013005866878337,-0.019076639970645,2.99459247189721,-2.14955554742556,0.06108507645596,0.004175454202536,2.1353196218346,0.254421993235239,0.149993747551496,0.130217236911696,-1.24754661219848,-1,1,0,0.035000000003493,-5.66280882868202,15.8635517467751,0.110107088219759,0.016047619047784,-0.018592819369288,3.03997443726796,-2.33529895516001,-0.039623358016389,0.004332347657174,2.31923234415387,0.276319659638043,-0.233159927169586,-0.011080265071561,-1.37316074618302,0.08690720483266,5.25464920859778,0.62564761144624,-3.58897525634289
-5.66280882868202,15.8635517467751,0.110107088219759,0.016047619047784,-0.018592819369288,3.03997443726796,-2.33529895516001,-0.039623358016389,0.004332347657174,2.31923234415387,0.276319659638043,-0.233159927169586,-0.011080265071561,-1.37316074618302,-1,1,0,0.040000000000873,-5.76067293913941,15.8596089848215,0.110208544967024,0.015152412462321,-0.019373400223897,3.09094067817252,-2.5498502070091,-0.158559991041978,3.22115963886718E-05,2.53855198665201,0.287456361920704,0.03391431557929,0.012344445439687,-1.28154697980405,-0.022380164636088,5.48299106233388,0.278417557060453,2.29034415942423
-5.76067293913941,15.8596089848215,0.110208544967024,0.015152412462321,-0.019373400223897,3.09094067817252,-2.5498502070091,-0.158559991041978,3.22115963886718E-05,2.53855198665201,0.287456361920704,0.03391431557929,0.012344445439687,-1.28154697980405,-1,1,0,0.034999999996217,-5.85314703812835,15.8522012429091,0.110198348614522,0.015771021706541,-0.018721948955941,3.1361685863572,-2.72763840760086,-0.268695111306649,-0.001829572162583,2.7261408702466,0.283485980306949,-0.375328726714573,0.141912770060405,-1.40865505744772,0.017674549836772,5.35968238899611,-0.113439474690976,-3.63165936164047
-5.85314703812835,15.8522012429091,0.110198348614522,0.015771021706541,-0.018721948955941,3.1361685863572,-2.72763840760086,-0.268695111306649,-0.001829572162583,2.7261408702466,0.283485980306949,-0.375328726714573,0.141912770060405,-1.40865505744772,-1,1,0,0.020000000004075,-5.90865184206894,15.8460550831179,0.11022385696172,0.020417592685917,-0.018172948324373,-3.11769492734269,-2.82019218860763,-0.355560879687343,0.002831210516025,2.82788320699865,0.288069587812689,0.008720946115747,0.320882697502212,-1.53820457189611,0.232328548921496,5.08711683656619,0.229180375240298,-6.47747572109988
-5.90865184206894,15.8460550831179,0.11022385696172,0.020417592685917,-0.018172948324373,-3.11769492734269,-2.82019218860763,-0.355560879687343,0.002831210516025,2.82788320699865,0.288069587812688,0.008720946115747,0.320882697502212,-1.53820457189611,-1,1,0,0.055000000000291,-6.07093266414088,15.8195151644234,0.110517798805385,0.026803927609614,-0.01812316984819,-3.03818072638984,-3.07206540127439,-0.617871656514833,0.004803806925186,3.11943513667354,0.297448553061023,-0.623124042534819,0.272958395981667,-1.53753551992085,0.116115180430241,5.30094417587912,0.170526640877905,0.012164581368346
-6.07093266414088,15.8195151644234,0.110517798805385,0.026803927609614,-0.01812316984819,-3.03818072638984,-3.07206540127439,-0.617871656514833,0.004803806925186,3.11943513667354,0.297448553061023,-0.623124042534819,0.272958395981667,-1.53753551992085,-1,1,0,0.044999999998254,-6.21328193146889,15.7864935220531,0.110811468289274,0.032302350380475,-0.016110037494034,-2.97492122722946,-3.24558004980761,-0.867032720452155,0.002649309223429,3.34444568068516,0.316573351674165,-0.602220150228145,0.264509688248278,-1.58417020003135,0.122187172690527,5.0002343115633,0.424995524752987,-1.03632622471786
-6.21328193146889,15.7864935220531,0.110811468289274,0.032302350380475,-0.016110037494034,-2.97492122722946,-3.24558004980761,-0.867032720452155,0.002649309223429,3.34444568068516,0.316573351674165,-0.602220150228145,0.264509688248278,-1.58417020003135,-1,1,0,0.029999999998836,-6.3123975046064,15.7577912941617,0.110884787866217,0.035478813643097,-0.015178965666863,-2.92906640318025,-3.3575224399514,-1.05663042472747,-0.000895885498123,3.5048571593381,0.32465532780693,-0.136278736475503,-0.146941047654874,-1.54457946030496,0.105882108758197,5.34704928863872,0.269399204435941,1.31969132426408
-6.3123975046064,15.7577912941617,0.110884787866217,0.035478813643097,-0.015178965666863,-2.92906640318025,-3.3575224399514,-1.05663042472747,-0.000895885498123,3.5048571593381,0.32465532780693,-0.136278736475503,-0.146941047654874,-1.54457946030496,-1,1,0,0.035000000003493,-6.4319137874028,15.7173440432038,0.110808200088039,0.033142535382941,-0.016508110255258,-2.88016659964934,-3.46920610428192,-1.26305664626543,0.000190698439628,3.67777837242845,0.323495485223184,0.150387210911461,-0.27675096902758,-1.44593122397412,-0.066750807426383,4.94060608780283,-0.033138359532284,2.81852103774279
-6.4319137874028,15.7173440432038,0.110808200088039,0.033142535382941,-0.016508110255258,-2.88016659964934,-3.46920610428192,-1.26305664626543,0.000190698439628,3.67777837242845,0.323495485223184,0.150387210911461,-0.27675096902758,-1.44593122397412,-1,1,0,0.034999999996217,-6.55534532819997,15.669264279393,0.110730482878433,0.038678143001157,-0.014415734080517,-2.82691906260551,-3.56579174646145,-1.49533636287508,-0.001366978261801,3.85351803247058,0.318277223019702,-0.390048702471577,0.032697921996539,-1.55531240278484,0.158160217680422,5.02113314460368,-0.149093205829894,-3.12517653778699
-6.55534532819997,15.669264279393,0.110730482878433,0.038678143001157,-0.014415734080517,-2.82691906260551,-3.56579174646145,-1.49533636287508,-0.001366978261801,3.85351803247058,0.318277223019702,-0.390048702471577,0.032697921996539,-1.55531240278484,-1,1,0,0.044999999998254,-6.71894251864469,15.594857854715,0.110628016559749,0.035999025743094,-0.01633033449079,-2.76041244905339,-3.69248368650929,-1.80889495074426,0.002982639183522,4.10039847129532,0.30539989286893,0.570382473977699,0.402807668343628,-1.45881342789025,-0.059535939070394,5.48623197409588,-0.286162892250494,2.14442166440731
-6.71894251864469,15.594857854715,0.110628016559749,0.035999025743094,-0.01633033449079,-2.76041244905339,-3.69248368650929,-1.80889495074426,0.002982639183522,4.10039847129532,0.30539989286893,0.570382473977699,0.402807668343628,-1.45881342789025,-1,1,0,0.040000000000873,-6.86861700282003,15.5167004711989,0.110603610350814,0.039242152457911,-0.013513156230075,-2.69937223569205,-3.77808830634948,-2.10724435603793,-0.002243767790902,4.31643969441319,0.287712340928522,-0.414561418888716,0.164948845697242,-1.57769782349941,0.081078167868665,5.401030577829,-0.442188798500544,-2.97210989016407
-6.86861700282003,15.5167004711989,0.110603610350814,0.039242152457911,-0.013513156230075,-2.69937223569205,-3.77808830634948,-2.10724435603793,-0.002243767790902,4.31643969441319,0.287712340928522,-0.414561418888716,0.164948845697242,-1.57769782349941,-1,1,0,0.069999999999709,-7.13776570824046,15.3520583645219,0.110595516167608,0.028916982219817,-0.014549857243728,-2.61219736932811,-3.8941801802219,-2.5642949518071,0.002591142307921,4.65611447454128,0.24666956817497,0.233048699940475,0.264665487894754,-1.16158206998825,-0.147502431973378,4.85249685899292,-0.586325325053172,5.94451076446992
-7.13776570824046,15.3520583645219,0.110595516167608,0.028916982219817,-0.014549857243728,-2.61219736932811,-3.8941801802219,-2.5642949518071,0.002591142307921,4.65611447454128,0.24666956817497,0.233048699940475,0.264665487894754,-1.16158206998825,-0.532388627529144,0.65474009513855,0,0.040000000000873,-7.29342339241364,15.2449218610862,0.110900538582067,0.039993287049154,-0.005113720549993,-2.55123930901841,-3.84478501037121,-2.79565851141548,0.016171306257408,4.75024839354527,0.182259397687968,-0.477559805981801,0.760950442608646,-1.52555676000858,0.276907620727374,2.35334797504815,-1.61025426213991,-9.09936725030958
-7.29342339241364,15.2449218610862,0.110900538582067,0.039993287049154,-0.005113720549993,-2.55123930901841,-3.84478501037121,-2.79565851141548,0.016171306257408,4.75024839354527,0.182259397687968,-0.477559805981801,0.760950442608646,-1.52555676000858,-0.246161982417107,0,0,0.029999999998836,-7.40641608522768,15.1585729095319,0.111665054416635,0.051258138673946,0.00758806214317,-2.50039197324028,-3.67734522599812,-2.95884469695653,0.033100616689764,4.71680091103804,0.171519729214014,-0.051491588393521,-0.252673770075815,-1.48247386563017,0.375495054174287,-1.11491608361737,-0.357988949145707,1.43609647933582
-7.40641608522768,15.1585729095319,0.111665054416635,0.051258138673946,0.00758806214317,-2.50039197324028,-3.67734522599812,-2.95884469695653,0.033100616689764,4.71680091103804,0.171519729214014,-0.051491588393521,-0.252673770075815,-1.48247386563017,-0.095912277698517,0,0,0.069999999999709,-7.65038444250053,14.9425726393483,0.112289002943742,0.032667523082506,0.01521873518691,-2.42599798391619,-3.32953597978631,-3.17640843244117,-0.02017717057392,4.59674619332608,0.212849253033894,0.477664474919235,-0.352181070507389,-0.439713654364183,-0.265580222735951,-1.71506739589224,0.590421768857885,14.8965744467189
-7.65038444250053,14.9425726393483,0.112289002943742,0.032667523082506,0.01521873518691,-2.42599798391619,-3.32953597978631,-3.17640843244117,-0.02017717057392,4.59674619332608,0.212849253033894,0.477664474919235,-0.352181070507389,-0.439713654364183,-0.077169597148895,-0.008734150789678,0.008734150789678,0.035000000003493,-7.76559988978556,14.8311959224721,0.111105798408317,0.003930924965905,0.015721514978807,-2.41347839679019,-3.26126545924694,-3.17237973927011,-0.046633090475712,4.54541051174514,0.197709093178269,0.511123787171667,-0.452135962789685,-0.266702737423266,-0.821045660392382,-1.46673375930915,-0.43257599583182,4.94316905496153
-7.76559988978556,14.8311959224721,0.111105798408317,0.003930924965905,0.015721514978807,-2.41347839679019,-3.26126545924694,-3.17237973927011,-0.046633090475712,4.54541051174514,0.197709093178269,0.511123787171667,-0.452135962789685,-0.266702737423266,-0.073593690991402,-0.013142379932106,0.013142379932106,0.040000000000873,-7.89695844250937,14.7070527529775,0.109557399501525,-0.006260594370749,0.016238138569865,-2.40230915351839,-3.29613854982927,-3.03929215890219,-0.025019372587606,4.48343582241506,0.025087708552688,-0.359085604545786,0.367370877143326,-0.62683850004193,-0.254787983410793,-1.54936723321832,-4.31553461554534,-9.00339406527007
-7.89695844250937,14.7070527529775,0.109557399501525,-0.006260594370749,0.016238138569865,-2.40230915351839,-3.29613854982927,-3.03929215890219,-0.025019372587606,4.48343582241506,0.025087708552688,-0.359085604545786,0.367370877143326,-0.62683850004193,-0.061941169202328,-0.008734150789678,0.008734150789678,0.040000000000873,-8.02664650062394,14.5852534892602,0.108975216873736,0.001939880612476,0.015586757681627,-2.38836306153169,-3.19016084136912,-3.05955382281177,-0.003518729495691,4.41989963221199,0.049830007620358,0.144497605908672,0.009651006182913,-0.057287008852271,0.205011874576156,-1.58840475504208,0.618557476678248,14.2387872794307
-8.02664650062394,14.5852534892602,0.108975216873736,0.001939880612476,0.015586757681627,-2.38836306153169,-3.19016084136912,-3.05955382281177,-0.003518729495691,4.41989963221199,0.049830007620358,0.144497605908672,0.009651006182913,-0.057287008852271,-0.052970577031374,0.341077625751495,0,0.059999999997672,-8.21817212248912,14.4034679833835,0.109237739829629,0.001533950514308,0.006197805798156,-2.38415804370485,-3.20373190052412,-3.0399314669538,0.00796295456256,4.4164491060369,0.007662114442543,0.136342930325574,0.115095637217078,-0.002869358120631,-0.006765501636396,-0.057508769587037,-0.702798219657513,0.906960845562516
-8.21817212248912,14.4034679833835,0.109237739829629,0.001533950514308,0.006197805798156,-2.38415804370485,-3.20373190052412,-3.0399314669538,0.00796295456256,4.4164491060369,0.007662114442543,0.136342930325574,0.115095637217078,-0.002869358120631,-0.052970577031374,0.55193281173706,0,0.029999999998836,-8.31453812462756,14.3116021320994,0.109409091118792,-0.000565786440035,0.000359161985433,-2.38417835992719,-3.24613336250507,-3.06529329232277,0.007479748481595,4.4646831985319,-0.002951588450577,0.214097794367914,0.593881604176554,-0.218556860111109,-0.069991231814165,1.60780308322921,-0.353790096451074,-7.18958339996157
-8.31453812462756,14.3116021320994,0.109409091118792,-0.000565786440035,0.000359161985433,-2.38417835992719,-3.24613336250507,-3.06529329232277,0.007479748481595,4.4646831985319,-0.002951588450577,0.214097794367914,0.593881604176554,-0.218556860111109,0.215674310922623,0.602057158946991,0,0.060000000004948,-8.5120237250563,14.1239653387266,0.10957551475292,0.001913179249876,-0.005120836011982,-2.37982169380834,-3.33394197828004,-3.19193630030355,0.001176971883143,4.61557709758269,0.008632265261041,-0.017580505379183,-0.309317250870532,0.023077935381663,0.041316094828445,2.51489831730572,0.193064228511042,4.0272465912141
-8.5120237250563,14.1239653387266,0.10957551475292,0.001913179249876,-0.005120836011982,-2.37982169380834,-3.33394197828004,-3.19193630030355,0.001176971883143,4.61557709758269,0.008632265261041,-0.017580505379183,-0.309317250870532,0.023077935381663,0.649684488773346,0.600300014019012,0,0.029999999998836,-8.61320779825303,14.0276770953457,0.109639453240713,-0.003356579646154,-0.006647848831296,-2.38527898242557,-3.42532317582153,-3.20831740502777,0.003675555275166,4.69317070935982,-0.016974187203634,0.293930525794802,0.191865994740817,0.145258264519313,-0.17565862987449,2.58645372600496,-0.853548415522284,4.0726776380797
-8.61320779825303,14.0276770953457,0.109639453240713,-0.003356579646154,-0.006647848831296,-2.38527898242557,-3.42532317582153,-3.20831740502777,0.003675555275166,4.69317070935982,-0.016974187203634,0.293930525794802,0.191865994740817,0.145258264519313,0.717904150485992,0.601163148880005,0,0.034999999996217,-8.73533984732928,13.9156245537023,0.109786493040851,-0.007233894070874,-0.005446100796043,-2.39717852926563,-3.54306818678113,-3.18680859608538,0.00844764818906,4.76506700599958,-0.056724180015292,0.220101547481633,-0.335178636927273,0.792141643116508,-0.110780412146831,2.05417990421511,-1.13571408045584,18.4823822476321
-8.73533984732928,13.9156245537023,0.109786493040851,-0.007233894070874,-0.005446100796043,-2.39717852926563,-3.54306818678113,-3.18680859608538,0.00844764818906,4.76506700599958,-0.056724180015292,0.220101547481633,-0.335178636927273,0.792141643116508,0.697805106639862,0.607205212116241,0,0.060000000004948,-8.95746617213002,13.7286616288035,0.110969850686765,-0.043417081279118,-0.00610807936115,-2.46742871610339,-3.89042590903221,-3.00058814226543,0.027445510201235,4.91241433408918,-0.084429635840621,0.51351447702612,-0.810966793337773,1.20458385077996,-0.603053120087672,2.45578880129075,-0.461757597050742,6.87403679382397
-8.95746617213002,13.7286616288035,0.110969850686765,-0.043417081279118,-0.00610807936115,-2.46742871610339,-3.89042590903221,-3.00058814226543,0.027445510201235,4.91241433408918,-0.084429635840621,0.51351447702612,-0.810966793337773,1.20458385077996,0.364937573671341,0.586489617824554,0,0.039999999993597,-9.11747760633171,13.6119884260794,0.112076122320081,-0.053180534656027,-0.004432953230268,-2.514154180202,-4.12389233422769,-2.82766059814856,0.023340343252567,4.99847422873194,-0.131938725650941,-0.44618057848233,0.115150310946456,0.948361473065063,-0.244086334461793,2.15149736641349,-1.18772724544814,-6.40555944389768
-9.11747760633171,13.6119884260794,0.112076122320081,-0.053180534656027,-0.004432953230268,-2.514154180202,-4.12389233422769,-2.82766059814856,0.023340343252567,4.99847422873194,-0.131938725650941,-0.44618057848233,0.115150310946456,0.948361473065063,0.031052738428116,0.485377788543701,0,0.035000000003493,-9.26508955842312,13.5156629511507,0.112367068398105,-0.046418801935483,-0.001611990383297,-2.5479115828189,-4.30448009442392,-2.66737167669332,-0.001110227896968,5.06009819456166,-0.19704518850071,-0.325513306829986,0.054453858205242,1.08758718138198,0.193192363424851,1.76068473781642,-1.86018465266492,3.97787738008647
-9.26508955842312,13.5156629511507,0.112367068398105,-0.046418801935483,-0.001611990383297,-2.5479115828189,-4.30448009442392,-2.66737167669332,-0.001110227896968,5.06009819456166,-0.19704518850071,-0.325513306829986,0.054453858205242,1.08758718138198,-0.035121873021126,0.430074542760849,0,0.044999999998254,-9.46222572130103,13.3983880854282,0.111692205705284,-0.025443575085426,-0.001293858184028,-2.58381186934637,-4.44927488205907,-2.56691869046062,-0.030840093462627,5.13358847492896,-0.177166333241807,-0.662174117673368,0.757408161875448,0.324698683064923,0.466116152241561,1.63311734155886,0.441752339103888,-16.953077741037
-9.46222572130103,13.3983880854282,0.111692205705284,-0.025443575085426,-0.001293858184028,-2.58381186934637,-4.44927488205907,-2.56691869046062,-0.030840093462627,5.13358847492896,-0.177166333241807,-0.662174117673368,0.757408161875448,0.324698683064923,-0.10220094025135,0.333309292793274,0,0.040000000000873,-9.64089034071578,13.2951123972898,0.110317451339169,0.020680281832738,6.93117823608069E-05,-2.57527039605482,-4.42680053086434,-2.66696178576091,-0.021820800530959,5.1665986477532,-0.124525177392328,-0.489763346817748,1.17530886640953,-0.488047691103957,1.15309642292892,0.825254320588014,1.31602889620824,-20.3186593537785
-9.64089034071578,13.2951123972898,0.110317451339169,0.020680281832738,6.93117823608069E-05,-2.57527039605482,-4.42680053086434,-2.66696178576091,-0.021820800530959,5.1665986477532,-0.124525177392328,-0.489763346817748,1.17530886640953,-0.488047691103957,-0.136202871799469,0.291847258806229,0,0.029999999998836,-9.77251015308976,13.2126658286088,0.11005524867785,0.027863388116336,0.00341148168146,-2.56408857783077,-4.34670677632324,-2.81746277290558,-0.000497189543119,5.17994216355232,-0.01246829162572,-0.641667148373467,0.415652711319175,-0.352203981262523,0.23943687612923,0.444783859987829,3.73522952569855,4.52812366155687
-9.77251015308976,13.2126658286088,0.11005524867785,0.027863388116336,0.00341148168146,-2.56408857783077,-4.34670677632324,-2.81746277290558,-0.000497189543119,5.17994216355232,-0.01246829162572,-0.641667148373467,0.415652711319175,-0.352203981262523,-0.230995208024979,0.294436722993851,0,0.069999999999709,-10.0729565348541,13.007626264119,0.110319826018443,0.00392639098418,0.0051371059442,-2.55446486625386,-4.26237032101866,-2.99981370426909,-0.006312550825489,5.21038656003724,0.136216404315769,0.451147099183407,-0.386788037926779,-0.085241822490483,-0.341957101889358,0.434919949786325,2.12406708488725,3.81374512533071
-10.0729565348541,13.007626264119,0.110319826018443,0.00392639098418,0.0051371059442,-2.55446486625386,-4.26237032101866,-2.99981370426909,-0.006312550825489,5.21038656003724,0.136216404315769,0.451147099183407,-0.386788037926779,-0.085241822490483,-0.230995208024979,0.350603103637695,0,0.035000000003493,-10.2229300770831,12.9029174573815,0.10991029596352,0.00109972914558,0.003316393569981,-2.5461872254175,-4.29260290952096,-3.00069517894778,-0.011126049203379,5.2368601632162,0.076856533277716,0.061279054088839,0.353323714264214,-0.54932761683227,-0.080761766809075,0.756388662180584,-1.69599631520372,-13.2595941227279
-10.2229300770831,12.9029174573815,0.10991029596352,0.00109972914558,0.003316393569981,-2.5461872254175,-4.29260290952096,-3.00069517894778,-0.011126049203379,5.2368601632162,0.076856533277716,0.061279054088839,0.353323714264214,-0.54932761683227,-0.231889188289642,0.407601833343506,0,0.029999999998836,-10.3517244073629,12.8122211501835,0.109609179397918,0.003311416612936,0.00196564142158,-2.53257405894678,-4.28573798792507,-3.06809676689033,-0.007868055945331,5.27034841952942,0.064771976275585,0.039197035689203,-0.135775002637122,-0.459974511919707,0.073722915581374,1.11627521048418,-0.402818566753326,2.97843683053434
-10.3517244073629,12.8122211501835,0.109609179397918,0.003311416612936,0.00196564142158,-2.53257405894678,-4.28573798792507,-3.06809676689033,-0.007868055945331,5.27034841952942,0.064771976275585,0.039197035689203,-0.135775002637122,-0.459974511919707,-0.230995208024979,0.417127281427383,0,0.034999999996217,-10.5013735558498,12.7032964342697,0.109530758897622,0.004275437461496,0.002017118841613,-2.51957575508572,-4.26350612897049,-3.15728808030426,-0.000707156426281,5.30464675073796,0.081703021275305,-0.546122702589209,0.234267737029534,-0.402234674619468,0.027543452818976,0.979952320349891,0.483744142901435,1.64970963732802
-10.5013735558498,12.7032964342697,0.109530758897622,0.004275437461496,0.002017118841613,-2.51957575508572,-4.26350612897049,-3.15728808030426,-0.000707156426281,5.30464675073796,0.081703021275305,-0.546122702589209,0.234267737029534,-0.402234674619468,-0.228313282132149,0.412811547517777,0,0.035000000003493,-10.6509322692385,12.59177034944,0.109561514180949,-0.000253128668018,0.00046116225287,-2.51118875194959,-4.29751115967487,-3.19684711703388,-0.000375521059483,5.35593323215408,0.049120972359155,-0.608325828426983,0.250005512653947,-0.311003991151546,-0.129387603687478,1.46532804031416,-0.930915683225665,2.60659095596624
-10.6509322692385,12.59177034944,0.109561514180949,-0.000253128668018,0.00046116225287,-2.51118875194959,-4.29751115967487,-3.19684711703388,-0.000375521059483,5.35593323215408,0.049120972359155,-0.608325828426983,0.250005512653947,-0.311003991151546,-0.231889188289642,0.411917567253113,0,0.025000000001455,-10.7581372296439,12.5112138289641,0.109620172328071,0.00202286189927,0.000667566918605,-2.50346495240702,-4.27815370718617,-3.25366033199223,0.004806875090394,5.37444793622229,0.064915938924821,0.08439110563811,-0.007907536162869,-0.276836204270735,0.091039622686225,0.740588162685491,0.631798662589839,1.36671147515287
-10.7581372296439,12.5112138289641,0.109620172328071,0.00202286189927,0.000667566918605,-2.50346495240702,-4.27815370718617,-3.25366033199223,0.004806875090394,5.37444793622229,0.064915938924821,0.08439110563811,-0.007907536162869,-0.276836204270735,-0.230070412158966,0.419685930013657,0,0.034999999996217,-10.9075796766518,12.3956873256235,0.10980099210435,0.004047926063572,0.001068315895656,-2.48969436918112,-4.25836555382053,-3.34917432990167,0.002110692750207,5.41705001287404,0.0788355253609,-0.129985188593188,-0.121253892659387,-0.306229805930628,0.057858976129177,1.21720219018144,0.397702469645256,-0.83981719037342
-10.9075796766518,12.3956873256235,0.10980099210435,0.004047926063572,0.001068315895656,-2.48969436918112,-4.25836555382053,-3.34917432990167,0.002110692750207,5.41705001287404,0.0788355253609,-0.129985188593188,-0.121253892659387,-0.306229805930628,-0.232783168554306,0.419685930013657,0,0.040000000000873,-11.0777381611213,12.2597929947165,0.109906638441655,0.002433687953862,-7.05706159783099E-05,-2.47645399330852,-4.24947136698885,-3.44792387554935,0.000778051454939,5.47156583594611,0.090295367260525,0.022380462171139,-0.278207534093104,-0.227314814533251,-0.040355952741871,1.36289557677199,0.286496047484361,1.97287478489134
-11.0777381611213,12.2597929947165,0.109906638441655,0.002433687953862,-7.05706159783099E-05,-2.47645399330852,-4.24947136698885,-3.44792387554935,0.000778051454939,5.47156583594611,0.090295367260525,0.022380462171139,-0.278207534093104,-0.227314814533251,-0.202357143163681,0.412811547517777,0,0.025000000001455,-11.183943749991,12.1730198433185,0.109870127308273,5.01817540267195E-05,0.001066572037648,-2.46736720525269,-4.24735926924187,-3.48580899756388,-0.002676800797622,5.49416187200586,0.071487437422797,-0.021005183323537,-0.016839487039532,-0.305825983183947,-0.095340247987877,0.903841442337492,-0.752317193465292,-3.14044674584503
-11.183943749991,12.1730198433185,0.109870127308273,5.01817540267195E-05,0.001066572037648,-2.46736720525269,-4.24735926924187,-3.48580899756388,-0.002676800797622,5.49416187200586,0.071487437422797,-0.021005183323537,-0.016839487039532,-0.305825983183947,-0.118292517960072,0.415801733732224,0,0.029999999998836,-11.3115312978648,12.0675976026736,0.109826047921758,0.002385616989533,0.000166528037777,-2.45815619786997,-4.25255050611734,-3.5491460246481,-0.002387496651327,5.53860747685143,0.066712283124278,-0.059569754557986,-0.184364381546822,-0.093583613110503,0.077847841186574,1.48152016157669,-0.159171809956834,7.07474566938936
-11.3115312978648,12.0675976026736,0.109826047921758,0.002385616989533,0.000166528037777,-2.45815619786997,-4.25255050611734,-3.5491460246481,-0.002387496651327,5.53860747685143,0.066712283124278,-0.059569754557986,-0.184364381546822,-0.093583613110503,-0.109352752566338,0.414106279611587,0,0.029999999998836,-11.4388085235523,11.9599398872481,0.109827303996642,0.000433201962972,-0.00035050592755,-2.45196908883158,-4.23946397945546,-3.62482340612282,0.001093421363725,5.57696764712185,0.099153525566659,0.459606403333734,-0.738599086284076,-0.156353261555345,-0.065080500887919,1.27867234239686,1.08137474812135,-2.09232161490929
-11.4388085235523,11.9599398872481,0.109827303996642,0.000433201962972,-0.00035050592755,-2.45196908883158,-4.23946397945546,-3.62482340612282,0.001093421363725,5.57696764712185,0.099153525566659,0.459606403333734,-0.738599086284076,-0.156353261555345,-0.050319474190474,0.416264146566391,0,0.035000000003493,-11.5885318483745,11.8336115839658,0.109819281358691,0.002836329492802,0.001395930181655,-2.44185693720026,-4.28103127008024,-3.62705059587267,0.0022476544561,5.61091898807763,0.017688121864104,0.043461883699014,-0.118631467194961,-0.561320830306548,0.068660786559725,0.970038312925469,-2.32758296269789,-11.5705019631655
-11.5885318483745,11.8336115839658,0.109819281358691,0.002836329492802,0.001395930181655,-2.44185693720026,-4.28103127008024,-3.62705059587267,0.0022476544561,5.61091898807763,0.017688121864104,0.043461883699014,-0.118631467194961,-0.561320830306548,-0.040454905480147,0.417990446090698,0,0.029999999998836,-11.7169429086056,11.7236156331224,0.109797339522928,-0.0004523235479,8.52244972589444E-05,-2.43664242546158,-4.2783243272453,-3.69929073000435,0.001249231815672,5.6556845252053,0.045205149578423,0.434216798351544,-0.635805030233316,0.027922757061884,-0.109621768027659,1.49218457098025,0.917234257179555,19.6414529130433
-11.7169429086056,11.7236156331224,0.109797339522928,-0.0004523235479,8.52244972589444E-05,-2.43664242546158,-4.2783243272453,-3.69929073000435,0.001249231815672,5.6556845252053,0.045205149578423,0.434216798351544,-0.635805030233316,0.027922757061884,-0.040454905480147,0.430937677621841,0,0.029999999998836,-11.846409154008,11.613020664195,0.109757815511672,0.001767590721359,0.0010061620576,-2.43359137276079,-4.33370943545058,-3.68717755300141,0.00250270264232,5.689992750776,-0.017270622092405,-0.507885546260883,0.448330957277816,-0.225639632259007,0.073997142311521,1.14360751906769,-2.08252572244175,-8.45207964435769
-11.846409154008,11.613020664195,0.109757815511672,0.001767590721359,0.0010061620576,-2.43359137276079,-4.33370943545058,-3.68717755300141,0.00250270264232,5.689992750776,-0.017270622092405,-0.507885546260883,0.448330957277816,-0.225639632259007,-0.040454905480147,0.434390276670456,0,0.059999999997672,-12.1053183144855,11.3868475328626,0.109899832729067,-0.001895234700065,-2.70307847327734E-06,-2.43040282838268,-4.31682606706595,-3.83064193287865,-0.002687408514122,5.77076247056107,0.084293650960984,0.277336176213899,-0.45416686145641,0.254625471257088,-0.061047090359432,1.34616199647004,1.69273788428884,8.00441839224553
-12.1053183144855,11.3868475328626,0.109899832729067,-0.001895234700065,-2.70307847327734E-06,-2.43040282838268,-4.31682606706595,-3.83064193287865,-0.002687408514122,5.77076247056107,0.084293650960984,0.277336176213899,-0.45416686145641,0.254625471257088,-0.039591755717993,0.439569175243378,0,0.035000000003493,-12.2583352412272,11.2536219162554,0.109904848447635,-0.002130937243362,-0.00028005084131,-2.42959285675441,-4.41005479368472,-3.80103244093043,-0.003664009012895,5.82206296382778,-0.003707496717917,-0.065947385815057,0.215286376370427,-0.140102650884634,-0.006734358379258,1.46572837890274,-2.51431850486058,-11.277946345781
-12.2583352412272,11.2536219162554,0.109904848447635,-0.002130937243362,-0.00028005084131,-2.42959285675441,-4.41005479368472,-3.80103244093043,-0.003664009012895,5.82206296382778,-0.003707496717917,-0.065947385815057,0.215286376370427,-0.140102650884634,-0.038235377520323,0.440463155508041,0,0.035000000003493,-12.4127538865757,11.1194646609513,0.109793330733587,0.001390303015801,-1.75811304354857E-05,-2.42596068551637,-4.40425783097747,-3.87124040268837,-0.00229946412748,5.86369930493168,0.031933657432187,-0.007230497239565,-0.248518467580832,-0.058949802864886,0.100606864537492,1.18960974570686,1.01831868990135,2.31865280033287
-12.4127538865757,11.1194646609513,0.109793330733587,0.001390303015801,-1.75811304354857E-05,-2.42596068551637,-4.40425783097747,-3.87124040268837,-0.00229946412748,5.86369930493168,0.031933657432187,-0.007230497239565,-0.248518467580832,-0.058949802864886,-0.036015849560499,0.437318831682205,0,0.039999999993597,-12.5896183642097,10.9640147280235,0.109755806150371,0.000825035236543,0.001020444595661,-2.42753958844334,-4.43696379440713,-3.8979040673251,-0.00053127738765,5.90582001143334,0.039922719131138,-0.036072336280003,0.193653688649277,-0.151263275655546,-0.014131694483726,1.05301766271011,0.199726542505736,-2.30783682013593
-12.5896183642097,10.9640147280235,0.109755806150371,0.000825035236543,0.001020444595661,-2.42753958844334,-4.43696379440713,-3.8979040673251,-0.00053127738765,5.90582001143334,0.039922719131138,-0.036072336280003,0.193653688649277,-0.151263275655546,-0.037803802639246,0.438706040382385,0,0.055000000000291,-12.835182233998,10.7477682726284,0.109746491745877,0.000610103375038,-0.000747146520659,-2.42245446724083,-4.48218147843776,-3.96337843429513,0.001776269101741,5.98309761792073,0.029365175249685,0.066420725593562,0.335150607925342,-0.289411257053928,-0.003907852027335,1.40504739067246,-0.191955343298124,-2.51178147995729
-12.835182233998,10.7477682726284,0.109746491745877,0.000610103375038,-0.000747146520659,-2.42245446724083,-4.48218147843776,-3.96337843429513,0.001776269101741,5.98309761792073,0.029365175249685,0.066420725593562,0.335150607925342,-0.289411257053928,-0.039591755717993,0.442189455032349,0,0.035000000003493,-12.9927605695544,10.6085688448769,0.109788428252817,0.000576955674686,0.000454968548626,-2.41812037546022,-4.50078780405405,-4.0078221646205,0.002352798914302,6.02653570924849,0.024427556117155,0.12020805902972,0.177728969662158,-0.133472320809689,-0.000947077152825,1.24108832352628,-0.141074832343913,4.45539817796224
-12.9927605695544,10.6085688448769,0.109788428252817,0.000576955674686,0.000454968548626,-2.41812037546022,-4.50078780405405,-4.0078221646205,0.002352798914302,6.02653570924849,0.024427556117155,0.12020805902972,0.177728969662158,-0.133472320809689,-0.042273685336113,0.550175666809082,0,0.034999999996217,-13.1512320490891,10.4678839102485,0.109769597193769,-0.000237531699975,-0.001090649197513,-2.41576383483672,-4.54012152283072,-4.05000973371167,-5.55762849911044E-05,6.08399841190517,0.015671922835468,0.39790703227697,-0.682389061410802,0.072851690065296,-0.023271067849962,1.64179150465411,-0.250160950932383,5.89497173992255
-13.1512320490891,10.4678839102485,0.109769597193769,-0.000237531699975,-0.001090649197513,-2.41576383483672,-4.54012152283072,-4.05000973371167,-5.55762849911044E-05,6.08399841190517,0.015671922835468,0.39790703227697,-0.682389061410802,0.072851690065296,-0.04406163841486,0.629708766937256,0,0.060000000004948,-13.4262403939067,10.2227966195468,0.109767096743004,0.000756350234488,-0.005263338911774,-2.41364107743724,-4.6152266135041,-4.15528738521001,-0.001155700524629,6.21013246408667,0.03138034701372,0.518782600022838,0.033885910139968,0.163272162323732,0.01656469890635,2.10223420285171,0.261807069615947,1.50700787084967
-13.4262403939067,10.2227966195468,0.109767096743004,0.000756350234488,-0.005263338911774,-2.41364107743724,-4.6152266135041,-4.15528738521001,-0.001155700524629,6.21013246408667,0.03138034701372,0.518782600022838,0.033885910139968,0.163272162323732,-0.04406163841486,0.747189581394196,0,0.029999999998836,-13.5659838120365,10.0977754220071,0.10975878495401,-0.00041489002816,-0.008769326713716,-2.41097832010258,-4.71801005067018,-4.18533237531708,-8.38178712181115E-05,6.30679331199619,-0.031369569046982,-0.298780309555894,0.054945066578953,0.044996006813594,-0.039041342089776,3.22202826377553,-2.09166386877125,-3.94253851715759
-13.5659838120365,10.0977754220071,0.10975878495401,-0.00041489002816,-0.008769326713716,-2.41097832010258,-4.71801005067018,-4.18533237531708,-8.38178712181115E-05,6.30679331199619,-0.031369569046982,-0.298780309555894,0.054945066578953,0.044996006813594,-0.043167661875486,0.753231644630432,0,0.034999999996217,-13.7316585789336,9.94893064758217,0.109729053852305,0.00108306267007,-0.010665454189452,-2.4088571604731,-4.76953360055463,-4.30732020983047,0.001016459110603,6.42661082123499,0.011467746894478,0.2577422066341,0.407698202124577,-0.139498726894538,0.042798648525465,3.42335740719302,1.22392331274545,-5.27127810651647
-13.7316585789336,9.94893064758217,0.109729053852305,0.00108306267007,-0.010665454189452,-2.4088571604731,-4.76953360055463,-4.30732020983047,0.001016459110603,6.42661082123499,0.011467746894478,0.2577422066341,0.407698202124577,-0.139498726894538,-0.043167661875486,0.758410573005676,0,0.035000000003493,-13.8998278490226,9.79680853178219,0.109789515735439,-0.005771638353886,-0.011747444393028,-2.41112605867991,-4.87769242757538,-4.36347191914123,0.005500007848372,6.54459717583273,-0.004291065428606,0.532819869428078,0.399813639583737,0.087123647876115,-0.195848600664903,3.37103870245606,-0.450251780614623,6.47492499280112
-13.8998278490226,9.79680853178219,0.109789515735439,-0.005771638353886,-0.011747444393028,-2.41112605867991,-4.87769242757538,-4.36347191914123,0.005500007848372,6.54459717583273,-0.004291065428606,0.532819869428078,0.399813639583737,0.087123647876115,-0.043691717088223,0.742873847484589,0,0.034999999996217,-14.072188501014,9.64286884058775,0.109965536576777,0.007201006133407,-0.011753328399083,-2.40412867587944,-4.93658342964126,-4.46344761990747,0.008780197798763,6.65522160350593,-0.015685078713651,-0.139340979309981,-0.219345910040313,-0.314372114144442,0.370646985391297,3.16069793386171,-0.325543236750743,-11.4713074875417
-14.072188501014,9.64286884058775,0.109965536576777,0.007201006133407,-0.011753328399083,-2.40412867587944,-4.93658342964126,-4.46344761990747,0.008780197798763,6.65522160350593,-0.015685078713651,-0.139340979309981,-0.219345910040313,-0.314372114144442,-0.036878999322653,0.727306306362152,0,0.035000000003493,-14.2454570699134,9.48393482962671,0.110275197582607,0.005386384542531,-0.011314815301471,-2.40085608560968,-4.97319239912947,-4.61604076027964,0.003215132937554,6.785125700392,0.050439758149344,-0.444760920753143,-0.201818507261825,-0.126267089312693,-0.051846331162711,3.71154562494602,1.88928105303989,5.37442928037083
-14.2454570699134,9.48393482962671,0.110275197582607,0.005386384542531,-0.011314815301471,-2.40085608560968,-4.97319239912947,-4.61604076027964,0.003215132937554,6.785125700392,0.050439758149344,-0.444760920753143,-0.201818507261825,-0.126267089312693,-0.047637544572353,0.657329559326172,0,0.040000000000873,-14.4470937968826,9.29893046676571,0.110248106344493,-0.000132194674013,-0.010006570349075,-2.40437157733864,-5.1198880079841,-4.63355886193873,0.001158868199204,6.90528725518551,-0.011351859892734,-0.123279102051642,0.130344389392381,-0.146924999348156,-0.137964480410598,3.00403886977198,-1.54479045101822,-0.51644775087531
-14.4470937968826,9.29893046676571,0.110248106344493,-0.000132194674013,-0.010006570349075,-2.40437157733864,-5.1198880079841,-4.63355886193873,0.001158868199204,6.90528725518551,-0.011351859892734,-0.123279102051642,0.130344389392381,-0.146924999348156,-0.063729122281075,0.485377788543701,0,0.034999999996217,-14.6266604346292,9.13514696893138,0.110150011471107,0.001195365761452,-0.006550825552582,-2.40181198855294,-5.13905093405744,-4.72963596865599,-0.007934421170071,6.98415769960385,0.029019405670161,0.175864400772406,-0.034133872509907,0.021772614552996,0.037930298160233,2.25344126933902,1.15346473049311,4.81993182626825
-14.6266604346292,9.13514696893138,0.110150011471107,0.001195365761452,-0.006550825552582,-2.40181198855294,-5.13905093405744,-4.72963596865599,-0.007934421170071,6.98415769960385,0.029019405670161,0.175864400772406,-0.034133872509907,0.021772614552996,-0.103958062827587,0.090517587959766,0,0.030000000006112,-14.7813363166062,8.99322542467059,0.1100743318191,-0.000978674018044,0.001437529673267,-2.39851242199999,-5.15312957865361,-4.71958083935313,0.003024350456474,6.98777988658144,-0.010954919977151,0.183250304385132,0.158783504269121,0.079269939439597,-0.072467992635082,0.120739565895272,-1.33247752130561,1.91657749582955
-14.7813363166062,8.99322542467059,0.1100743318191,-0.000978674018044,0.001437529673267,-2.39851242199999,-5.15312957865361,-4.71958083935313,0.003024350456474,6.98777988658144,-0.010954919977151,0.183250304385132,0.158783504269121,0.079269939439597,-0.112003855407238,0.00842588301748,0,0.034999999996217,-14.961321699024,8.82819409006365,0.110143063280298,0.000104950315424,0.011919286598451,-2.39733834499718,-5.11917518315721,-4.69141794844972,0.014235672020624,6.94370738078662,-0.016874030287069,0.210372178518849,0.168639442341138,-0.035701269191404,0.030960695245292,-1.25921445141662,-0.169117437444513,-3.28489167552655
-14.961321699024,8.82819409006365,0.110143063280298,0.000104950315424,0.011919286598451,-2.39733834499718,-5.11917518315721,-4.69141794844972,0.014235672020624,6.94370738078662,-0.016874030287069,0.210372178518849,0.168639442341138,-0.035701269191404,-0.124550350010395,-0.013142379932106,0.013142379932106,0.044999999998254,-15.1906744486982,8.61871847148605,0.110249130906981,0.000907799270288,0.016628393013729,-2.39252523143469,-5.07258568020225,-4.60727582917535,0.002159037732934,6.85213002352509,-0.08018846427214,-0.025996600988031,0.433996624985247,-0.414809680090587,0.017841087886562,-2.0350523836686,-1.40698742194506,-8.4246313536421
-15.1906744486982,8.61871847148605,0.110249130906981,0.000907799270288,0.016628393013729,-2.39252523143469,-5.07258568020225,-4.60727582917535,0.002159037732934,6.85213002352509,-0.08018846427214,-0.025996600988031,0.433996624985247,-0.414809680090587,-0.121868424117565,-0.013142379932106,0.013142379932106,0.020000000004075,-15.2912997221345,8.52613714192846,0.110286496866514,0.009559435473278,0.016265855732694,-2.3869814911138,-5.00133770210196,-4.64430198801328,0.00585613867488,6.82503645253767,-0.042393252559176,-0.040290529060104,-0.006400526282545,-0.027126897033285,0.432581810061347,-1.35467854909501,1.88976058526321,19.3841391489161
-15.2912997221345,8.52613714192846,0.110286496866514,0.009559435473278,0.016265855732694,-2.3869814911138,-5.00133770210196,-4.64430198801328,0.00585613867488,6.82503645253767,-0.042393252559176,-0.040290529060104,-0.006400526282545,-0.027126897033285,-0.125444322824478,-0.011816828511655,0.011816828511655,0.040000000000873,-15.4887234202793,8.34006704378047,0.110392976120679,0.00091512606638,0.017015525921298,-2.3879479590107,-4.88688921812838,-4.65724314579492,-0.011004497132333,6.75047408968467,0.05195684564249,-0.19089272068226,-0.306146845576639,-0.125891650845191,-0.216107735167743,-1.86405907128439,2.35875245499017,-2.46911884524376
-15.4887234202793,8.34006704378047,0.110392976120679,0.00091512606638,0.017015525921298,-2.3879479590107,-4.88688921812838,-4.65724314579492,-0.011004497132333,6.75047408968467,0.05195684564249,-0.19089272068226,-0.306146845576639,-0.125891650845191,-0.189841464161873,-0.006113874725997,0.006113874725997,0.029999999998836,-15.6350344039181,8.20139266998452,0.1101582481967,-0.000293831416642,0.016207637940429,-2.38692998950945,-4.86105905210222,-4.60401416784069,-0.014386436309212,6.69524200102126,0.02400236370848,0.20873837668464,-0.273776758126399,0.213346343874906,-0.040298582768958,-1.84106962218494,-0.931816064503184,11.3079331577754
-15.6350344039181,8.20139266998452,0.1101582481967,-0.000293831416642,0.016207637940429,-2.38692998950945,-4.86105905210222,-4.60401416784069,-0.014386436309212,6.69524200102126,0.02400236370848,0.20873837668464,-0.273776758126399,0.213346343874906,-0.202357143163681,-0.009597300551832,0.009597300551832,0.069999999999709,-15.9703749045462,7.88065917885964,0.109820634209751,-0.000263109053361,0.015894291816971,-2.37933150308204,-4.71994508885983,-4.56407609534453,-0.006939587949246,6.56558711909792,0.041689656785654,0.071787961972448,0.226373728019226,-0.258396036063356,0.000438890904025,-1.8522125989126,0.252675615389258,-6.73917685628891
-15.9703749045462,7.88065917885964,0.109820634209751,-0.000263109053361,0.015894291816971,-2.37933150308204,-4.71994508885983,-4.56407609534453,-0.006939587949246,6.56558711909792,0.041689656785654,0.071787961972448,0.226373728019226,-0.258396036063356,-0.410746157169342,-0.011385253630579,0.011385253630579,0.025000000001455,-16.0880543953287,7.76672800683843,0.10980692162712,-0.000538031840085,0.015506306315426,-2.37488994872043,-4.68849491991254,-4.5529641386123,0.002093975417104,6.53534796709774,0.026344078779268,0.117821922514706,-0.062562317535371,-0.07524874908547,-0.010996911468337,-1.20956607993677,-0.613823120219721,7.32589147868902
-16.0880543953287,7.76672800683843,0.10980692162712,-0.000538031840085,0.015506306315426,-2.37488994872043,-4.68849491991254,-4.5529641386123,0.002093975417104,6.53534796709774,0.026344078779268,0.117821922514706,-0.062562317535371,-0.07524874908547,-0.493916809558868,-0.011385253630579,0.011385253630579,0.044999999998254,-16.2955962973932,7.56185508193975,0.110217446538272,0.020665801269259,0.016274434656988,-2.3435066330411,-4.50385601647204,-4.60205620784269,0.015811471634098,6.43921501695675,-0.012260613910917,-0.246431484758498,0.482755092404171,-1.07262366197425,0.471196291337041,-2.13628778099374,-0.857882059815171,-22.1638869539441
-16.2955962973932,7.56185508193975,0.110217446538272,0.020665801269259,0.016274434656988,-2.3435066330411,-4.50385601647204,-4.60205620784269,0.015811471634098,6.43921501695675,-0.012260613910917,-0.246431484758498,0.482755092404171,-1.07262366197425,-0.51093316078186,-0.004325921647251,0.004325921647251,0.040000000000873,-16.4711033976193,7.37578646599952,0.111367310785051,0.040312634041506,0.018228525220935,-2.29813113383487,-4.25398618981282,-4.7101399485337,0.040551197518371,6.34663034082875,-0.045827445523024,0.343700466659413,0.263795392180729,-1.56643844273295,0.491170819295463,-2.31461690314955,-0.839170790284351,-12.345369518698
-16.4711033976193,7.37578646599952,0.111367310785051,0.040312634041506,0.018228525220935,-2.29813113383487,-4.25398618981282,-4.7101399485337,0.040551197518371,6.34663034082875,-0.045827445523024,0.343700466659413,0.263795392180729,-1.56643844273295,-0.518978953361511,-0.007871001027524,0.007871001027524,0.034999999996217,-16.6156098219308,7.20854935542392,0.112538543626288,0.05979283618746,0.018477357416864,-2.25514041248999,-3.9872281440551,-4.85090547270253,0.032285522143595,6.27923158309303,-0.022867088304142,0.3078541981568,0.039690154425697,-1.73711479435407,0.556577204230265,-1.92567879265737,0.656010206324671,-4.87646718970215
-16.6156098219308,7.20854935542392,0.112538543626288,0.05979283618746,0.018477357416864,-2.25514041248999,-3.9872281440551,-4.85090547270253,0.032285522143595,6.27923158309303,-0.022867088304142,0.3078541981568,0.039690154425697,-1.73711479435407,-0.519872963428497,0,0,0.020000000004075,-16.6937638616964,7.11085184258193,0.113132967241399,0.06907721219885,0.018937776730767,-2.22723246176436,-3.81481744100527,-4.92929602761014,0.033435680757449,6.23302534621712,-0.013655380843399,-0.113632849727877,0.231538574619403,-1.22061499124537,0.46421880047492,-2.31031184332468,0.460585372943314,25.8249901501739
-16.6937638616964,7.11085184258193,0.113132967241399,0.06907721219885,0.018937776730767,-2.22723246176436,-3.81481744100527,-4.92929602761014,0.033435680757449,6.23302534621712,-0.013655380843399,-0.113632849727877,0.231538574619403,-1.22061499124537,-0.515403032302856,0,0,0.019999999996799,-16.7685425260377,7.01162182569145,0.113630622696869,0.073302263399534,0.017719628474882,-2.20168893183198,-3.6478839810075,-5.00526647554791,0.024478459937145,6.19352115316902,0.006764272527109,0.551207208648297,-0.144768666561906,-1.37680718484519,0.21125256006805,-1.97520965272114,1.02098266868882,-7.8096096812411
-16.7685425260377,7.01162182569145,0.113630622696869,0.073302263399534,0.017719628474882,-2.20168893183198,-3.6478839810075,-5.00526647554791,0.024478459937145,6.19352115316902,0.006764272527109,0.551207208648297,-0.144768666561906,-1.37680718484519,-0.511827170848846,0.018783681094647,0,0.040000000000873,-16.9084331316144,6.80870997076527,0.113698155351015,0.06596344266888,0.014863272346674,-2.15402847469778,-3.33853185131577,-5.13422934298472,-0.01710745960661,6.12408618701958,0.040917509347539,0.04258269912222,0.097150740876829,-0.912696977111088,-0.183470518262369,-1.7358741536981,0.853830920492108,11.6027551930993
-16.9084331316144,6.80870997076527,0.113698155351015,0.06596344266888,0.014863272346674,-2.15402847469778,-3.33853185131577,-5.13422934298472,-0.01710745960661,6.12408618701958,0.040917509347539,0.04258269912222,0.097150740876829,-0.912696977111088,-0.512721121311188,0.045572150498629,0,0.040000000000873,-17.0355761461123,6.60157011021112,0.112709259830558,0.06701769991311,0.016335945297743,-2.10535946310655,-3.0092191403052,-5.23401780262172,-0.017130217470717,6.0369190120476,0.077142948598659,0.075663486427438,-0.236625954050593,-0.92357810548024,0.026356431105194,-2.179179374252,0.90563598125824,-0.27202820922286
-17.0355761461123,6.60157011021112,0.112709259830558,0.06701769991311,0.016335945297743,-2.10535946310655,-3.0092191403052,-5.23401780262172,-0.017130217470717,6.0369190120476,0.077142948598659,0.075663486427438,-0.236625954050593,-0.92357810548024,-0.515125632286072,0.07926581799984,0,0.044999999998254,-17.1623432862122,6.36410738748591,0.112123617757997,0.06396552581976,0.014870692828587,-2.04412181792575,-2.63994926962426,-5.32219216640041,-0.000952074933687,5.94047333083576,0.076408166531063,0.427268763053171,-0.014599661803819,-1.44431704204811,-0.067826090965979,-2.14323736034624,-0.016328490391666,-11.571976368624
-17.1623432862122,6.36410738748591,0.112123617757997,0.06396552581976,0.014870692828587,-2.04412181792575,-2.63994926962426,-5.32219216640041,-0.000952074933687,5.94047333083576,0.076408166531063,0.427268763053171,-0.014599661803819,-1.44431704204811,-0.514262497425079,0.205408990383148,0,0.035000000003493,-17.2496405293457,6.1766198225614,0.112400055278894,0.066261047589943,0.015819075553075,-1.99397063530306,-2.35106721342985,-5.39116988995553,0.012129715857817,5.88109649692858,0.070241143514868,-0.880284412124962,0.574179294193163,-1.16887324741628,0.065586336284409,-1.69648096860732,-0.176200657587983,7.86982270298144
-17.2496405293457,6.1766198225614,0.112400055278894,0.066261047589943,0.015819075553075,-1.99397063530306,-2.35106721342985,-5.39116988995553,0.012129715857817,5.88109649692858,0.070241143514868,-0.880284412124962,0.574179294193163,-1.16887324741628,-0.54758620262146,0.220544934272766,0,0.044999999998254,-17.3474943162719,5.93197598050873,0.112792259120233,0.066613609546206,0.009271655822044,-1.93094779614366,-1.99725919613241,-5.49397832231607,0.00701380873056,5.84536972514572,0.067043858513236,-0.482680683235207,0.646251364762154,-0.825964341542999,0.007834710139478,-0.793928261872225,-0.071050777816791,7.62019790859077
-17.3474943162719,5.93197598050873,0.112792259120233,0.066613609546206,0.009271655822044,-1.93094779614366,-1.99725919613241,-5.49397832231607,0.00701380873056,5.84536972514572,0.067043858513236,-0.482680683235207,0.646251364762154,-0.825964341542999,-0.554768860340118,0.291847258806229,0,0.025000000001455,-17.3950284227229,5.79392391154439,0.112926261215505,0.068727926125902,0.009658307890397,-1.90281738768222,-1.79365428139085,-5.54374405234766,0.009773780768962,5.82562470842198,0.111312873088025,-0.464704799639878,0.52585227041045,-0.962249906312992,0.084572663182923,-0.789800668903559,1.77076058288848,-5.45142259048239
-17.3950284227229,5.79392391154439,0.112926261215505,0.068727926125902,0.009658307890397,-1.90281738768222,-1.79365428139085,-5.54374405234766,0.009773780768962,5.82562470842198,0.111312873088025,-0.464704799639878,0.52585227041045,-0.962249906312992,-0.554768860340118,0.330719828605652,0,0.044999999998254,-17.4690241448231,5.54255642166341,0.112819198488519,0.057945910949311,0.009486653830702,-1.85372274032337,-1.48485094003862,-5.60848960573592,-0.006903611058231,5.80003184795871,0.139887577883358,-0.706532802536593,0.675076126100685,-1.29723007433907,-0.239600337266874,-0.568730232539181,0.634993439920937,-7.44400373420165
-17.4690241448231,5.54255642166341,0.112819198488519,0.057945910949311,0.009486653830702,-1.85372274032337,-1.48485094003862,-5.60848960573592,-0.006903611058231,5.80003184795871,0.139887577883358,-0.706532802536593,0.675076126100685,-1.29723007433907,-0.568178474903107,0.330164968967438,0,0.034999999996217,-17.5171013235735,5.34464764212614,0.112375313478161,0.054692999023979,0.005910152176964,-1.81228016901277,-1.25634573613858,-5.69030862365402,-0.01743008308572,5.82564686203081,0.140909474683182,0.361633644937101,-0.062063714294307,-1.23757169172124,-0.092940340733825,0.731857544996259,0.029197051426677,1.7045252178366
-17.5171013235735,5.34464764212614,0.112375313478161,0.054692999023979,0.005910152176964,-1.81228016901277,-1.25634573613858,-5.69030862365402,-0.01743008308572,5.82564686203081,0.140909474683182,0.361633644937101,-0.062063714294307,-1.23757169172124,-0.582482099533081,0.373075842857361,0,0.040000000000873,-17.5615386787816,5.1157593480943,0.112065745919704,0.058175138731962,0.005930837173006,-1.76268140533732,-0.96042602975489,-5.75462350076789,0.00303999865159,5.83216845712697,0.154663770528074,0.224708102409327,-0.066143526746292,-1.26713026321715,0.087053492697689,0.163039877400578,0.34385739611481,-0.738964287381673
-17.5615386787816,5.1157593480943,0.112065745919704,0.058175138731962,0.005930837173006,-1.76268140533732,-0.96042602975489,-5.75462350076789,0.00303999865159,5.83216845712697,0.154663770528074,0.224708102409327,-0.066143526746292,-1.26713026321715,-0.583376109600067,0.374771296977997,0,0.04500000000553,-17.5977919662758,4.8555916022238,0.112103073509535,0.056057996830986,0.005002084409723,-1.70211691084172,-0.64400892240926,-5.81021396101317,0.004996629650893,5.84451583111169,0.122345677406095,1.0397973323387,-0.105955147181523,-1.44929469836514,-0.047047597793693,0.274386088515512,-0.718179847066836,-4.04809855834674
-17.5977919662758,4.8555916022238,0.112103073509535,0.056057996830986,0.005002084409723,-1.70211691084172,-0.64400892240926,-5.81021396101317,0.004996629650893,5.84451583111169,0.122345677406095,1.0397973323387,-0.105955147181523,-1.44929469836514,-0.557419955730438,0.376497596502304,0,0.034999999996217,-17.6161010792423,4.65150061494333,0.112221357560124,0.061834005576802,0.003890899053832,-1.65129304857915,-0.381349373451218,-5.85151271425785,0.004457175711907,5.86322909391735,0.090404546313133,-0.620129115962738,-0.461291278920272,-1.63988662916533,0.165028821326858,0.534664651648156,-0.912603745611871,-5.4454837377371
-17.6161010792423,4.65150061494333,0.112221357560124,0.061834005576802,0.003890899053832,-1.65129304857915,-0.381349373451218,-5.85151271425785,0.004457175711907,5.86322909391735,0.090404546313133,-0.620129115962738,-0.461291278920272,-1.63988662916533,-0.537752449512482,0.375634461641312,0,0.040000000000873,-17.6248292093132,4.41665512420414,0.11260218155341,0.06485499741605,0.00473206358843,-1.60211104200924,-0.04898518769102,-5.88154237400259,0.010418336728359,5.88019256244199,0.13518755269287,-0.239159086011839,0.045264916755212,-1.16299168642971,0.075524795979565,0.424086713106588,1.119575159469,11.9223735681303
-17.6248292093132,4.41665512420414,0.11260218155341,0.06485499741605,0.00473206358843,-1.60211104200924,-0.04898518769102,-5.88154237400259,0.010418336728359,5.88019256244199,0.13518755269287,-0.239159086011839,0.045264916755212,-1.16299168642971,-0.539540410041809,0.408033400774002,0,0.05000000000291,-17.6179306630681,4.12178020665313,0.112742125473181,0.061686296534656,0.003157364990995,-1.54779515536001,0.329422323097534,-5.91094500238255,0.000776961267777,5.91695789833153,0.193388514442773,0.21856053948666,0.063867926187098,-1.05049726070409,-0.0633740176242,0.735306717748091,1.1640192349303,2.24988851438147
-17.6179306630681,4.12178020665313,0.112742125473181,0.061686296534656,0.003157364990995,-1.54779515536001,0.329422323097534,-5.91094500238255,0.000776961267777,5.91695789833153,0.193388514442773,0.21856053948666,0.063867926187098,-1.05049726070409,-0.538677275180817,0.412811547517777,0,0.029999999998836,-17.6051815295099,3.94418723661514,0.112519151493456,0.057176040514495,0.002586427535335,-1.51142814280811,0.533542895301291,-5.93292747396013,-0.008378926483802,5.95413187094723,0.180582656331818,0.339160718048313,-0.16816186231737,-1.12911070830178,-0.150341867344534,1.23913242057151,-0.426861937048408,-2.62044825335807
