x_pos,y_pos,z_pos,roll,pitch,yaw,u_x,u_y,u_z,comp_u_x,comp_u_y,roll_mder,pitch_mder,yaw_mder,steer,throttle,brake,time_step,act_x_pos,act_y_pos,act_z_pos,act_roll,act_pitch,act_yaw,act_u_x,act_u_y,act_u_z,act_comp_u_x,act_comp_u_y,act_roll_mder,act_pitch_mder,act_yaw_mder,accel_roll,accel_x,accel_y,accel_yaw
-6.15912167838451,5.91532766673587,0.109540434413839,-3.51475673636656E-06,0.006826743444018,2.36309493082576,1.47054314972441E-09,1.07212161922398E-08,-8.74923271351675E-10,6.48157053712383E-09,-8.6658073581308E-09,1.36129129018985E-08,4.89493635388424E-08,1.837702638816E-09,0.013358167372644,-0.007871001027524,0.007871001027524,0.019999999996799,-6.15912167853041,5.91532766678486,0.109540434460855,-3.51510092645623E-06,0.006826743993669,2.3630949307916,-1.16582515320575E-08,-1.22762431692863E-08,5.98361903033719E-09,-3.20191863451842E-10,1.69268559486619E-08,-5.45323073954831E-08,-6.78626486200999E-08,1.35949288298495E-09,-1.720950448626E-08,-3.40088120083222E-07,1.27963316554447E-06,-2.39104877953803E-08
-6.15912167853041,5.91532766678486,0.109540434460855,-3.51510092645623E-06,0.006826743993669,2.3630949307916,-1.16582515320575E-08,-1.22762431692863E-08,5.98361903033719E-09,-3.20191863451842E-10,1.69268559486619E-08,-5.45323073954831E-08,-6.78626486200999E-08,1.35949288298495E-09,0.013358167372644,-0.007871001027524,0.007871001027524,0.025000000001455,-6.15912167878033,5.9153276670439,0.109540434837952,-3.51505253254036E-06,0.006826745613951,2.36309493074992,2.48726599478187E-09,2.08652615502193E-08,2.28311528232025E-08,1.28809516811506E-08,-1.6602009380666E-08,1.92430344134645E-08,1.00245240142552E-07,1.89510465706419E-09,1.93575663479489E-09,5.28045741753363E-07,-1.34115461309505E-06,2.14244709619227E-08
-6.15912167878033,5.9153276670439,0.109540434837952,-3.51505253254036E-06,0.006826745613951,2.36309493074992,2.48726599478187E-09,2.08652615502193E-08,2.28311528232025E-08,1.28809516811506E-08,-1.6602009380666E-08,1.92430344134645E-08,1.00245240142552E-07,1.89510465706419E-09,0.013358167372644,-0.007871001027524,0.007871001027524,0.029999999998836,-6.15912167925711,5.91532766737512,0.109540435529568,-3.51555633679772E-06,0.00682674826857,2.36309493069774,-2.93728705474223E-08,-1.12138392938559E-08,1.64556098556656E-08,1.30381035572677E-08,2.86098509526705E-08,-1.44916458249617E-07,-6.27975442476121E-08,1.35665444762124E-09,-1.67934752460846E-08,5.23839587077295E-09,1.5070620111697E-06,-1.79483403154614E-08
-6.15912167925711,5.91532766737512,0.109540435529568,-3.51555633679772E-06,0.00682674826857,2.36309493069774,-2.93728705474223E-08,-1.12138392938559E-08,1.64556098556656E-08,1.30381035572677E-08,2.86098509526705E-08,-1.44916458249617E-07,-6.27975442476121E-08,1.35665444762124E-09,0.013358167372644,-0.007871001027524,0.007871001027524,0.020000000004075,-6.15912167945061,5.91532766762536,0.109540435867599,-3.51533828943495E-06,0.006826749692572,2.36309493066493,-4.04070609169048E-08,-1.13053364377057E-09,2.24183226646663E-08,2.79747123463556E-08,2.91791731788413E-08,-2.00754863841069E-07,-1.17413758272773E-08,1.31513409176557E-09,1.09023681364995E-08,7.46830439302242E-07,2.8466111302744E-08,-2.07601779236047E-09
-6.15912167945061,5.91532766762536,0.109540435867599,-3.51533828943495E-06,0.006826749692572,2.36309493066493,-4.04070609169048E-08,-1.13053364377057E-09,2.24183226646663E-08,2.79747123463556E-08,2.91791731788413E-08,-2.00754863841069E-07,-1.17413758272773E-08,1.31513409176557E-09,0.013358167372644,-0.007871001027524,0.007871001027524,0.024999999994179,-6.15912168000684,5.9153276678933,0.109540436495214,-3.51635755166628E-06,0.006826752448481,2.36309493061833,-1.05364164787814E-08,2.51788544407711E-08,2.99928297086639E-08,2.51824640145588E-08,-1.0527786534658E-08,-4.65103922498746E-08,1.21581873640215E-07,1.87501806469211E-09,-4.07704892628136E-08,-1.11689933297876E-07,-1.58827838890977E-06,2.23953589222757E-08
-6.15912168000684,5.9153276678933,0.109540436495214,-3.51635755166628E-06,0.006826752448481,2.36309493061833,-1.05364164787814E-08,2.51788544407711E-08,2.99928297086639E-08,2.51824640145588E-08,-1.0527786534658E-08,-4.65103922498746E-08,1.21581873640215E-07,1.87501806469211E-09,0.013358167372644,-0.007871001027524,0.007871001027524,0.05000000000291,-6.15912167984185,5.91532766724328,0.109540435575424,-3.51813191741338E-06,0.006826749197299,2.3630949305294,1.98296666617709E-08,-2.1203105884747E-09,-4.22085507939975E-08,-1.56070176661118E-08,-1.24150069060883E-08,1.06010463713782E-07,-1.50439389834454E-08,1.77366825092492E-09,-3.5487314939964E-08,-8.15789633565926E-07,-3.77444074264095E-08,-2.02699627522572E-09
-6.15912167984185,5.91532766724328,0.109540435575424,-3.51813191741338E-06,0.006826749197299,2.3630949305294,1.98296666617709E-08,-2.1203105884747E-09,-4.22085507939975E-08,-1.56070176661118E-08,-1.24150069060883E-08,1.06010463713782E-07,-1.50439389834454E-08,1.77366825092492E-09,0.013358167372644,-0.007871001027524,0.007871001027524,0.025000000001455,-6.15912167940112,5.91532766695856,0.109540434659689,-3.51758589761955E-06,0.006826746430146,2.3630949304918,5.5652231130407E-09,-2.30728179195304E-08,-3.87152794293808E-08,-2.01642459275034E-08,1.25191781367981E-08,3.19392604752014E-08,-1.21445440106362E-07,1.37921833186406E-09,2.18407917518424E-08,-1.82289130445056E-07,9.97367401657404E-07,-1.57779967615162E-08
-6.15912167940112,5.91532766695856,0.109540434659689,-3.51758589761955E-06,0.006826746430146,2.3630949304918,5.5652231130407E-09,-2.30728179195304E-08,-3.87152794293808E-08,-2.01642459275034E-08,1.25191781367981E-08,3.19392604752014E-08,-1.21445440106362E-07,1.37921833186406E-09,0.013358167372644,-0.007871001027524,0.007871001027524,0.029999999998836,-6.15912167909373,5.91532766687943,0.109540434027308,-3.51676904494547E-06,0.00682674482809,2.36309493044634,1.5645127578142E-08,1.16349287404221E-08,-4.92338909008334E-09,-2.96867911585693E-09,-1.92698865600739E-08,8.55050737222773E-08,5.42514268799699E-08,1.82408329549947E-09,2.72284224703064E-08,5.7318556041046E-07,-1.05963548993685E-06,1.48288321217559E-08
-6.15912167909373,5.91532766687943,0.109540434027308,-3.51676904494547E-06,0.00682674482809,2.36309493044634,1.5645127578142E-08,1.16349287404221E-08,-4.92338909008334E-09,-2.96867911585693E-09,-1.92698865600739E-08,8.55050737222773E-08,5.42514268799699E-08,1.82408329549947E-09,0.013358167372644,-0.007871001027524,0.007871001027524,0.019999999996799,-6.15912167915304,5.91532766717387,0.109540434221782,-3.51590720163645E-06,0.006826745923378,2.36309493041644,-2.18843006580131E-08,-3.93768900750413E-10,2.69979426558161E-08,1.53044405421309E-08,1.56477400582286E-08,-1.0584542643129E-07,-7.99534781827799E-09,1.33475990084177E-09,4.30921654579877E-08,9.13655983045639E-07,1.74588133119459E-06,-2.44661697368014E-08
-6.15912167915304,5.91532766717387,0.109540434221782,-3.51590720163645E-06,0.006826745923378,2.36309493041644,-2.18843006580131E-08,-3.93768900750413E-10,2.69979426558161E-08,1.53044405421309E-08,1.56477400582286E-08,-1.0584542643129E-07,-7.99534781827799E-09,1.33475990084177E-09,0.013358167372644,-0.007871001027524,0.007871001027524,0.025000000001455,-6.15912167960053,5.91532766734622,0.109540434770116,-3.51688487873588E-06,0.006826747952154,2.36309493037078,-6.82956622283848E-09,2.25886550119533E-08,2.07431908117763E-08,2.07244350081196E-08,-1.12866338487348E-08,-2.79061122724556E-08,1.08694276392269E-07,1.87872970850508E-09,-3.91070839745896E-08,2.16799778626931E-07,-1.07737495621583E-06,2.17587923052658E-08
-6.15912167960053,5.91532766734622,0.109540434770116,-3.51688487873588E-06,0.006826747952154,2.36309493037078,-6.82956622283848E-09,2.25886550119533E-08,2.07431908117763E-08,2.07244350081196E-08,-1.12866338487348E-08,-2.79061122724556E-08,1.08694276392269E-07,1.87872970850508E-09,0.013358167372644,-0.007871001027524,0.007871001027524,0.029999999998836,-6.15912167940125,5.91532766755944,0.109540434763606,-3.51539036670059E-06,0.006826747754546,2.36309493032806,1.32220046384017E-08,1.13362988580873E-08,-2.30629087696149E-09,-1.45319115759654E-09,-1.73557285619841E-08,7.31356394683657E-08,5.25391302347153E-08,1.88460630626896E-09,4.98170678447017E-08,-7.39254205552559E-07,-2.02303157116162E-07,1.95886592136807E-10
-6.15912167940125,5.91532766755944,0.109540434763606,-3.51539036670059E-06,0.006826747754546,2.36309493032806,1.32220046384017E-08,1.13362988580873E-08,-2.30629087696149E-09,-1.45319115759654E-09,-1.73557285619841E-08,7.31356394683657E-08,5.25391302347153E-08,1.88460630626896E-09,0.013358167372644,-0.007871001027524,0.007871001027524,0.020000000004075,-6.15912167914811,5.9153276676153,0.109540434540706,-3.51427636005719E-06,0.006826746885484,2.36309493029999,1.79955451188456E-08,3.90961013171895E-09,-1.15536949263058E-08,-1.00669050425431E-08,-1.5420185419471E-08,9.71593899651318E-08,1.51162177523945E-08,1.77923759159741E-09,5.57003321585647E-08,-4.30685694159588E-07,9.67771571059412E-08,-5.26843573250376E-09
-6.15912167914811,5.9153276676153,0.109540434540706,-3.51427636005719E-06,0.006826746885484,2.36309493029999,1.79955451188456E-08,3.90961013171895E-09,-1.15536949263058E-08,-1.00669050425431E-08,-1.5420185419471E-08,9.71593899651318E-08,1.51162177523945E-08,1.77923759159741E-09,0.013358167372644,-0.007871001027524,0.007871001027524,0.025000000001455,-6.15912167931187,5.91532766741966,0.109540434348835,-3.51557685761439E-06,0.006826746607036,2.3630949302533,-2.02677982057547E-08,-1.99773705376234E-08,-4.69065505437947E-09,4.01727107926898E-10,2.84555371243885E-08,-9.92140321937962E-08,-1.06737406964025E-07,1.34431445547319E-09,-5.20199022848439E-08,4.18745285994427E-07,1.75502890165222E-06,-1.73969254439561E-08
-6.15912167931187,5.91532766741966,0.109540434348835,-3.51557685761439E-06,0.006826746607036,2.3630949302533,-2.02677982057547E-08,-1.99773705376234E-08,-4.69065505437947E-09,4.01727107926898E-10,2.84555371243885E-08,-9.92140321937962E-08,-1.06737406964025E-07,1.34431445547319E-09,0.013358167372644,-0.007871001027524,0.007871001027524,0.034999999996217,-6.15912167956602,5.91532766753283,0.109540434476112,-3.51607591303521E-06,0.006826747664155,2.36309493019354,5.31795303718325E-09,8.82486426683862E-09,2.52210841054424E-09,2.41069449498786E-09,-1.00173552340749E-08,3.32794950032886E-08,3.92706814691455E-08,1.84902263916085E-09,-1.42587263106311E-08,5.73990682079466E-08,-1.09922549607492E-06,1.44202338212062E-08
-6.15912167956602,5.91532766753283,0.109540434476112,-3.51607591303521E-06,0.006826747664155,2.36309493019354,5.31795303718325E-09,8.82486426683862E-09,2.52210841054424E-09,2.41069449498786E-09,-1.00173552340749E-08,3.32794950032886E-08,3.92706814691455E-08,1.84902263916085E-09,0.013358167372644,-0.007871001027524,0.007871001027524,0.025000000001455,-6.15912167962907,5.91532766769192,0.10954043455972,-3.51572099479365E-06,0.006826748260559,2.36309493015349,-2.18739849550271E-09,1.52398658516551E-08,8.5183053844693E-09,1.22589563900234E-08,-9.31430145432688E-09,-4.62608619893252E-09,7.17291187316392E-08,1.78283754524594E-09,1.41967296616416E-08,3.93930475778492E-07,2.8122151188282E-08,-2.64740375644251E-09
-6.15912167962907,5.91532766769192,0.10954043455972,-3.51572099479365E-06,0.006826748260559,2.36309493015349,-2.18739849550271E-09,1.52398658516551E-08,8.5183053844693E-09,1.22589563900234E-08,-9.31430145432688E-09,-4.62608619893252E-09,7.17291187316392E-08,1.78283754524594E-09,0.013358167372644,-0.007871001027524,0.007871001027524,0.019999999996799,-6.15912167990328,5.91532766787071,0.109540434898614,-3.51605320593428E-06,0.006826749726597,2.36309493011877,6.4917350439269E-09,1.90578485400523E-08,1.51011022102163E-08,8.76070820203492E-09,-1.81271676401726E-08,3.94276519175019E-08,9.13021316166275E-08,1.90675682985026E-09,-1.66105570345082E-08,-1.74912409427422E-07,-4.40643309362819E-07,6.1959642312078E-09
-6.15912167990328,5.91532766787071,0.109540434898614,-3.51605320593428E-06,0.006826749726597,2.36309493011877,6.4917350439269E-09,1.90578485400523E-08,1.51011022102163E-08,8.76070820203492E-09,-1.81271676401726E-08,3.94276519175019E-08,9.13021316166275E-08,1.90675682985026E-09,0.013358167372644,-0.007871001027524,0.007871001027524,0.040000000000873,-6.15912168050522,5.91532766837642,0.109540435733445,-3.51636924513679E-06,0.006826753368346,2.36309493005013,-3.80250677226564E-08,-1.00792903584236E-09,2.59558912876228E-08,2.63649006671164E-08,2.74192215255463E-08,-1.88521236208871E-07,-1.11612623858576E-08,1.3287353234024E-09,-7.90098006237597E-09,4.40104811617431E-07,1.13865972911812E-06,-1.44505376608811E-08
-6.15912168050522,5.91532766837642,0.109540435733445,-3.51636924513679E-06,0.006826753368346,2.36309493005013,-3.80250677226564E-08,-1.00792903584236E-09,2.59558912876228E-08,2.63649006671164E-08,2.74192215255463E-08,-1.88521236208871E-07,-1.11612623858576E-08,1.3287353234024E-09,0.013358167372644,-0.007871001027524,0.007871001027524,0.020000000004075,-6.1591216807665,5.91532766866585,0.109540436163853,-3.51625124071908E-06,0.006826755172975,2.363094930017,4.83227036281339E-09,2.12196640861137E-08,1.49983942685974E-08,1.14602459098765E-08,-1.85010200927405E-08,3.10149405869151E-08,1.02285422484291E-07,1.90915836995989E-09,5.90022088425294E-09,-7.45232737710173E-07,-2.29601208044658E-06,2.90211523219624E-08
-6.1591216807665,5.91532766866585,0.109540436163853,-3.51625124071908E-06,0.006826755172975,2.363094930017,4.83227036281339E-09,2.12196640861137E-08,1.49983942685974E-08,1.14602459098765E-08,-1.85010200927405E-08,3.10149405869151E-08,1.02285422484291E-07,1.90915836995989E-09,0.013358167372644,-0.007871001027524,0.007871001027524,0.029999999998836,-6.15912168129107,5.91532766894192,0.109540436649255,-3.51712694783348E-06,0.006826757810714,2.36309492996301,5.71327994291334E-09,2.21550309008449E-08,1.15320192310182E-08,1.14898187032491E-08,-1.97856268055868E-08,3.55139681294985E-08,1.07227948052598E-07,1.84180567079743E-09,-2.91902371478484E-08,9.85759779125456E-10,-4.28202237632061E-08,-2.24508997216898E-09
-6.15912168129107,5.91532766894192,0.109540436649255,-3.51712694783348E-06,0.006826757810714,2.36309492996301,5.71327994291334E-09,2.21550309008449E-08,1.15320192310182E-08,1.14898187032491E-08,-1.97856268055868E-08,3.55139681294985E-08,1.07227948052598E-07,1.84180567079743E-09,0.013358167372644,-0.007871001027524,0.007871001027524,0.040000000000873,-6.15912168120348,5.91532766879142,0.109540436143762,-3.51735894159594E-06,0.006826756673492,2.36309492989664,2.71190262608617E-08,1.68081662024867E-09,-2.05948085468985E-08,-1.8127625624236E-08,-2.02399584751489E-08,1.43411044167334E-07,4.14655648916362E-09,1.80904541698711E-09,-5.79984406144791E-09,-7.40436108170965E-07,-1.13582917388035E-08,-8.19006345240363E-10
-6.15912168120348,5.91532766879142,0.109540436143762,-3.51735894159594E-06,0.006826756673492,2.36309492989664,2.71190262608617E-08,1.68081662024867E-09,-2.05948085468985E-08,-1.8127625624236E-08,-2.02399584751489E-08,1.43411044167334E-07,4.14655648916362E-09,1.80904541698711E-09,0.013358167372644,-0.007871001027524,0.007871001027524,0.024999999994179,-6.15912168097646,5.91532766852313,0.109540435452685,-3.51751972159388E-06,0.006826754729469,2.36309492985559,1.00784624605868E-08,6.79327765573287E-09,-1.91565625025731E-08,-2.40524358034354E-09,-1.19138083834076E-08,5.70529689955014E-08,2.96074789425625E-08,1.78195544698321E-09,-6.43119991906598E-09,6.28895281902124E-07,3.33046003747195E-07,-1.08359880040795E-09
-6.15912168097646,5.91532766852313,0.109540435452685,-3.51751972159388E-06,0.006826754729469,2.36309492985559,1.00784624605868E-08,6.79327765573287E-09,-1.91565625025731E-08,-2.40524358034354E-09,-1.19138083834076E-08,5.70529689955014E-08,2.96074789425625E-08,1.78195544698321E-09,0.013358167372644,-0.007871001027524,0.007871001027524,0.015000000006694,-6.15912168089175,5.91532766861401,0.109540435265375,-3.51688358890122E-06,0.006826754636975,2.3630949298338,2.47942305888515E-08,2.95904240570162E-09,-7.8065708081963E-09,-1.55748588358107E-08,-1.95175196860783E-08,1.31899485805566E-07,1.03043099145989E-08,1.80622623964041E-09,4.24088461587016E-08,-8.77974349972672E-07,-5.06914086618495E-07,1.61805284309126E-09
-6.15912168089175,5.91532766861401,0.109540435265375,-3.51688358890122E-06,0.006826754636975,2.3630949298338,2.47942305888515E-08,2.95904240570162E-09,-7.8065708081963E-09,-1.55748588358107E-08,-1.95175196860783E-08,1.31899485805566E-07,1.03043099145989E-08,1.80622623964041E-09,0.013358167372644,-0.007871001027524,0.007871001027524,0.034999999996217,-6.1591216806573,5.91532766828049,0.109540434589794,-3.51725493056374E-06,0.006826752359665,2.36309492977589,9.15648146319287E-09,-2.7558379337406E-08,-3.02285833460008E-08,-2.58709204126607E-08,1.31909401291924E-08,5.03681011755641E-08,-1.44431417890919E-07,1.36284765864612E-09,-1.0609761787508E-08,-2.941731879418E-07,9.3452742339447E-07,-1.26679594583493E-08
-6.1591216806573,5.91532766828049,0.109540434589794,-3.51725493056374E-06,0.006826752359665,2.36309492977589,9.15648146319287E-09,-2.7558379337406E-08,-3.02285833460008E-08,-2.58709204126607E-08,1.31909401291924E-08,5.03681011755641E-08,-1.44431417890919E-07,1.36284765864612E-09,0.013358167372644,-0.007871001027524,0.007871001027524,0.025000000001455,-6.15912168041592,5.91532766821076,0.10954043404227,-3.51664055035029E-06,0.006826751062752,2.36309492973762,2.40276209087613E-09,1.27297371841763E-08,-1.78894732076299E-09,7.22826412753813E-09,-1.07504266029818E-08,1.84705341432656E-08,5.92809004764674E-08,1.78481941012732E-09,2.45752085364122E-08,1.32396738153089E-06,-9.57654669231225E-07,1.68788700582655E-08
-6.15912168041592,5.91532766821076,0.10954043404227,-3.51664055035029E-06,0.006826751062752,2.36309492973762,2.40276209087613E-09,1.27297371841763E-08,-1.78894732076299E-09,7.22826412753813E-09,-1.07504266029818E-08,1.84705341432656E-08,5.92809004764674E-08,1.78481941012732E-09,0.013358167372644,-0.007871001027524,0.007871001027524,0.029999999998836,-6.15912168085842,5.91532766858721,0.109540434692462,-3.51685682556837E-06,0.0068267537533,2.36309492968582,-3.39579381611603E-09,3.09187640633825E-08,3.22922408121903E-08,2.41291858209187E-08,-1.9628646883274E-08,-1.03064389871883E-08,1.51106393764103E-07,1.93358210847523E-09,-7.20917393620694E-09,5.63364056467881E-07,-2.95940676021225E-07,4.95875661178947E-09
-6.15912168085842,5.91532766858721,0.109540434692462,-3.51685682556837E-06,0.0068267537533,2.36309492968582,-3.39579381611603E-09,3.09187640633825E-08,3.22922408121903E-08,2.41291858209187E-08,-1.9628646883274E-08,-1.03064389871883E-08,1.51106393764103E-07,1.93358210847523E-09,0.013358167372644,-0.007871001027524,0.007871001027524,0.019999999996799,-6.15912168104131,5.91532766887834,0.109540435164149,-3.51645148916345E-06,0.006826755280954,2.36309492965455,-3.77259973889524E-08,-9.02674109691675E-10,2.20509798234271E-08,2.62258829023211E-08,2.71342728948702E-08,-1.87097696615476E-07,-1.0517361170694E-08,1.33003845256359E-09,2.02668202490844E-08,1.04834854086901E-07,2.33814598928148E-06,-3.01771828004124E-08
-6.15912168104131,5.91532766887834,0.109540435164149,-3.51645148916345E-06,0.006826755280954,2.36309492965455,-3.77259973889524E-08,-9.02674109691675E-10,2.20509798234271E-08,2.62258829023211E-08,2.71342728948702E-08,-1.87097696615476E-07,-1.0517361170694E-08,1.33003845256359E-09,0.013358167372644,-0.007871001027524,0.007871001027524,0.020000000004075,-6.15912168136317,5.91532766915533,0.109540435655544,-3.51659692335945E-06,0.006826757264172,2.3630949296206,3.88020915054219E-09,2.27616908726746E-08,2.33299263969415E-08,1.32209118424894E-08,-1.89303482400159E-08,2.64707532521921E-08,1.0999855245586E-07,1.83783807731102E-09,-7.27170979843921E-09,-6.50248552859113E-07,-2.30323105627507E-06,2.53899812321988E-08
-6.15912168136317,5.91532766915533,0.109540435655544,-3.51659692335945E-06,0.006826757264172,2.3630949296206,3.88020915054219E-09,2.27616908726746E-08,2.33299263969415E-08,1.32209118424894E-08,-1.89303482400159E-08,2.64707532521921E-08,1.0999855245586E-07,1.83783807731102E-09,0.013358167372644,-0.007871001027524,0.007871001027524,0.019999999996799,-6.15912168166444,5.9153276692406,0.109540435911196,-3.51736714432126E-06,0.006826758499408,2.36309492958376,-1.82230966909817E-08,-4.59237205804815E-10,7.29978693373116E-09,1.26518033273306E-08,1.31234151190386E-08,-8.7712291873058E-08,-7.84692437596128E-09,1.40709153660692E-09,-3.85110480967369E-08,-2.8455425762495E-08,1.60268816820927E-06,-2.15373270386522E-08
-6.15912168166444,5.9153276692406,0.109540435911196,-3.51736714432126E-06,0.006826758499408,2.36309492958376,-1.82230966909817E-08,-4.59237205804815E-10,7.29978693373116E-09,1.26518033273306E-08,1.31234151190386E-08,-8.7712291873058E-08,-7.84692437596128E-09,1.40709153660692E-09,0.013358167372644,-0.007871001027524,0.007871001027524,0.035000000003493,-6.15912168163789,5.9153276691149,0.109540435635101,-3.51772845248285E-06,0.006826757704939,2.36309492952571,2.01402215956509E-08,-2.72156136235317E-09,-3.03916892923926E-08,-1.62503279079591E-08,-1.22050098342764E-08,1.07797257444452E-07,-1.84629009229613E-08,1.84371910442785E-09,-1.032309032992E-08,-8.25775178068734E-07,-7.23669284308217E-07,1.24750733650674E-08
-6.15912168163789,5.9153276691149,0.109540435635101,-3.51772845248285E-06,0.006826757704939,2.36309492952571,2.01402215956509E-08,-2.72156136235317E-09,-3.03916892923926E-08,-1.62503279079591E-08,-1.22050098342764E-08,1.07797257444452E-07,-1.84629009229613E-08,1.84371910442785E-09,0.013358167372644,-0.007871001027524,0.007871001027524,0.025000000001455,-6.15912168111001,5.91532766873997,0.109540434661663,-3.51719706310172E-06,0.006826754302055,2.36309492948852,2.04365293556625E-08,-4.29535583598441E-09,-4.46828250719041E-08,-1.75664251436839E-08,-1.12925870168855E-08,1.08992815832628E-07,-2.60470796854497E-08,1.76070872227129E-09,2.12555752436819E-08,-5.26438894259292E-08,3.64969126935104E-08,-3.32041528606906E-09
-6.15912168111001,5.91532766873997,0.109540434661663,-3.51719706310172E-06,0.006826754302055,2.36309492948852,2.04365293556625E-08,-4.29535583598441E-09,-4.46828250719041E-08,-1.75664251436839E-08,-1.12925870168855E-08,1.08992815832628E-07,-2.60470796854497E-08,1.76070872227129E-09,0.013358167372644,-0.007871001027524,0.007871001027524,0.019999999996799,-6.15912168062986,5.91532766837072,0.109540433738101,-3.51681788428002E-06,0.006826751131338,2.36309492945839,6.03986684768765E-09,-4.32415337680255E-08,-4.47041886930057E-08,-3.46648645053597E-08,2.65453838355021E-08,3.34748407646187E-08,-2.23691175993769E-07,1.26467564668407E-09,1.89589410882245E-08,-8.54921968220638E-07,1.89189854292222E-06,-2.48016537833314E-08
-6.15912168062986,5.91532766837072,0.109540433738101,-3.51681788428002E-06,0.006826751131338,2.36309492945839,6.03986684768765E-09,-4.32415337680255E-08,-4.47041886930057E-08,-3.46648645053597E-08,2.65453838355021E-08,3.34748407646187E-08,-2.23691175993769E-07,1.26467564668407E-09,0.013358167372644,-0.007871001027524,0.007871001027524,0.025000000001455,-6.1591216803853,5.91532766806914,0.10954043303462,-3.51703710118992E-06,0.006826749007311,2.36309492941678,2.43993305926133E-08,3.5199678575634E-09,-1.50382872296432E-08,-1.48998143522158E-08,-1.96395783904701E-08,1.29718565879819E-07,1.33300152774566E-08,1.81139904365941E-09,-8.76867639538783E-09,7.90602006079737E-07,-1.84739848893135E-06,2.18689358777407E-08
-6.1591216803853,5.91532766806914,0.10954043303462,-3.51703710118992E-06,0.006826749007311,2.36309492941678,2.43993305926133E-08,3.5199678575634E-09,-1.50382872296432E-08,-1.48998143522158E-08,-1.96395783904701E-08,1.29718565879819E-07,1.33300152774566E-08,1.81139904365941E-09,0.013358167372644,-0.007871001027524,0.007871001027524,0.019999999996799,-6.15912168030614,5.91532766798356,0.109540432772244,-3.51706429071071E-06,0.006826748276059,2.36309492938385,4.23855033841245E-09,1.1375248705715E-08,-4.75640270388358E-09,4.97010312193403E-09,-1.10751824836193E-08,2.77283398891299E-08,5.24886200181555E-08,1.78805790761143E-09,-1.35947603971779E-09,9.93495873866522E-07,4.28219795411083E-07,-1.16705680258556E-09
-6.15912168030614,5.91532766798356,0.109540432772244,-3.51706429071071E-06,0.006826748276059,2.36309492938385,4.23855033841245E-09,1.1375248705715E-08,-4.75640270388358E-09,4.97010312193403E-09,-1.10751824836193E-08,2.77283398891299E-08,5.24886200181555E-08,1.78805790761143E-09,0.013358167372644,-0.007871001027524,0.007871001027524,0.040000000000873,-6.15912167989851,5.91532766807592,0.109540432622025,-3.51526161064801E-06,0.006826746823364,2.36309492932695,5.88672498015843E-09,-2.8689011000481E-08,-2.40537371772366E-08,-2.43368959125735E-08,1.62919728860045E-08,3.3809904577688E-08,-1.5038022878857E-07,1.33879269615103E-09,4.50670015664113E-08,-7.32674975846695E-07,6.84178884225661E-07,-1.12316302862649E-08
-6.15912167989851,5.91532766807592,0.109540432622025,-3.51526161064801E-06,0.006826746823364,2.36309492932695,5.88672498015843E-09,-2.8689011000481E-08,-2.40537371772366E-08,-2.43368959125735E-08,1.62919728860045E-08,3.3809904577688E-08,-1.5038022878857E-07,1.33879269615103E-09,0.013358167372644,-0.007871001027524,0.007871001027524,0.029999999998836,-6.15912168003365,5.91532766776809,0.109540432303265,-3.51686801391911E-06,0.006826746007296,2.36309492926994,5.11305153208175E-09,2.22283003569948E-08,1.13368731129914E-08,1.19686134829784E-08,-1.94163056224805E-08,3.24325451348984E-08,1.07614136267318E-07,1.8450267626769E-09,-5.35467757054197E-08,1.21018364656536E-06,-1.19027595032902E-06,1.68744688848506E-08
-6.15912168003365,5.91532766776809,0.109540432303265,-3.51686801391911E-06,0.006826746007296,2.36309492926994,5.11305153208175E-09,2.22283003569948E-08,1.13368731129914E-08,1.19686134829784E-08,-1.94163056224805E-08,3.24325451348984E-08,1.07614136267318E-07,1.8450267626769E-09,0.013358167372644,-0.007871001027524,0.007871001027524,0.035000000003493,-6.15912168031742,5.91532766785854,0.109540432776039,-3.51755688677695E-06,0.006826747083431,2.36309492920989,2.92170685473883E-09,1.35862338588613E-08,1.45654310084798E-08,7.46023249265131E-09,-1.17246344321811E-08,2.14619411914046E-08,6.31819225571465E-08,1.8737454154627E-09,-1.96820816505092E-08,-1.28810885425064E-07,2.19762033986624E-07,8.2053293665522E-10
-6.15912168031742,5.91532766785854,0.109540432776039,-3.51755688677695E-06,0.006826747083431,2.36309492920989,2.92170685473883E-09,1.35862338588613E-08,1.45654310084798E-08,7.46023249265131E-09,-1.17246344321811E-08,2.14619411914046E-08,6.31819225571465E-08,1.8737454154627E-09,0.013358167372644,-0.007871001027524,0.007871001027524,0.025000000001455,-6.15912168023072,5.91532766809262,0.109540433140006,-3.5163915664603E-06,0.006826747396177,2.36309492917379,1.39228138722851E-08,1.27688430211067E-08,7.03275714129513E-09,-9.46198015024853E-10,-1.88677716632442E-08,7.69586295796065E-08,5.96279604139916E-08,1.90530612046207E-09,4.66128126632952E-08,-3.36257220287474E-07,-2.85725489225892E-07,1.26242819990122E-09
-6.15912168023072,5.91532766809262,0.109540433140006,-3.5163915664603E-06,0.006826747396177,2.36309492917379,1.39228138722851E-08,1.27688430211067E-08,7.03275714129513E-09,-9.46198015024853E-10,-1.88677716632442E-08,7.69586295796065E-08,5.96279604139916E-08,1.90530612046207E-09,0.013358167372644,-0.007871001027524,0.007871001027524,0.034999999996217,-6.15912168011817,5.9153276683094,0.10954043332292,-3.51519531226547E-06,0.006826747480942,2.36309492912126,1.94633112068027E-08,4.65809955969898E-09,-1.09670957594921E-08,-1.05863121135802E-08,-1.69837678527112E-08,1.04589032813613E-07,1.88662612179325E-08,1.87594544085566E-09,3.41786912843981E-08,-2.7543183141707E-07,5.38286803067624E-08,-8.3887656027382E-10
-6.15912168011817,5.9153276683094,0.10954043332292,-3.51519531226547E-06,0.006826747480942,2.36309492912126,1.94633112068027E-08,4.65809955969898E-09,-1.09670957594921E-08,-1.05863121135802E-08,-1.69837678527112E-08,1.04589032813613E-07,1.88662612179325E-08,1.87594544085566E-09,0.013358167372644,-0.007871001027524,0.007871001027524,0.035000000003493,-6.15912167995122,5.91532766812389,0.109540432927256,-3.51526998084236E-06,0.006826745962781,2.36309492906362,-1.74113307582299E-08,-6.32120844165853E-09,5.06703251467662E-10,7.95751237257329E-09,1.67269277446792E-08,-8.38797841788143E-08,-3.75076265959665E-08,1.37549204413337E-09,-2.13338791079136E-09,5.29823556694374E-07,9.63162731257903E-07,-1.42986684763531E-08
-6.15912167995122,5.91532766812389,0.109540432927256,-3.51526998084236E-06,0.006826745962781,2.36309492906362,-1.74113307582299E-08,-6.32120844165853E-09,5.06703251467662E-10,7.95751237257329E-09,1.67269277446792E-08,-8.38797841788143E-08,-3.75076265959665E-08,1.37549204413337E-09,0.013358167372644,-0.007871001027524,0.007871001027524,0.019999999996799,-6.15912167986424,5.91532766822184,0.109540433011724,-3.51459939890904E-06,0.006826745836984,2.36309492903329,6.70016431579497E-09,4.66783343843182E-09,6.51732037962613E-09,-1.49250869786423E-09,-8.02828055404108E-09,4.0394564052073E-08,1.81181698755806E-08,1.75607041158286E-09,3.35290966715121E-08,-4.7250105359751E-07,-1.23776041513414E-06,1.90289183755207E-08
-6.15912167986424,5.91532766822184,0.109540433011724,-3.51459939890904E-06,0.006826745836984,2.36309492903329,6.70016431579497E-09,4.66783343843182E-09,6.51732037962613E-09,-1.49250869786423E-09,-8.02828055404108E-09,4.0394564052073E-08,1.81181698755806E-08,1.75607041158286E-09,0.013358167372644,-0.007871001027524,0.007871001027524,0.044999999998254,-6.159121680146,5.91532766835086,0.10954043335208,-3.51513977843689E-06,0.006826746965269,2.36309492895587,1.33827874735437E-08,9.99967605619352E-09,1.27093522954393E-08,-2.506254319732E-09,-1.6516997641087E-08,7.43727468395407E-08,4.54540907902554E-08,1.8041351171673E-09,-1.20084339526705E-08,-2.25276804868246E-08,-1.88638157497229E-07,1.06810456858445E-09
-6.159121680146,5.91532766835086,0.10954043335208,-3.51513977843689E-06,0.006826746965269,2.36309492895587,1.33827874735437E-08,9.99967605619352E-09,1.27093522954393E-08,-2.506254319732E-09,-1.6516997641087E-08,7.43727468395407E-08,4.54540907902554E-08,1.8041351171673E-09,0.013358167372644,-0.007871001027524,0.007871001027524,0.025000000001455,-6.15912168035147,5.91532766816211,0.109540433503465,-3.51656472281354E-06,0.006826746849524,2.36309492890863,-1.36651104042388E-09,1.59522713322147E-08,7.63609363607673E-09,1.21747684791391E-08,-1.03979481417999E-08,-5.20257548764455E-10,7.53187767319721E-08,1.86787334298198E-09,-5.69977750628725E-08,5.87240911920661E-07,2.44761979957234E-07,2.54952903243914E-09
-6.15912168035147,5.91532766816211,0.109540433503465,-3.51656472281354E-06,0.006826746849524,2.36309492890863,-1.36651104042388E-09,1.59522713322147E-08,7.63609363607673E-09,1.21747684791391E-08,-1.03979481417999E-08,-5.20257548764455E-10,7.53187767319721E-08,1.86787334298198E-09,0.013358167372644,-0.007871001027524,0.007871001027524,0.020000000004075,-6.15912168038745,5.915327668266,0.109540433725775,-3.51631430413921E-06,0.00682674718742,2.3630949288768,-1.18438974489664E-08,-9.37282581111017E-09,1.21926804658895E-08,1.85079284519962E-09,1.49900745932502E-08,-5.52107210867749E-08,-5.31810858844134E-08,1.33145378586555E-09,1.25209337136883E-08,-5.1619878159181E-07,1.26940113649389E-06,-2.68209778503577E-08
-6.15912168038745,5.915327668266,0.109540433725775,-3.51631430413921E-06,0.00682674718742,2.3630949288768,-1.18438974489664E-08,-9.37282581111017E-09,1.21926804658895E-08,1.85079284519962E-09,1.49900745932502E-08,-5.52107210867749E-08,-5.31810858844134E-08,1.33145378586555E-09,0.013358167372644,-0.007871001027524,0.007871001027524,0.019999999996799,-6.15912168035592,5.91532766839822,0.109540433826194,-3.51571812242426E-06,0.006826747383635,2.36309492884592,1.77405579217775E-08,7.11734428921598E-09,4.51175245975593E-09,-7.63285692558099E-09,-1.75249388090455E-08,9.63240012147327E-08,3.10552090574151E-08,1.80574987856435E-09,2.98090857524238E-08,-4.74182488614933E-07,-1.62575067037502E-06,2.37148046387362E-08
-6.15912168035592,5.91532766839822,0.109540433826194,-3.51571812242426E-06,0.006826747383635,2.36309492884592,1.77405579217775E-08,7.11734428921598E-09,4.51175245975593E-09,-7.63285692558099E-09,-1.75249388090455E-08,9.63240012147327E-08,3.10552090574151E-08,1.80574987856435E-09,0.013358167372644,-0.007871001027524,0.007871001027524,0.025000000001455,-6.15912168024068,5.91532766814173,0.109540433580523,-3.51623824204524E-06,0.006826745872879,2.36309492880235,2.77662923692397E-08,-1.10418879949364E-09,-2.55594652678858E-08,-2.05441196040846E-08,-1.87116374091658E-08,1.46434066963162E-07,-9.97193881339696E-09,1.8794541024209E-09,-2.08047848378974E-08,-5.16450507110084E-07,-4.74679440020492E-08,2.94816895409062E-09
-6.15912168024068,5.91532766814173,0.109540433580523,-3.51623824204524E-06,0.006826745872879,2.36309492880235,2.77662923692397E-08,-1.10418879949364E-09,-2.55594652678858E-08,-2.05441196040846E-08,-1.87116374091658E-08,1.46434066963162E-07,-9.97193881339696E-09,1.8794541024209E-09,0.013358167372644,-0.007871001027524,0.007871001027524,0.029999999998836,-6.15912167981857,5.91532766804502,0.109540433046583,-3.51507321972687E-06,0.006826743785801,2.3630949287583,1.32502058192062E-08,-3.77285388941415E-10,-1.60227267078245E-08,-9.6986729743989E-09,-9.03581988818381E-09,7.30454575899018E-08,-6.97160506074399E-09,1.82643864605218E-09,3.88340772806229E-08,3.61514887670219E-07,3.22527250711915E-07,-1.76718187902619E-09
-6.15912167981857,5.91532766804502,0.109540433046583,-3.51507321972687E-06,0.006826743785801,2.3630949287583,1.32502058192062E-08,-3.77285388941415E-10,-1.60227267078245E-08,-9.6986729743989E-09,-9.03581988818381E-09,7.30454575899018E-08,-6.97160506074399E-09,1.82643864605218E-09,0.013358167372644,-0.007871001027524,0.007871001027524,0.019999999996799,-6.15912167982963,5.91532766801543,0.109540432949484,-3.51522048991262E-06,0.00682674357446,2.36309492872491,1.72901518870567E-08,6.84092826848365E-09,-4.95913970822434E-09,-7.50628394500467E-09,-1.70118591926043E-08,9.37030245811099E-08,2.97970194806032E-08,1.88140779148644E-09,-7.36350928887152E-09,1.09619451487258E-07,-3.98801965284859E-07,2.74845727215306E-09
-6.15912167982963,5.91532766801543,0.109540432949484,-3.51522048991262E-06,0.00682674357446,2.36309492872491,1.72901518870567E-08,6.84092826848365E-09,-4.95913970822434E-09,-7.50628394500467E-09,-1.70118591926043E-08,9.37030245811099E-08,2.97970194806032E-08,1.88140779148644E-09,0.013358167372644,-0.007871001027524,0.007871001027524,0.025000000001455,-6.15912167982013,5.91532766795937,0.109540432960987,-3.51538929220346E-06,0.006826743146886,2.36309492868212,-5.02995409798742E-08,-6.78586842091065E-08,9.62498833502122E-09,-1.18393632570193E-08,8.36341695902197E-08,-2.52677139657267E-07,-3.51710112844012E-07,8.92348401603828E-10,-6.75209163306781E-09,-1.73323172470496E-07,4.02584115107863E-06,-3.95623755930015E-08
-6.15912167982013,5.91532766795937,0.109540432960987,-3.51538929220346E-06,0.006826743146886,2.36309492868212,-5.02995409798742E-08,-6.78586842091065E-08,9.62498833502122E-09,-1.18393632570193E-08,8.36341695902197E-08,-2.52677139657267E-07,-3.51710112844012E-07,8.92348401603828E-10,0.013358167372644,-0.007871001027524,0.007871001027524,0.04500000000553,-6.1591216799237,5.91532766769661,0.109540433057309,-3.51671629543569E-06,0.0068267422434,2.36309492860182,-7.03135990721843E-10,1.64582722610669E-08,5.71152821828638E-09,1.20577850779978E-08,-1.12240342592877E-08,2.80477108183732E-09,7.79767063382232E-08,1.8715379708227E-09,-2.94889607127367E-08,5.31047740712901E-07,-2.10796008528558E-06,2.175976820219E-08
-6.1591216799237,5.91532766769661,0.109540433057309,-3.51671629543569E-06,0.0068267422434,2.36309492860182,-7.03135990721843E-10,1.64582722610669E-08,5.71152821828638E-09,1.20577850779978E-08,-1.12240342592877E-08,2.80477108183732E-09,7.79767063382232E-08,1.8715379708227E-09,0.013358167372644,-0.007871001027524,0.007871001027524,0.029999999998836,-6.15912168006873,5.9153276679004,0.109540433441283,-3.51649251865037E-06,0.006826743249482,2.36309492855319,-5.43346427212456E-08,-6.14469371214777E-08,2.30236435274883E-08,-4.46409787359916E-09,8.19026941646682E-08,-2.72752920829186E-07,-3.19420325088286E-07,8.82256582585822E-10,7.45922617776761E-09,-5.5072943174127E-07,3.10422428091899E-06,-3.29760462758424E-08
-6.15912168006873,5.9153276679004,0.109540433441283,-3.51649251865037E-06,0.006826743249482,2.36309492855319,-5.43346427212456E-08,-6.14469371214777E-08,2.30236435274883E-08,-4.46409787359916E-09,8.19026941646682E-08,-2.72752920829186E-07,-3.19420325088286E-07,8.82256582585822E-10,0.013358167372644,-0.007871001027524,0.007871001027524,0.029999999998836,-6.15912167982539,5.91532766797362,0.109540433443664,-3.51534977801611E-06,0.006826742396592,2.36309492850937,8.45702616682087E-09,4.79495043839722E-09,-3.87736874270817E-09,-2.65407740618996E-09,-9.35247103256302E-09,4.90824831095656E-08,1.90667673181852E-08,1.76488487059302E-09,3.80913544767082E-08,6.03340155826481E-08,-3.04183884002575E-06,2.94209429347151E-08
-6.15912167982539,5.91532766797362,0.109540433443664,-3.51534977801611E-06,0.006826742396592,2.36309492850937,8.45702616682087E-09,4.79495043839722E-09,-3.87736874270817E-09,-2.65407740618996E-09,-9.35247103256302E-09,4.90824831095656E-08,1.90667673181852E-08,1.76488487059302E-09,0.013358167372644,-0.007871001027524,0.007871001027524,0.034999999996217,-6.15912167963251,5.91532766799069,0.10954043333361,-3.5145914184155E-06,0.006826741491012,2.36309492845612,1.56498614132303E-08,6.98849322832418E-09,4.73169422696104E-09,-6.23482587010854E-09,-1.59650914881523E-08,8.56554593444555E-08,3.0370798514489E-08,1.79207923489259E-09,2.16674171627667E-08,-1.02307098980162E-07,-1.88932013037259E-07,7.76981837214428E-10
-6.15912167963251,5.91532766799069,0.10954043333361,-3.5145914184155E-06,0.006826741491012,2.36309492845612,1.56498614132303E-08,6.98849322832418E-09,4.73169422696104E-09,-6.23482587010854E-09,-1.59650914881523E-08,8.56554593444555E-08,3.0370798514489E-08,1.79207923489259E-09,0.013358167372644,-0.007871001027524,0.007871001027524,0.025000000001455,-6.1591216798019,5.91532766823139,0.109540433713812,-3.51432041144526E-06,0.006826742751047,2.3630949284151,-6.35427835485608E-08,-5.75050573077349E-08,2.85349744902827E-08,4.85984521500511E-09,8.55622513819694E-08,-3.19467746129153E-07,-2.99655459797462E-07,8.57827921358809E-10,1.084027880894E-08,4.43786843378714E-07,4.06109371456848E-06,-3.7370052539176E-08
-6.1591216798019,5.91532766823139,0.109540433713812,-3.51432041144526E-06,0.006826742751047,2.3630949284151,-6.35427835485608E-08,-5.75050573077349E-08,2.85349744902827E-08,4.85984521500511E-09,8.55622513819694E-08,-3.19467746129153E-07,-2.99655459797462E-07,8.57827921358809E-10,0.013358167372644,-0.007871001027524,0.007871001027524,0.029999999998836,-6.15912167979804,5.91532766809204,0.109540433846541,-3.51481262195072E-06,0.006826742011909,2.3630949283643,5.22960308700415E-09,-2.92074184682992E-08,-2.38441728574111E-08,-2.42330765829755E-08,1.7122501025072E-08,3.05022409137077E-08,-1.52973596385696E-07,1.27653519671124E-09,-1.6407016849426E-08,-9.6976405997032E-07,-2.28132501198511E-06,1.39569091789559E-08
-6.15912167979804,5.91532766809204,0.109540433846541,-3.51481262195072E-06,0.006826742011909,2.3630949283643,5.22960308700415E-09,-2.92074184682992E-08,-2.38441728574111E-08,-2.42330765829755E-08,1.7122501025072E-08,3.05022409137077E-08,-1.52973596385696E-07,1.27653519671124E-09,0.013358167372644,-0.007871001027524,0.007871001027524,0.020000000004075,-6.15912167981944,5.91532766806164,0.109540433678832,-3.51499938154464E-06,0.006826741835749,2.36309492833018,7.46114201624486E-09,5.25794390309957E-09,-3.61288352937463E-09,-1.61991957194466E-09,-8.98278769954778E-09,4.39594517432371E-08,2.13149668134651E-08,1.83398119709392E-09,-9.33797969396892E-09,1.1306578503212E-06,-1.30526443596507E-06,2.78723000134556E-08
-6.15912167981944,5.91532766806164,0.109540433678832,-3.51499938154464E-06,0.006826741835749,2.36309492833018,7.46114201624486E-09,5.25794390309957E-09,-3.61288352937463E-09,-1.61991957194466E-09,-8.98278769954778E-09,4.39594517432371E-08,2.13149668134651E-08,1.83398119709392E-09,0.013358167372644,-0.007871001027524,0.007871001027524,0.019999999996799,-6.15912167967957,5.9153276681158,0.109540433628494,-3.51429822355583E-06,0.006826741367222,2.36309492830038,1.34651573848813E-09,1.01115548287605E-08,2.64613691287008E-10,6.14176356713098E-09,-8.14465382778722E-09,1.29803798934622E-08,4.58293651722769E-08,1.83541116234155E-09,3.50578994462533E-08,3.88084157015903E-07,4.19066935947365E-08,7.14982623931295E-11
-6.15912167967957,5.9153276681158,0.109540433628494,-3.51429822355583E-06,0.006826741367222,2.36309492830038,1.34651573848813E-09,1.01115548287605E-08,2.64613691287008E-10,6.14176356713098E-09,-8.14465382778722E-09,1.29803798934622E-08,4.58293651722769E-08,1.83541116234155E-09,0.013358167372644,-0.007871001027524,0.007871001027524,0.020000000004075,-6.1591216797574,5.91532766821061,0.109540433728833,-3.51423178770033E-06,0.006826741832011,2.36309492826731,-2.59128732374625E-08,-1.76610906333648E-08,4.79239059991697E-09,6.04736330281021E-09,3.07704487920562E-08,-1.27669718426001E-07,-9.52031018285285E-08,1.27707968647281E-09,3.32179277404828E-09,-4.72001321507705E-09,1.94575513059577E-06,-2.79165737877499E-08
-6.1591216797574,5.91532766821061,0.109540433728833,-3.51423178770033E-06,0.006826741832011,2.36309492826731,-2.59128732374625E-08,-1.76610906333648E-08,4.79239059991697E-09,6.04736330281021E-09,3.07704487920562E-08,-1.27669718426001E-07,-9.52031018285285E-08,1.27707968647281E-09,0.013358167372644,-0.007871001027524,0.007871001027524,0.019999999996799,-6.15912167989858,5.91532766830867,0.109540433946043,-3.51438018649201E-06,0.006826742532598,2.36309492823356,7.61840121628753E-09,1.41068104651881E-08,1.06588323171159E-08,4.48188495325628E-09,-1.53933377101539E-08,4.50182131058361E-08,6.63162957236981E-08,1.80190732316768E-09,-7.41993958531491E-09,-7.82739174902258E-08,-2.30818932547998E-06,2.6241381838944E-08
-6.15912167989858,5.91532766830867,0.109540433946043,-3.51438018649201E-06,0.006826742532598,2.36309492823356,7.61840121628753E-09,1.41068104651881E-08,1.06588323171159E-08,4.48188495325628E-09,-1.53933377101539E-08,4.50182131058361E-08,6.63162957236981E-08,1.80190732316768E-09,0.013358167372644,-0.007871001027524,0.007871001027524,0.025000000001455,-6.15912167990389,5.9153276683101,0.109540434016949,-3.51439266698399E-06,0.006826742362593,2.3630949281921,-1.18321681010749E-08,-1.33584551457637E-08,-2.35320978258195E-09,-9.56309420679926E-10,1.78194836666328E-08,-5.56634269675756E-08,-7.31599868272362E-08,1.352674509562E-09,-4.99219679221125E-10,-2.17527774944786E-07,1.32851285499414E-06,-1.79693125431811E-08
-6.15912167990389,5.9153276683101,0.109540434016949,-3.51439266698399E-06,0.006826742362593,2.3630949281921,-1.18321681010749E-08,-1.33584551457637E-08,-2.35320978258195E-09,-9.56309420679926E-10,1.78194836666328E-08,-5.56634269675756E-08,-7.31599868272362E-08,1.352674509562E-09,0.013358167372644,-0.007871001027524,0.007871001027524,0.029999999998836,-6.15912168002034,5.91532766818306,0.109540434042297,-3.51527173864063E-06,0.006826742102824,2.36309492813874,-2.11304079533779E-08,-2.00335839562233E-08,-1.12088793013406E-08,9.76405005843227E-10,2.91012930927784E-08,-1.03731110606566E-07,-1.06812149517621E-07,1.28731356532292E-09,-2.93023885556666E-08,6.44238142199384E-08,3.76060314219444E-07,-2.17869814138708E-09
-6.15912168002034,5.91532766818306,0.109540434042297,-3.51527173864063E-06,0.006826742102824,2.36309492813874,-2.11304079533779E-08,-2.00335839562233E-08,-1.12088793013406E-08,9.76405005843227E-10,2.91012930927784E-08,-1.03731110606566E-07,-1.06812149517621E-07,1.28731356532292E-09,0.010460450313985,-0.006977024488151,0.006977024488151,0.035000000003493,-6.15912230464534,5.91532829256019,0.109540442834005,-3.51643908278734E-06,0.006829602663312,2.36309489862901,-1.45943976162146E-05,1.42664072578315E-05,9.34290160440331E-07,2.04087853357998E-05,9.10985385195745E-08,-7.40670387089458E-05,7.23475202157287E-05,2.76293248857929E-08,-3.33526899026515E-08,0.000583080255107,1.77134986916028E-06,7.5262889479547E-07
-6.15912230464534,5.91532829256019,0.109540442834005,-3.51643908278734E-06,0.006829602663312,2.36309489862901,-1.45943976162146E-05,1.42664072578315E-05,9.34290160440331E-07,2.04087853357998E-05,9.10985385195745E-08,-7.40670387089458E-05,7.23475202157287E-05,2.76293248857929E-08,0.010460450313985,-0.007655213586986,0.007655213586986,0.039999999993597,-6.15912245681475,5.91532844117292,0.109540467969783,-3.51759782919679E-06,0.006830684520418,2.36309490143284,8.001907809292E-06,-7.90336281389287E-06,-3.9190565887155E-07,-1.12469377846258E-05,7.92623422189261E-09,4.06238147961743E-05,-4.00969782695633E-05,-1.21605876476139E-08,-2.89686602409917E-08,-0.000791393078137,-2.07930760777488E-06,-9.94747813494401E-07
-6.15912245681475,5.91532844117292,0.109540467969783,-3.51759782919679E-06,0.006830684520418,2.36309490143284,8.001907809292E-06,-7.90336281389287E-06,-3.9190565887155E-07,-1.12469377846258E-05,7.92623422189261E-09,4.06238147961743E-05,-4.00969782695633E-05,-1.21605876476139E-08,0.011416080407798,-0.007655213586986,0.007655213586986,0.015000000006694,-6.15912239534087,5.91532838104106,0.109540453694,-3.51777889510333E-06,0.006830166593902,2.36309489999108,8.50587194699046E-07,-8.08575943104706E-07,-1.28066769107722E-06,-1.17338255946111E-06,-2.16101991231249E-08,4.29395043470698E-06,-4.07718822179272E-06,5.58759404830985E-10,-1.20710604303463E-08,0.000671570348045,-1.96909555545577E-06,8.47956469784586E-07
-6.15912239534087,5.91532838104106,0.109540453694,-3.51777889510333E-06,0.006830166593902,2.36309489999108,8.50587194699046E-07,-8.08575943104706E-07,-1.28066769107722E-06,-1.17338255946111E-06,-2.16101991231249E-08,4.29395043470698E-06,-4.07718822179272E-06,5.58759404830985E-10,0.013358167372644,-0.007655213586986,0.007655213586986,0.019999999996799,-6.15912227935445,5.9153282654073,0.109540424234823,-3.51888653069244E-06,0.006829339737723,2.36309490334877,1.25204264749344E-05,-1.24485941575206E-05,-1.73855124000313E-06,-1.76556939553954E-05,7.10391885406655E-08,6.35289331056898E-05,-6.31266992684391E-05,-2.02010447329768E-08,-5.53817794644218E-08,-0.000824115569929,4.63246938393104E-06,-1.03799020705654E-06
-6.15912227935445,5.9153282654073,0.109540424234823,-3.51888653069244E-06,0.006829339737723,2.36309490334877,1.25204264749344E-05,-1.24485941575206E-05,-1.73855124000313E-06,-1.76556939553954E-05,7.10391885406655E-08,6.35289331056898E-05,-6.31266992684391E-05,-2.02010447329768E-08,0.013358167372644,-0.007655213586986,0.007655213586986,0.055000000000291,-6.15912221402136,5.915328205868,0.109540351069255,-3.51937091137687E-06,0.006827651378279,2.36309488808219,3.66934733599463E-06,-3.62937118829732E-06,-5.47163083447594E-07,-5.16104554664052E-06,7.34575493893864E-09,1.86221509867789E-05,-1.84066605916004E-05,-5.1428452819464E-09,-8.8069215350763E-09,0.000227175425613,-1.15806242911618E-06,2.73785444562739E-07
-6.15912221402136,5.915328205868,0.109540351069255,-3.51937091137687E-06,0.006827651378279,2.36309488808219,3.66934733599463E-06,-3.62937118829732E-06,-5.47163083447594E-07,-5.16104554664052E-06,7.34575493893864E-09,1.86221509867789E-05,-1.84066605916004E-05,-5.1428452819464E-09,0.013358167372644,-0.007871001027524,0.007871001027524,0.019999999996799,-6.15912220123688,5.91532819342074,0.109540338573715,-3.51882102334969E-06,0.006827561096346,2.36309488807401,-6.79547158010941E-07,7.01924917959891E-07,-3.61007536102307E-07,9.76715829132642E-07,-2.25636773483827E-08,-3.45299440471811E-06,3.56534104859362E-06,3.13087196947085E-09,2.74944013636748E-08,0.000306888068838,-1.49547161460545E-06,4.13685862637082E-07
-6.15912220123688,5.91532819342074,0.109540338573715,-3.51882102334969E-06,0.006827561096346,2.36309488807401,-6.79547158010941E-07,7.01924917959891E-07,-3.61007536102307E-07,9.76715829132642E-07,-2.25636773483827E-08,-3.45299440471811E-06,3.56534104859362E-06,3.13087196947085E-09,0.013358167372644,-0.00577478017658,0.00577478017658,0.025000000001455,-6.15912220651797,5.91532819872633,0.109540344716985,-3.51844954042815E-06,0.006827598688401,2.36309488802598,-1.66295837040873E-06,1.60591996076324E-06,3.52218349787354E-07,2.31166931108175E-06,2.43815153977003E-08,-8.43067985750392E-06,8.1343215666522E-06,4.1445922908162E-09,1.48593168605065E-08,5.33981392748563E-05,1.87780770973402E-06,4.0548812851454E-08
-6.15912220651797,5.91532819872633,0.109540344716985,-3.51844954042815E-06,0.006827598688401,2.36309488802598,-1.66295837040873E-06,1.60591996076324E-06,3.52218349787354E-07,2.31166931108175E-06,2.43815153977003E-08,-8.43067985750392E-06,8.1343215666522E-06,4.1445922908162E-09,0.013358167372644,-0.005898087285459,0.005898087285459,0.029999999998836,-6.15912231750675,5.9153283081062,0.109540353373111,-3.5184146659036E-06,0.006828389086338,2.36309488778228,-4.59250807073661E-06,4.43002172274749E-06,2.81671722221588E-07,6.38053292646014E-06,7.08690211131714E-08,-2.33079962017632E-05,2.2463372424207E-05,9.01840865010111E-09,1.16248415167695E-09,0.000135628787185,1.54958352390917E-06,1.62460545315801E-07
-6.15912231750675,5.9153283081062,0.109540353373111,-3.5184146659036E-06,0.006828389086338,2.36309488778228,-4.59250807073661E-06,4.43002172274749E-06,2.81671722221588E-07,6.38053292646014E-06,7.08690211131714E-08,-2.33079962017632E-05,2.2463372424207E-05,9.01840865010111E-09,0.013358167372644,-0.005898087285459,0.005898087285459,0.020000000004075,-6.15912240557733,5.91532839487963,0.109540358444738,-3.51846006669671E-06,0.006829016292173,2.3630948875961,-4.11566459254468E-06,4.04076018451206E-06,2.09837200794545E-07,5.76769143987192E-06,1.31666811345439E-08,-2.08871702548219E-05,2.04918396788519E-05,8.63964717448912E-09,-2.27003965505486E-09,-3.06420743231685E-05,-2.8851169983436E-06,-1.89380737767413E-08
-6.15912240557733,5.91532839487963,0.109540358444738,-3.51846006669671E-06,0.006829016292173,2.3630948875961,-4.11566459254468E-06,4.04076018451206E-06,2.09837200794545E-07,5.76769143987192E-06,1.31666811345439E-08,-2.08871702548219E-05,2.04918396788519E-05,8.63964717448912E-09,0.013358167372644,-0.005898087285459,0.005898087285459,0.019999999996799,-6.15912247763961,5.91532846591536,0.10954036090631,-3.51837126366202E-06,0.00682952964518,2.36309488743721,-3.05444173586435E-06,3.04133354266387E-06,3.12149094738524E-08,4.31032537494426E-06,-2.04743164489042E-08,-1.55015014650566E-05,1.54252787963007E-05,7.34981797787867E-09,4.44015173564308E-09,-7.28683032580471E-05,-1.68204987944165E-06,-6.4491459840846E-08
-6.15912247763961,5.91532846591536,0.10954036090631,-3.51837126366202E-06,0.00682952964518,2.36309488743721,-3.05444173586435E-06,3.04133354266387E-06,3.12149094738524E-08,4.31032537494426E-06,-2.04743164489042E-08,-1.55015014650566E-05,1.54252787963007E-05,7.34981797787867E-09,0.013358167372644,-0.005898087285459,0.005898087285459,0.025000000001455,-6.15912253640464,5.91532852381304,0.109540357996052,-3.51840855183742E-06,0.006829948270317,2.36309488729316,-1.69037081171136E-06,1.68482689112089E-06,-2.51972518811535E-07,2.38659541392592E-06,-1.25484802890352E-08,-8.58266358083142E-06,8.54929678835111E-06,4.84906447086107E-09,-1.49152701599514E-09,-7.69491984362545E-05,3.17033446376309E-07,-1.00030140274881E-07
-6.15912253640464,5.91532852381304,0.109540357996052,-3.51840855183742E-06,0.006829948270317,2.36309488729316,-1.69037081171136E-06,1.68482689112089E-06,-2.51972518811535E-07,2.38659541392592E-06,-1.25484802890352E-08,-8.58266358083142E-06,8.54929678835111E-06,4.84906447086107E-09,0.013358167372644,-0.005898087285459,0.005898087285459,0.035000000003493,-6.15912256876826,5.91532855582169,0.109540343699175,-3.51798226268231E-06,0.006830179538058,2.363094887181,-3.05723187427836E-07,3.31471326982507E-07,-5.11977486287898E-07,4.50428202842354E-07,-2.13153002978237E-08,-1.55870540859486E-06,1.6894249231763E-06,2.42110949573729E-09,1.21796901447103E-08,-5.53190631682962E-05,-2.50480571654679E-07,-6.93701421394716E-08
-6.15912256876826,5.91532855582169,0.109540343699175,-3.51798226268231E-06,0.006830179538058,2.363094887181,-3.05723187427836E-07,3.31471326982507E-07,-5.11977486287898E-07,4.50428202842354E-07,-2.13153002978237E-08,-1.55870540859486E-06,1.6894249231763E-06,2.42110949573729E-09,0.013358167372644,-0.005898087285459,0.005898087285459,0.024999999994179,-6.15912257021442,5.91532855739489,0.109540330605471,-3.51744173536468E-06,0.006830190634199,2.36309488714009,1.37417740907625E-07,-1.06496143439149E-07,-5.08478833131077E-07,-1.72619930560961E-07,-2.06742268705717E-08,6.91337896541768E-07,-5.32795744225439E-07,1.6192667321586E-09,2.16210927103412E-08,-2.49219253419352E-05,2.56429370960486E-08,-3.20737105506155E-08
-6.15912257021442,5.91532855739489,0.109540330605471,-3.51744173536468E-06,0.006830190634199,2.36309488714009,1.37417740907625E-07,-1.06496143439149E-07,-5.08478833131077E-07,-1.72619930560961E-07,-2.06742268705717E-08,6.91337896541768E-07,-5.32795744225439E-07,1.6192667321586E-09,0.013358167372644,-0.005898087285459,0.005898087285459,0.055000000000291,-6.15912255786709,5.9153285452332,0.109540306901507,-3.51742024772926E-06,0.006830103079662,2.36309488707176,4.28624520440489E-07,-4.06176207293273E-07,-3.595120890087E-07,-5.90388733604571E-07,-1.17997511320316E-08,2.17367686941985E-06,-2.05745631535309E-06,1.08766548994307E-09,3.90684280347976E-10,-7.59579641893453E-06,1.61354104336239E-07,-9.66547713114018E-09
-6.15912255786709,5.9153285452332,0.109540306901507,-3.51742024772926E-06,0.006830103079662,2.36309488707176,4.28624520440489E-07,-4.06176207293273E-07,-3.595120890087E-07,-5.90388733604571E-07,-1.17997511320316E-08,2.17367686941985E-06,-2.05745631535309E-06,1.08766548994307E-09,0.013358167372644,-0.006977024488151,0.006977024488151,0.025000000001455,-6.1591225158503,5.91532850371923,0.109540305302355,-3.51781839201519E-06,0.006829803150161,2.36309488710338,2.63041155673375E-06,-2.57526885294584E-06,1.8530687796051E-07,-3.68115333972584E-06,-1.35908857968571E-08,1.33664439142364E-05,-1.30763762363562E-05,-2.64356720295661E-09,-1.59257714364602E-08,-0.000123630584238,-7.16453865888484E-08,-1.492493077073E-07
-6.1591225158503,5.91532850371923,0.109540305302355,-3.51781839201519E-06,0.006829803150161,2.36309488710338,2.63041155673375E-06,-2.57526885294584E-06,1.8530687796051E-07,-3.68115333972584E-06,-1.35908857968571E-08,1.33664439142364E-05,-1.30763762363562E-05,-2.64356720295661E-09,0.011416080407798,0.214934468269348,0,0.055000000000291,-6.15952672906683,5.91573408851662,0.109466324052229,-3.63785540604758E-06,0.001685701058272,2.36307129603511,-0.031096646943809,0.03091792861689,-0.004394456389035,0.043850759085569,-0.000175181980845,0.137531997879548,-0.135436773932059,0.000924407942682,-2.18249116421368E-06,0.797353458885033,-0.00318487981743,0.016807465204443
-6.15952672906683,5.91573408851662,0.109466324052229,-3.63785540604758E-06,0.001685701058272,2.36307129603511,-0.031096646943809,0.03091792861689,-0.004394456389035,0.043850759085569,-0.000175181980845,0.137531997879548,-0.135436773932059,0.000924407942682,0.012864938937128,1,0,0.025000000001455,-6.16135973435801,5.91755902373993,0.109296972612168,8.97863258136588E-07,-0.011328440858191,2.36301331551722,-0.123686734899966,0.122491602778717,-0.008205217198411,0.174076087504889,-0.000341907156807,0.290701559916145,-0.288443921766693,0.003443863598947,0.000181428746557,5.20901313646958,-0.006669007038095,0.100778226244748
-6.16135973435801,5.91755902373993,0.109296972612168,8.97863258136588E-07,-0.011328440858191,2.36301331551722,-0.123686734899966,0.122491602778717,-0.008205217198411,0.174076087504889,-0.000341907156807,0.290701559916145,-0.288443921766693,0.003443863598947,0.014375451020897,1,0,0.025000000001455,-6.16579253172132,5.92197405902972,0.109128966760304,-6.74889785733556E-06,-0.017802145845487,2.36285415747596,-0.227416209804554,0.226081073366339,-0.00408281373048,0.320670180378302,-0.001191483315862,0.10904142696418,-0.105192881264285,0.004992893119796,-0.000305870444601,5.86376371459521,-0.033983046360219,0.06196118083034
-6.16579253172132,5.92197405902972,0.109128966760304,-6.74889785733556E-06,-0.017802145845487,2.36285415747596,-0.227416209804554,0.226081073366339,-0.00408281373048,0.320670180378302,-0.001191483315862,0.10904142696418,-0.105192881264285,0.004992893119796,0.012864938937128,1,0,0.019999999996799,-6.17116197451814,5.92735260408464,0.109099120051057,-1.30738343921003E-05,-0.019924684513382,2.3625738619353,-0.305976426192533,0.306918692424232,0.00091418856081,0.433369225576746,-0.003430957295911,0.098278748986809,-0.091585044262742,0.013397281376081,-0.000316246826789,5.6349522608242,-0.111973699020364,0.420219412881506
-6.17116197451814,5.92735260408464,0.109099120051057,-1.30738343921003E-05,-0.019924684513382,2.3625738619353,-0.305976426192533,0.306918692424232,0.00091418856081,0.433369225576746,-0.003430957295911,0.098278748986809,-0.091585044262742,0.013397281376081,0.010460450313985,1,0,0.029999999998836,-6.18217689193037,5.93846057040409,0.109221954838757,-1.48316823842973E-05,-0.021223509627583,2.36177948426396,-0.423804280036945,0.430113440197919,0.0062505457351,0.603776677568551,-0.007833443738483,0.011115466592649,-0.005555266732352,0.033598869666849,-5.85949330755075E-05,5.68024839994726,-0.146749548091421,0.673386276385075
-6.18217689193037,5.93846057040409,0.109221954838757,-1.48316823842973E-05,-0.021223509627583,2.36177948426396,-0.423804280036945,0.430113440197919,0.0062505457351,0.603776677568551,-0.007833443738483,0.011115466592649,-0.005555266732352,0.033598869666849,0.009443166665733,1,0,0.055000000000291,-6.21130779520243,5.96840470035936,0.109602983255699,-8.73884336439184E-05,-0.021461021612247,2.35827409376782,-0.629492177506337,0.657270177557445,0.005480193853853,0.909835571973769,-0.021534154713614,-0.089296320973996,0.070501199054501,0.109793340631332,-0.001319213659259,5.56470717097451,-0.249103835910148,1.38535401752872
-6.21130779520243,5.96840470035936,0.109602983255699,-8.73884336439184E-05,-0.021461021612247,2.35827409376782,-0.629492177506337,0.657270177557445,0.005480193853853,0.909835571973769,-0.021534154713614,-0.089296320973996,0.070501199054501,0.109793340631332,0.009443166665733,1,0,0.025000000001455,-6.2282472907608,5.98616825948217,0.109703608720088,-5.36859506392349E-05,-0.021542636457677,2.35552050652949,-0.720819417121439,0.762202168035035,0.002752606186582,1.0486741034569,-0.028555241120945,0.045185168807886,-0.003758788839739,0.105078729760082,0.001348099320109,5.55354125900179,-0.280843456276902,-0.188584434839023
-6.2282472907608,5.98616825948217,0.109703608720088,-5.36859506392349E-05,-0.021542636457677,2.35552050652949,-0.720819417121439,0.762202168035035,0.002752606186582,1.0486741034569,-0.028555241120945,0.045185168807886,-0.003758788839739,0.105078729760082,0.009443166665733,1,0,0.025000000001455,-6.24745974825506,6.00654500583453,0.109735776483498,-0.000116010579727,-0.021370719029237,2.35203780311612,-0.810851794662417,0.865460547701525,0.000136008902336,1.18548209134254,-0.033686846709059,-0.192130865754598,0.127705257185586,0.16016338234941,-0.002492985163347,5.47231951510733,-0.205264223512611,2.20338610344485
-6.24745974825506,6.00654500583453,0.109735776483498,-0.000116010579727,-0.021370719029237,2.35203780311612,-0.810851794662417,0.865460547701525,0.000136008902336,1.18548209134254,-0.033686846709059,-0.192130865754598,0.127705257185586,0.16016338234941,0.010707064531744,1,0,0.019999999996799,-6.26447446424453,6.0247260511143,0.109720800188146,-0.000104703805718,-0.021568738895045,2.34898912341191,-0.884669170396478,0.950348725029558,-0.001483721879891,1.29785454690556,-0.037091984199519,0.079890737466197,-0.028430080594406,0.137772746877322,0.000565338700541,5.61862277905038,-0.170256874550243,-1.11953177378361
