x_pos,y_pos,z_pos,roll,pitch,yaw,u_x,u_y,u_z,comp_u_x,comp_u_y,roll_mder,pitch_mder,yaw_mder,steer,throttle,brake,time_step,act_x_pos,act_y_pos,act_z_pos,act_roll,act_pitch,act_yaw,act_u_x,act_u_y,act_u_z,act_comp_u_x,act_comp_u_y,act_roll_mder,act_pitch_mder,act_yaw_mder,accel_roll,accel_x,accel_y,accel_yaw,
-14.2366010584367,-6.83935859794411,0.109540897155543,-4.12914910223122E-06,0.006710926408034,0.958721584626884,4.79594515401958E-07,-6.14400220872281E-07,1.77914842986122E-07,-2.27301514633045E-07,-7.45541784246242E-07,2.45552598096563E-06,-3.14180065409656E-06,5.19720527670997E-09,0,-0.00167481880635,0.00167481880635,0.024999999999636,-14.2366010480084,-6.83935861145281,0.109540899653736,-4.04577794823032E-06,0.006710900527295,0.958721585069885,3.25886442744688E-07,-4.18609320594254E-07,3.55213432762E-08,-1.55370497497308E-07,-5.07243280251803E-07,1.6709096959563E-06,-2.13798492829598E-06,3.63782230782527E-09,3.33484616008441E-06,2.87724068547136E-06,9.53194015991629E-06,-6.23753187562959E-08,-7.08800307356961E-07
-14.2366010480084,-6.83935861145281,0.109540899653736,-4.04577794823032E-06,0.006710900527295,0.958721585069885,3.25886442744688E-07,-4.18609320594254E-07,3.55213432762E-08,-1.55370497497308E-07,-5.07243280251803E-07,1.6709096959563E-06,-2.13798492829598E-06,3.63782230782527E-09,0,-0.00167481880635,0.00167481880635,0.025000000000546,-14.2366010406083,-6.83935862131232,0.109540899287182,-3.9858067696186E-06,0.006710881071453,0.958721585385937,2.51732823466594E-07,-3.49285777656335E-07,-5.1008744345025E-08,-1.41238316478823E-07,-4.06720674224561E-07,1.2911823457502E-06,-1.78354981652451E-06,2.96037413406195E-09,2.39884714441648E-06,5.65287240727038E-07,4.0209042410019E-06,-2.70979269499411E-08,-5.05684205598506E-07
-14.2366010406083,-6.83935862131232,0.109540899287182,-3.9858067696186E-06,0.006710881071453,0.958721585385937,2.51732823466594E-07,-3.49285777656335E-07,-5.1008744345025E-08,-1.41238316478823E-07,-4.06720674224561E-07,1.2911823457502E-06,-1.78354981652451E-06,2.96037413406195E-09,0,-0.00167481880635,0.00167481880635,0.024999999999636,-14.2366010343371,-6.83935862966454,0.10954089758574,-3.9349954041684E-06,0.006710864645479,0.95872158564995,2.19661962010619E-07,-3.03469488255112E-07,-7.54514624857061E-08,-1.2216647331442E-07,-3.54147512562338E-07,1.12774842905527E-06,-1.54784647878745E-06,2.77380223890952E-09,2.0324546180376E-06,7.62873726587238E-07,2.10292646651951E-06,-7.46287580620613E-09,-4.22421031499669E-07
-14.2366010343371,-6.83935862966454,0.10954089758574,-3.9349954041684E-06,0.006710864645479,0.95872158564995,2.19661962010619E-07,-3.03469488255112E-07,-7.54514624857061E-08,-1.2216647331442E-07,-3.54147512562338E-07,1.12774842905527E-06,-1.54784647878745E-06,2.77380223890952E-09,0,-0.00167481880635,0.00167481880635,0.024999999999636,-14.2366010299523,-6.8393586356755,0.109540895846109,-3.89896272920319E-06,0.006710852448676,0.958721585831976,1.01602996766261E-07,-1.54326681719598E-07,-6.02805522978886E-08,-6.79321544140571E-08,-1.71828740433991E-07,5.21625412005168E-07,-7.8798837652288E-07,1.75880346718315E-09,1.44130699862944E-06,2.16937275604608E-06,7.29275088524002E-06,-4.05999508696453E-08,-2.91240098712769E-07
-14.2366010299523,-6.8393586356755,0.109540895846109,-3.89896272920319E-06,0.006710852448676,0.958721585831976,1.01602996766261E-07,-1.54326681719598E-07,-6.02805522978886E-08,-6.79321544140571E-08,-1.71828740433991E-07,5.21625412005168E-07,-7.8798837652288E-07,1.75880346718315E-09,0,-0.00167481880635,0.00167481880635,0.025000000000546,-14.2366010277564,-6.83935863921923,0.109540894685658,-3.87933903130474E-06,0.006710844082638,0.958721585920632,8.73764395417968E-08,-1.84778806663016E-07,-5.16420598443823E-08,-1.01030037883525E-07,-1.77681684548697E-07,4.47669979164131E-07,-9.46621986379043E-07,1.65935790916409E-09,7.84947915920868E-07,-1.32391533874983E-06,-2.34117764583145E-07,-3.97782232067563E-09,-1.41850442497063E-07
-14.2366010277564,-6.83935863921923,0.109540894685658,-3.87933903130474E-06,0.006710844082638,0.958721585920632,8.73764395417968E-08,-1.84778806663016E-07,-5.16420598443823E-08,-1.01030037883525E-07,-1.77681684548697E-07,4.47669979164131E-07,-9.46621986379043E-07,1.65935790916409E-09,0,-0.00167481880635,0.00167481880635,0.029999999999745,-14.2366010283927,-6.83935864106105,0.109540892002148,-3.87655851212615E-06,0.006710834439899,0.958721585900413,-3.01623256610391E-08,-3.94654064258213E-08,-8.60000834324494E-08,-4.9631036321111E-08,2.01107616225755E-09,-1.54570172706773E-07,-2.04532646644806E-07,1.25250706692227E-09,9.26839726203006E-08,1.71330005209502E-06,5.98975869041601E-06,-1.35616947415092E-08,2.24661030523545E-08
-14.2366010283927,-6.83935864106105,0.109540892002148,-3.87655851212615E-06,0.006710834439899,0.958721585900413,-3.01623256610391E-08,-3.94654064258213E-08,-8.60000834324494E-08,-4.9631036321111E-08,2.01107616225755E-09,-1.54570172706773E-07,-2.04532646644806E-07,1.25250706692227E-09,0,-0.00167481880635,0.00167481880635,0.034999999999855,-14.2366010284377,-6.83935864344535,0.109540889204403,-3.86970197973287E-06,0.006710824274104,0.958721585898393,-3.42240205130523E-08,-2.33139587113518E-08,-8.09590925912973E-08,-3.87454744692716E-08,1.46154869581368E-08,-1.75370867691126E-07,-1.21780958924842E-07,1.23175345370408E-09,1.95900925523321E-07,3.11016052910991E-07,3.60126022740906E-07,-5.92960377665017E-10,1.64865853396932E-09
-14.2366010284377,-6.83935864344535,0.109540889204403,-3.86970197973287E-06,0.006710824274104,0.958721585898393,-3.42240205130523E-08,-2.33139587113518E-08,-8.09590925912973E-08,-3.87454744692716E-08,1.46154869581368E-08,-1.75370867691126E-07,-1.21780958924842E-07,1.23175345370408E-09,0,-0.00167481880635,0.00167481880635,0.030000000000655,-14.2366010288402,-6.83935864478679,0.109540887180337,-3.86741425779692E-06,0.00671081741764,0.958721585874727,-5.38998593250915E-08,-2.32362340604941E-09,-5.85811030435874E-08,-3.28708562627225E-08,4.27796782310624E-08,-2.76456484969951E-07,-1.49135067088679E-08,1.05506863787342E-09,7.62573978632512E-08,1.95820606880696E-07,9.38806375743692E-07,-5.88949386089347E-09,2.62958790533266E-08
-14.2366010288402,-6.83935864478679,0.109540887180337,-3.86741425779692E-06,0.00671081741764,0.958721585874727,-5.38998593250915E-08,-2.32362340604941E-09,-5.85811030435874E-08,-3.28708562627225E-08,4.27796782310624E-08,-2.76456484969951E-07,-1.49135067088679E-08,1.05506863787342E-09,0,-0.00167481880635,0.00167481880635,0.024999999999636,-14.2366010293117,-6.83935864522143,0.109540886475013,-3.8680908623779E-06,0.006710814152942,0.958721585844787,-1.08315978282157E-07,1.08420746142931E-07,7.51023620221308E-10,2.65030316341411E-08,1.5094700613E-07,-5.56482764909174E-07,5.50697686146979E-07,2.05612478209797E-10,-2.70641832398309E-08,2.3749555159091E-06,4.32669311602046E-06,-3.39782463870394E-08,4.79030148895007E-08
-14.2366010293117,-6.83935864522143,0.109540886475013,-3.8680908623779E-06,0.006710814152942,0.958721585844787,-1.08315978282157E-07,1.08420746142931E-07,7.51023620221308E-10,2.65030316341411E-08,1.5094700613E-07,-5.56482764909174E-07,5.50697686146979E-07,2.05612478209797E-10,0,-0.00167481880635,0.00167481880635,0.079999999999927,-14.2366010291019,-6.83935864900985,0.109540885362734,-3.85599634190102E-06,0.006710798672476,0.958721585819529,-4.94807260242304E-08,5.88692977479308E-09,-3.05420679005807E-09,-2.36117785629624E-08,4.38803156683259E-08,-2.54973852780543E-07,2.56760698464911E-08,1.11374268124787E-09,1.51181505961215E-07,-6.26435127464363E-07,-1.33833363077214E-06,1.13516275379862E-08,3.94659999126297E-09
-14.2366010291019,-6.83935864900985,0.109540885362734,-3.85599634190102E-06,0.006710798672476,0.958721585819529,-4.94807260242304E-08,5.88692977479308E-09,-3.05420679005807E-09,-2.36117785629624E-08,4.38803156683259E-08,-2.54973852780543E-07,2.56760698464911E-08,1.11374268124787E-09,0,-0.00167481880635,0.00167481880635,0.034999999999855,-14.2366010292682,-6.8393586502496,0.109540885667089,-3.85301235657055E-06,0.006710792868149,0.958721585794312,5.93496154994268E-08,-1.20108332395163E-07,1.09250369524149E-08,-6.42032721760184E-08,-1.17585408161765E-07,3.03679213934104E-07,-6.16303142361867E-07,1.32724756209314E-09,8.52567237280069E-08,-1.15975696037785E-06,-4.61330639516464E-06,6.10013945274744E-09,2.05853474857414E-08
-14.2366010292682,-6.8393586502496,0.109540885667089,-3.85301235657055E-06,0.006710792868149,0.958721585794312,5.93496154994268E-08,-1.20108332395163E-07,1.09250369524149E-08,-6.42032721760184E-08,-1.17585408161765E-07,3.03679213934104E-07,-6.16303142361867E-07,1.32724756209314E-09,0,-0.00167481880635,0.00167481880635,0.055000000000291,-14.2365967039079,-6.83935306944056,0.109535420533036,-1.96280580680826E-06,0.006746939273157,0.958721662737287,0.000152750330204,0.000225156539753,-0.000202092357572,0.00027204637054,4.34776345485479E-06,0.000779435288337,0.001148677294811,-1.52485138153622E-07,3.4367391813678E-05,0.00494746497837,8.11881611453259E-05,-2.79658883118003E-06,-2.54356941383573E-05
-14.2365967039079,-6.83935306944056,0.109535420533036,-1.96280580680826E-06,0.006746939273157,0.958721662737287,0.000152750330204,0.000225156539753,-0.000202092357572,0.00027204637054,4.34776345485479E-06,0.000779435288337,0.001148677294811,-1.52485138153622E-07,0,-0.00167481880635,0.00167481880635,0.019999999999527,-14.2365942793064,-6.83934947993684,0.10953230495446,-2.34130581298333E-06,0.006769032782167,0.958721662552523,8.74397445812056E-05,0.000130661309495,-0.000111112633127,0.00015718072828,3.50790372870468E-06,0.000446068057251,0.000666459107114,-9.34989016333093E-08,-1.89250003092012E-05,-0.005743282113105,-4.19929863084982E-05,2.9493118260854E-06,4.61908566972898E-07
-14.2365942793064,-6.83934947993684,0.10953230495446,-2.34130581298333E-06,0.006769032782167,0.958721662552523,8.74397445812056E-05,0.000130661309495,-0.000111112633127,0.00015718072828,3.50790372870468E-06,0.000446068057251,0.000666459107114,-9.34989016333093E-08,0,-0.00167481880635,0.00167481880635,0.020000000000437,-14.2365943302333,-6.83934730484717,0.109531060795216,-8.9671503343866E-06,0.006777905966221,0.958721606384556,2.45168265075749E-05,1.78731036960181E-05,-2.08336266458469E-05,2.87149333367411E-05,-9.79669440156505E-06,0.000125415025133,9.13852837955703E-05,1.02867813386019E-09,-0.000331292226063,-0.006423289747034,-0.000665229906499,4.72637898825531E-06,0.000140419918465
-14.2365943302333,-6.83934730484717,0.109531060795216,-8.9671503343866E-06,0.006777905966221,0.958721606384556,2.45168265075749E-05,1.78731036960181E-05,-2.08336266458469E-05,2.87149333367411E-05,-9.79669440156505E-06,0.000125415025133,9.13852837955703E-05,1.02867813386019E-09,0,-0.00167481880635,0.00167481880635,0.015000000000328,-14.2365942564901,-6.8393474384117,0.109531196235518,-8.26606264272596E-06,0.006777565820397,0.958721610845343,-7.9672770343467E-06,-2.62770519192203E-05,3.24514595048587E-05,-2.608438850682E-05,-8.57704128080918E-06,-4.06516634587712E-05,-0.000134249361285,3.02767049110715E-08,4.67391794430228E-05,-0.003653288122824,8.13102080486164E-05,1.94986845177152E-06,-1.98257232844284E-05
-14.2365942564901,-6.8393474384117,0.109531196235518,-8.26606264272596E-06,0.006777565820397,0.958721610845343,-7.9672770343467E-06,-2.62770519192203E-05,3.24514595048587E-05,-2.608438850682E-05,-8.57704128080918E-06,-4.06516634587712E-05,-0.000134249361285,3.02767049110715E-08,0,-0.00167481880635,0.00167481880635,0.024999999999636,-14.2365947800596,-6.83934851631458,0.109532795980091,-7.29541618922578E-06,0.006771510723204,0.958721616409697,-3.3667369606083E-05,-5.98371388537912E-05,8.74135856963913E-05,-6.83183196837597E-05,-6.82511230589659E-06,-0.000172321832509,-0.000306172444052,4.71657988452236E-08,3.88258581405719E-05,-0.001689357247102,7.00771589975234E-05,6.75563757375915E-07,-8.90296583148474E-06
-14.2365947800596,-6.83934851631458,0.109532795980091,-7.29541618922578E-06,0.006771510723204,0.958721616409697,-3.3667369606083E-05,-5.98371388537912E-05,8.74135856963913E-05,-6.83183196837597E-05,-6.82511230589659E-06,-0.000172321832509,-0.000306172444052,4.71657988452236E-08,0,-0.00167481880635,0.00167481880635,0.024999999999636,-14.2365946757723,-6.83934862523389,0.109535301016542,-6.53864752590262E-06,0.006771280785827,0.958721621178643,1.17348076239679E-05,7.57046700189537E-06,0.000106627034189,1.2938537515641E-05,-5.2547052776224E-06,5.77531205889004E-05,3.54566557323865E-05,5.98580489332077E-09,3.02707465333671E-05,0.003250274288023,6.28162811318817E-05,-1.64719975810008E-06,-7.63031327033484E-06
-14.2365946757723,-6.83934862523389,0.109535301016542,-6.53864752590262E-06,0.006771280785827,0.958721621178643,1.17348076239679E-05,7.57046700189537E-06,0.000106627034189,1.2938537515641E-05,-5.2547052776224E-06,5.77531205889004E-05,3.54566557323865E-05,5.98580489332077E-09,0,-0.00167481880635,0.00167481880635,0.030000000000655,-14.2365949311103,-6.83934923209282,0.109538291373665,-5.82647117858048E-06,0.006767914100296,0.958721625702884,-9.36620971232269E-05,-0.000141018427464,8.66280374443686E-05,-0.000169232748253,-4.3660326268125E-06,-0.000477072610348,-0.000718593126768,-6.52599898172757E-08,2.37392115768864E-05,-0.006072376192143,2.96224216930169E-05,-2.37485982363471E-06,-5.02693479413415E-06
-14.2365949311103,-6.83934923209282,0.109538291373665,-5.82647117858048E-06,0.006767914100296,0.958721625702884,-9.36620971232269E-05,-0.000141018427464,8.66280374443686E-05,-0.000169232748253,-4.3660326268125E-06,-0.000477072610348,-0.000718593126768,-6.52599898172757E-08,0,-0.00167481880635,0.00167481880635,0.019999999999527,-14.2365980221574,-6.83935377584618,0.109539657754403,-5.4364196402618E-06,0.006739971670404,0.958721627562322,-0.000187813355442,-0.000273778694531,4.98018210498883E-05,-0.000331987597091,-3.58684249082981E-06,-0.000954416563423,-0.001391156262217,1.41111142304685E-07,1.95025769163951E-05,-0.0081377424421,3.89595068000554E-05,1.0318556606342E-05,-4.6485948426134E-06
-14.2365980221574,-6.83935377584618,0.109539657754403,-5.4364196402618E-06,0.006739971670404,0.958721627562322,-0.000187813355442,-0.000273778694531,4.98018210498883E-05,-0.000331987597091,-3.58684249082981E-06,-0.000954416563423,-0.001391156262217,1.41111142304685E-07,0,-0.00167481880635,0.00167481880635,0.039999999999964,-14.2366045334594,-6.83936326249562,0.109540276656333,-4.86682778341E-06,0.006681540647027,0.958721627341801,-7.97954467906102E-05,-0.000118001023234,-6.92046838967055E-06,-0.00014242665971,-2.49026433470727E-06,-0.000404954222162,-0.000598872251228,6.78663555639035E-08,1.42397964213081E-05,0.004739023434513,2.74144539030887E-05,-1.83111966852119E-06,1.37825584279023E-07
-14.2366045334594,-6.83936326249562,0.109540276656333,-4.86682778341E-06,0.006681540647027,0.958721627341801,-7.97954467906102E-05,-0.000118001023234,-6.92046838967055E-06,-0.00014242665971,-2.49026433470727E-06,-0.000404954222162,-0.000598872251228,6.78663555639035E-08,0,-0.00167481880635,0.00167481880635,0.020000000000437,-14.2366045108962,-6.83936330166495,0.109540131518587,-4.65735953842361E-06,0.006681449362454,0.958721628534898,1.25025213058427E-05,1.47672879712056E-05,-5.08833947799206E-06,1.92699339668498E-05,-1.74799254598204E-06,6.36656420398221E-05,7.51150372992488E-05,3.71102620600868E-09,1.04734122490906E-05,0.008084829683688,3.7113589435451E-05,-3.20776646782472E-06,-2.98274210872886E-06
-14.2366045108962,-6.83936330166495,0.109540131518587,-4.65735953842361E-06,0.006681449362454,0.958721628534898,1.25025213058427E-05,1.47672879712056E-05,-5.08833947799206E-06,1.92699339668498E-05,-1.74799254598204E-06,6.36656420398221E-05,7.51150372992488E-05,3.71102620600868E-09,0,-0.00167481880635,0.00167481880635,0.024999999999636,-14.2366044914672,-6.83936334305735,0.109540096133878,-4.45444395774077E-06,0.006681336265711,0.958721629665094,-1.56861085003851E-06,-4.68299779509662E-06,2.59545825026884E-06,-4.73410737046615E-06,-1.40685313826158E-06,-7.94705516406852E-06,-2.38443339120522E-05,9.46110651735969E-09,8.11662322743203E-06,-0.000960161653507,1.36455763090171E-05,2.30003212457387E-07,-1.80831367662937E-06
-14.2366044914672,-6.83936334305735,0.109540096133878,-4.45444395774077E-06,0.006681336265711,0.958721629665094,-1.56861085003851E-06,-4.68299779509662E-06,2.59545825026884E-06,-4.73410737046615E-06,-1.40685313826158E-06,-7.94705516406852E-06,-2.38443339120522E-05,9.46110651735969E-09,0,-0.00167481880635,0.00167481880635,0.015000000000328,-14.2366045712173,-6.83936349131987,0.109540175946638,-4.35331009633861E-06,0.006680485287271,0.958721630157724,-3.99908510863828E-06,-7.79466132932339E-06,7.43402640667377E-06,-8.67734212746851E-06,-1.20547108959204E-06,-2.03926626235244E-05,-3.97773504355612E-05,1.05178466127999E-08,6.74225742666293E-06,-0.000262882317128,1.34254699110098E-05,7.0449339694474E-08,-2.18946687930805E-06
-14.2366045712173,-6.83936349131987,0.109540175946638,-4.35331009633861E-06,0.006680485287271,0.958721630157724,-3.99908510863828E-06,-7.79466132932339E-06,7.43402640667377E-06,-8.67734212746851E-06,-1.20547108959204E-06,-2.03926626235244E-05,-3.97773504355612E-05,1.05178466127999E-08,0,-0.00167481880635,0.00167481880635,0.019999999999527,-14.2366046546993,-6.83936364855802,0.109540373995548,-4.24143979655665E-06,0.006679582187913,0.958721630698065,-5.50272405067923E-06,-9.44903637274083E-06,1.16714641564826E-05,-1.08953191035649E-05,-9.25355057692543E-07,-2.81225716323881E-05,-4.82973835212398E-05,9.07368286952298E-09,5.59351498923023E-06,-0.000110898848807,1.40058015953059E-05,-7.22081871655516E-08,-1.35085220793479E-06
-14.2366046546993,-6.83936364855802,0.109540373995548,-4.24143979655665E-06,0.006679582187913,0.958721630698065,-5.50272405067923E-06,-9.44903637274083E-06,1.16714641564826E-05,-1.08953191035649E-05,-9.25355057692543E-07,-2.81225716323881E-05,-4.82973835212398E-05,9.07368286952298E-09,0,-0.00167481880635,0.00167481880635,0.025000000000546,-14.2366047750366,-6.83936385571623,0.109540689623269,-4.13738474486395E-06,0.006678360032569,0.958721631181343,-4.20244459273653E-06,-7.26727299269709E-06,1.28251943929561E-05,-8.36254066544359E-06,-7.36010138657858E-07,-2.15501673749078E-05,-3.7251296032979E-05,7.33703801939693E-09,4.16220206761726E-06,0.000101311137523,7.57379676122209E-06,-6.94657940035258E-08,-7.73244224172126E-07
-14.2366047750366,-6.83936385571623,0.109540689623269,-4.13738474486395E-06,0.006678360032569,0.958721631181343,-4.20244459273653E-06,-7.26727299269709E-06,1.28251943929561E-05,-8.36254066544359E-06,-7.36010138657858E-07,-2.15501673749078E-05,-3.7251296032979E-05,7.33703801939693E-09,0,-0.00167481880635,0.00167481880635,0.034999999999855,-14.2366048961268,-6.83936406618591,0.109541086857657,-4.02675339730574E-06,0.006677119294629,0.958721631681985,-2.85657820278566E-06,-4.98030823753032E-06,9.30458653571175E-06,-5.71746661337066E-06,-5.23530987081371E-07,-1.46566118047089E-05,-2.55389788287695E-05,6.15384412731945E-09,3.16089564453337E-06,7.55735443452551E-05,6.07083290221058E-06,-3.38055397737828E-08,-4.08687686870528E-07
-14.2366048961268,-6.83936406618591,0.109541086857657,-4.02675339730574E-06,0.006677119294629,0.958721631681985,-2.85657820278566E-06,-4.98030823753032E-06,9.30458653571175E-06,-5.71746661337066E-06,-5.23530987081371E-07,-1.46566118047089E-05,-2.55389788287695E-05,6.15384412731945E-09,0,-0.00167481880635,0.00167481880635,0.019999999999527,-14.2366049370914,-6.83936413846368,0.10954124110479,-3.98614720267981E-06,0.006676694607133,0.958721631851406,1.51586118118838E-06,1.67600519854033E-06,6.28040961612457E-06,2.24270283494184E-06,-2.77691448035174E-07,7.59700396147551E-06,8.34456733066773E-06,3.2872814622256E-09,2.03030973134479E-06,0.000398008472425,1.22919769526005E-05,-1.43328133258082E-07,-4.2355285947209E-07
-14.2366049370914,-6.83936413846368,0.10954124110479,-3.98614720267981E-06,0.006676694607133,0.958721631851406,1.51586118118838E-06,1.67600519854033E-06,6.28040961612457E-06,2.24270283494184E-06,-2.77691448035174E-07,7.59700396147551E-06,8.34456733066773E-06,3.2872814622256E-09,0,-0.00167481880635,0.00167481880635,0.020000000000437,-14.236604854834,-6.83936403370521,0.109541342515368,-3.94904765087019E-06,0.006677366717672,0.958721632039073,4.25760831725276E-06,5.55589047140451E-06,4.02875752950077E-06,6.99354165495927E-06,-2.92442530649991E-07,2.15588579004201E-05,2.81004561008077E-05,3.0978042412551E-09,1.85497759044056E-06,0.000237541940996,-7.3755413072473E-07,-9.47386104831805E-09,-4.69166927509814E-07
-14.236604854834,-6.83936403370521,0.109541342515368,-3.94904765087019E-06,0.006677366717672,0.958721632039073,4.25760831725276E-06,5.55589047140451E-06,4.02875752950077E-06,6.99354165495927E-06,-2.92442530649991E-07,2.15588579004201E-05,2.81004561008077E-05,3.0978042412551E-09,0,-0.00167481880635,0.00167481880635,0.019999999999527,-14.2366047754375,-6.83936393071238,0.109541400945343,-3.91874830516999E-06,0.006678024620349,0.958721632192742,3.20731490775853E-06,4.14130083482369E-06,1.96797249606073E-06,5.23229616669423E-06,-2.4559793573726E-07,1.62664309636047E-05,2.09786420239044E-05,1.99774357687578E-09,1.51496728504548E-06,-8.80622744153343E-05,2.34222974569193E-06,-5.50030332202665E-08,-3.84172971231017E-07
-14.2366047754375,-6.83936393071238,0.109541400945343,-3.91874830516999E-06,0.006678024620349,0.958721632192742,3.20731490775853E-06,4.14130083482369E-06,1.96797249606073E-06,5.23229616669423E-06,-2.4559793573726E-07,1.62664309636047E-05,2.09786420239044E-05,1.99774357687578E-09,0,-0.00167481880635,0.00167481880635,0.020000000000437,-14.2366047389676,-6.83936388645826,0.109541421412087,-3.89585059050409E-06,0.006678314559714,0.958721632287864,5.59847275202472E-07,5.4157794164164E-07,2.34223861036018E-07,7.64928279296782E-07,-1.47038654633711E-07,2.85615844276621E-06,2.75646383403039E-06,2.91046762505811E-09,1.14488573327032E-06,-0.000223368394365,4.92796405506987E-06,4.56362024081202E-08,-2.37803943193448E-07
-14.2366047389676,-6.83936388645826,0.109541421412087,-3.89585059050409E-06,0.006678314559714,0.958721632287864,5.59847275202472E-07,5.4157794164164E-07,2.34223861036018E-07,7.64928279296782E-07,-1.47038654633711E-07,2.85615844276621E-06,2.75646383403039E-06,2.91046762505811E-09,0,-0.00167481880635,0.00167481880635,0.029999999999745,-14.2366047408203,-6.83936389567834,0.109541400202057,-3.87649551376057E-06,0.006678272278745,0.958721632307124,-6.22946496773157E-07,-9.03502763956812E-07,-1.35812723779682E-06,-1.09740316205309E-06,-9.26726688043909E-09,-3.11262987493761E-06,-4.52083356876385E-06,3.81121334548606E-09,6.45169224789472E-07,-6.20777147121893E-05,4.59237959181472E-06,3.00248573478532E-08,-2.1400535664924E-08
-14.2366047408203,-6.83936389567834,0.109541400202057,-3.87649551376057E-06,0.006678272278745,0.958721632307124,-6.22946496773157E-07,-9.03502763956812E-07,-1.35812723779682E-06,-1.09740316205309E-06,-9.26726688043909E-09,-3.11262987493761E-06,-4.52083356876385E-06,3.81121334548606E-09,0,-0.00167481880635,0.00167481880635,0.025000000000546,-14.2366047537442,-6.83936391893083,0.109541361133616,-3.86229697655431E-06,0.006678140093621,0.958721632298317,-3.3753733387787E-07,-9.79084603907335E-07,-1.56921045866847E-06,-9.95277089410793E-07,-2.86289414166406E-07,-1.65654423120232E-06,-4.91293486546309E-06,4.2842918937895E-09,5.67941488237869E-07,4.08504290560257E-06,-1.10808858911968E-05,1.89231419317243E-08,1.40923717133988E-08
-14.2366047537442,-6.83936391893083,0.109541361133616,-3.86229697655431E-06,0.006678140093621,0.958721632298317,-3.3753733387787E-07,-9.79084603907335E-07,-1.56921045866847E-06,-9.95277089410793E-07,-2.86289414166406E-07,-1.65654423120232E-06,-4.91293486546309E-06,4.2842918937895E-09,0,-0.00167481880635,0.00167481880635,0.029999999999745,-14.2366047640145,-6.83936393504452,0.1095413250988,-3.85792368933341E-06,0.006678045407677,0.958721632227237,-2.56316382900927E-07,-3.32695347619843E-07,-7.2907542722357E-07,-4.19567948761763E-07,1.86284417799771E-08,-1.26513823279034E-06,-1.64158467539005E-06,3.12346429223545E-09,1.45776240697846E-07,1.91903046884639E-05,1.01639285316324E-05,-3.86942533854633E-08,7.89773185135314E-08
-14.2366047640145,-6.83936393504452,0.1095413250988,-3.85792368933341E-06,0.006678045407677,0.958721632227237,-2.56316382900927E-07,-3.32695347619843E-07,-7.2907542722357E-07,-4.19567948761763E-07,1.86284417799771E-08,-1.26513823279034E-06,-1.64158467539005E-06,3.12346429223545E-09,0,-0.00167481880635,0.00167481880635,0.034999999999855,-14.2366047688727,-6.83936394263795,0.109541317253302,-3.85587719250087E-06,0.00667800110685,0.958721632132019,-6.43735323249387E-08,-5.7102276907893E-08,2.18503001133929E-07,-8.37226908671592E-08,1.98779457192569E-08,-3.0987569807447E-07,-2.69700835069369E-07,3.01308328549904E-09,5.84713380728763E-08,9.59557879702858E-06,3.57001125510017E-08,-3.15374304962489E-09,7.77289344007028E-08
-14.2366047688727,-6.83936394263795,0.109541317253302,-3.85587719250087E-06,0.00667800110685,0.958721632132019,-6.43735323249387E-08,-5.7102276907893E-08,2.18503001133929E-07,-8.37226908671592E-08,1.98779457192569E-08,-3.0987569807447E-07,-2.69700835069369E-07,3.01308328549904E-09,0,-0.00167481880635,0.00167481880635,0.0649999999996,-14.236604763289,-6.83936394064257,0.109541359998311,-3.83814511501661E-06,0.006678026162204,0.958721632035011,2.13060241540016E-07,1.25425882323418E-07,7.70856613808708E-07,2.25073112432464E-07,-1.02315260551206E-07,1.08824211037773E-06,6.33799817886753E-07,3.6707209079096E-09,2.72801192067189E-07,4.7507046661773E-06,-1.87989548109562E-06,1.01175018833017E-08,2.29604895257205E-08
-14.236604763289,-6.83936394064257,0.109541359998311,-3.83814511501661E-06,0.006678026162204,0.958721632035011,2.13060241540016E-07,1.25425882323418E-07,7.70856613808708E-07,2.25073112432464E-07,-1.02315260551206E-07,1.08824211037773E-06,6.33799817886753E-07,3.6707209079096E-09,0,-0.00167481880635,0.00167481880635,0.035000000000764,-14.2366047555164,-6.83936393466346,0.109541382340039,-3.82304033615624E-06,0.006678073855131,0.958721632025903,2.60174255337659E-07,2.08390921619064E-07,4.93257780871003E-07,3.20046635698557E-07,-9.32071366998426E-08,1.33167463536094E-06,1.06194765748241E-06,3.57050568156265E-09,4.31565110286979E-07,2.71352923611486E-06,2.60232110033269E-07,-2.86329218127906E-09,7.4354128293303E-09
-14.2366047555164,-6.83936393466346,0.109541382340039,-3.82304033615624E-06,0.006678073855131,0.958721632025903,2.60174255337659E-07,2.08390921619064E-07,4.93257780871003E-07,3.20046635698557E-07,-9.32071366998426E-08,1.33167463536094E-06,1.06194765748241E-06,3.57050568156265E-09,0,-0.00167481880635,0.00167481880635,0.029999999999745,-14.2366047476666,-6.8393639272566,0.109541394687195,-3.81182808657596E-06,0.006678127861658,0.958721632018614,2.78680466581989E-07,3.01560444627448E-07,3.45203736181539E-07,4.06935005528091E-07,-5.48215787269173E-08,1.42701397461318E-06,1.53967032819953E-06,3.26049782239368E-09,3.73741652678978E-07,2.89627899434238E-06,1.27951859910837E-06,-1.03335953057198E-08,8.09846017420877E-09
-14.2366047476666,-6.8393639272566,0.109541394687195,-3.81182808657596E-06,0.006678127861658,0.958721632018614,2.78680466581989E-07,3.01560444627448E-07,3.45203736181539E-07,4.06935005528091E-07,-5.48215787269173E-08,1.42701397461318E-06,1.53967032819953E-06,3.26049782239368E-09,0,-0.00167481880635,0.00167481880635,0.034999999999855,-14.2366047380706,-6.83936391650455,0.109541403504086,-3.80310320990544E-06,0.006678201133985,0.958721631976812,3.80553608204422E-07,2.34359130529336E-07,1.63012870124406E-07,4.10466490005063E-07,-1.76812079233277E-07,1.9496617486331E-06,1.19871358794689E-06,3.15844247634933E-09,2.4928219058745E-07,1.00899556485337E-07,-3.48544287162478E-06,-2.91586702985073E-09,3.41237242547116E-08
-14.2366047380706,-6.83936391650455,0.109541403504086,-3.80310320990544E-06,0.006678201133985,0.958721631976812,3.80553608204422E-07,2.34359130529336E-07,1.63012870124406E-07,4.10466490005063E-07,-1.76812079233277E-07,1.9496617486331E-06,1.19871358794689E-06,3.15844247634933E-09,0,-0.00167481880635,0.00167481880635,0.0600000000004,-14.2366047204973,-6.83936389300805,0.109541405771857,-3.79831347685471E-06,0.006678351495527,0.95872163184633,1.52896570406906E-07,5.95177372326245E-07,-4.29873728127055E-08,5.74976805637653E-07,2.16829745999223E-07,7.84283571317255E-07,3.04553966289204E-06,6.29673649030922E-10,7.98288841782715E-08,2.74183859385822E-06,6.56069708716458E-06,-4.21461471216924E-08,3.6245050170584E-08
-14.2366047204973,-6.83936389300805,0.109541405771857,-3.79831347685471E-06,0.006678351495527,0.95872163184633,1.52896570406906E-07,5.95177372326245E-07,-4.29873728127055E-08,5.74976805637653E-07,2.16829745999223E-07,7.84283571317255E-07,3.04553966289204E-06,6.29673649030922E-10,0,-0.00167481880635,0.00167481880635,0.034999999999855,-14.2366047098524,-6.83936387788628,0.109541403858223,-3.7980283779917E-06,0.0066784463331,0.958721631757782,2.5177590980031E-07,6.04543625464161E-07,-5.63125531868599E-08,6.39455468141131E-07,1.41282724030694E-07,1.29334750790663E-06,3.09585212515207E-06,2.11600508523315E-09,8.14568180035184E-09,1.84224750010702E-06,-2.15848634196695E-06,4.24666124630975E-08,7.22841287965428E-08
-14.2366047098524,-6.83936387788628,0.109541403858223,-3.7980283779917E-06,0.0066784463331,0.958721631757782,2.5177590980031E-07,6.04543625464161E-07,-5.63125531868599E-08,6.39455468141131E-07,1.41282724030694E-07,1.29334750790663E-06,3.09585212515207E-06,2.11600508523315E-09,0,-0.00167481880635,0.00167481880635,0.034999999999855,-14.2366046983248,-6.83936386294065,0.109541402299686,-3.79352606385781E-06,0.006678543001381,0.958721631694634,3.03198252952565E-07,3.78614030054928E-07,-2.91865169369244E-08,4.84087212840138E-07,-3.06159225336799E-08,1.55732908265266E-06,1.94166587394137E-06,2.0341570460665E-09,1.28637546683043E-07,-4.43909300861825E-06,-4.91138990185967E-06,-2.33851540477125E-09,5.15496942189219E-08
-14.2366046983248,-6.83936386294065,0.109541402299686,-3.79352606385781E-06,0.006678543001381,0.958721631694634,3.03198252952565E-07,3.78614030054928E-07,-2.91865169369244E-08,4.84087212840138E-07,-3.06159225336799E-08,1.55732908265266E-06,1.94166587394137E-06,2.0341570460665E-09,0,-0.00167481880635,0.00167481880635,0.050000000000182,-14.2366046814341,-6.8393638431482,0.10954140198523,-3.78076398367215E-06,0.006678675678688,0.958721631658083,2.37679008056047E-07,6.41076184702131E-07,1.37437940153371E-08,6.61256212647771E-07,1.73810835961034E-07,1.21849890416405E-06,3.27917416965975E-06,1.88628867196669E-09,2.55241603712298E-07,3.54337999613976E-06,4.0885351698794E-06,-2.9573674819854E-09,1.46201717398144E-08
-14.2366046814341,-6.8393638431482,0.10954140198523,-3.78076398367215E-06,0.006678675678688,0.958721631658083,2.37679008056047E-07,6.41076184702131E-07,1.37437940153371E-08,6.61256212647771E-07,1.73810835961034E-07,1.21849890416405E-06,3.27917416965975E-06,1.88628867196669E-09,0,-0.00167481880635,0.00167481880635,0.029999999999745,-14.2366046718232,-6.8393638293747,0.109541402535946,-3.78086785628493E-06,0.006678761660595,0.958721631582496,3.3400475488726E-07,4.79237187479378E-07,1.87625173426249E-08,5.84143405349009E-07,1.98497801174043E-09,1.71107281820505E-06,2.45059455495969E-06,2.78189803233104E-09,-3.4624204259562E-09,-2.57042690998056E-06,-5.7275285983584E-06,2.98536453457318E-08,8.39856579358143E-08
-14.2366046718232,-6.8393638293747,0.109541402535946,-3.78086785628493E-06,0.006678761660595,0.958721631582496,3.3400475488726E-07,4.79237187479378E-07,1.87625173426249E-08,5.84143405349009E-07,1.98497801174043E-09,1.71107281820505E-06,2.45059455495969E-06,2.78189803233104E-09,0,-0.00167481880635,0.00167481880635,0.0600000000004,-14.236604654472,-6.8393637984661,0.109541402780398,-3.79878908045225E-06,0.006678942254264,0.95872163134353,3.62558586813235E-07,4.60225515389266E-07,-1.56668021875056E-08,5.8498923767723E-07,-3.23086008539365E-08,1.85772294343797E-06,2.3547512853763E-06,2.01131887362622E-09,-2.98687069453273E-07,1.40972054702579E-08,-5.7155964775747E-07,-1.2842985978328E-08,6.6379587011355E-08
-14.236604654472,-6.8393637984661,0.109541402780398,-3.79878908045225E-06,0.006678942254264,0.95872163134353,3.62558586813235E-07,4.60225515389266E-07,-1.56668021875056E-08,5.8498923767723E-07,-3.23086008539365E-08,1.85772294343797E-06,2.3547512853763E-06,2.01131887362622E-09,0,-0.00167481880635,0.00167481880635,0.029999999999745,-14.2366037437268,-6.83936411467591,0.109541397459931,1.12649569470846E-06,0.006680339790254,0.958721752470447,1.09829014769673E-05,3.34996344420136E-05,-7.29116385431745E-07,3.37284459385763E-05,1.02587312651151E-05,5.53478769242597E-05,0.000170154959915,-2.95301565023854E-08,0.000164176159173,0.001104781890039,0.000343034662202,-1.05138251254264E-06,-0.00013458546327
-14.2366037437268,-6.83936411467591,0.109541397459931,1.12649569470846E-06,0.006680339790254,0.958721752470447,1.09829014769673E-05,3.34996344420136E-05,-7.29116385431745E-07,3.37284459385763E-05,1.02587312651151E-05,5.53478769242597E-05,0.000170154959915,-2.95301565023854E-08,0,-0.00167481880635,0.00167481880635,0.019999999999527,-14.2366032933554,-6.8393631425962,0.109541395279345,1.59454149365935E-07,0.006685698586029,0.958721746575884,3.23611002701339E-05,6.17379654800263E-05,-1.94601571841758E-07,6.91235281435007E-05,8.98638132405054E-06,0.000164185949104,0.00031385970501,-3.21589830363065E-08,-4.83520772682694E-05,0.001769754110288,-6.36174970547342E-05,-1.31441326699164E-07,1.47364065401809E-05
-14.2366032933554,-6.8393631425962,0.109541395279345,1.59454149365935E-07,0.006685698586029,0.958721746575884,3.23611002701339E-05,6.17379654800263E-05,-1.94601571841758E-07,6.91235281435007E-05,8.98638132405054E-06,0.000164185949104,0.00031385970501,-3.21589830363065E-08,0,-0.00167481880635,0.00167481880635,0.039999999999964,-14.2366026070857,-6.83936068960269,0.109541384946865,-4.17480492621945E-06,0.006697917287785,0.958721709963095,1.98343402002781E-06,8.85341216980882E-07,-1.64636487179128E-07,1.86422950509778E-06,-1.11466942840097E-06,1.01248464581024E-05,4.49368866758139E-06,6.49582597817197E-09,-0.00010835647689,-0.001681482465962,-0.000252526268812,9.6637022536284E-07,2.2882993139281E-05
-14.2366026070857,-6.83936068960269,0.109541384946865,-4.17480492621945E-06,0.006697917287785,0.958721709963095,1.98343402002781E-06,8.85341216980882E-07,-1.64636487179128E-07,1.86422950509778E-06,-1.11466942840097E-06,1.01248464581024E-05,4.49368866758139E-06,6.49582597817197E-09,0,-0.00167481880635,0.00167481880635,0.020000000000437,-14.2366025941457,-6.83936070448971,0.109541369092326,-4.07686170026608E-06,0.006697893601647,0.958721710485046,5.34391297447576E-07,-5.93722990387966E-07,-1.24406118593152E-06,-1.78893763217149E-07,-7.78510160232311E-07,2.76340875867466E-06,-2.99753613901263E-06,5.30683314008884E-09,4.89716129756196E-06,-0.000102156163414,1.68079634080662E-05,-5.9449641902859E-08,-1.30487648458543E-06
-14.2366025941457,-6.83936070448971,0.109541369092326,-4.07686170026608E-06,0.006697893601647,0.958721710485046,5.34391297447576E-07,-5.93722990387966E-07,-1.24406118593152E-06,-1.78893763217149E-07,-7.78510160232311E-07,2.76340875867466E-06,-2.99753613901263E-06,5.30683314008884E-09,0,-0.00167481880635,0.00167481880635,0.029999999999745,-14.2366025790829,-6.83936071596001,0.10954129259571,-3.98003969513485E-06,0.006697892487935,0.958721710989396,4.3692093295476E-07,-1.93266571294602E-07,-4.45544567197267E-06,9.28596823098808E-08,-4.68645866977761E-07,2.32465472792595E-06,-8.63797187852645E-07,3.90911108987062E-09,3.22740017106825E-06,9.05844818431121E-06,1.03288097752394E-05,-4.65907350076696E-08,-5.60388649074363E-07
-14.2366025790829,-6.83936071596001,0.10954129259571,-3.98003969513485E-06,0.006697892487935,0.958721710989396,4.3692093295476E-07,-1.93266571294602E-07,-4.45544567197267E-06,9.28596823098808E-08,-4.68645866977761E-07,2.32465472792595E-06,-8.63797187852645E-07,3.90911108987062E-09,0,-0.00167481880635,0.00167481880635,0.050000000000182,-14.2366025660993,-6.83936072291284,0.109541119666303,-3.9051744196785E-06,0.006697907404494,0.958721711354569,9.85853125986689E-08,-6.57661711919394E-08,-2.44079280728537E-06,2.8170016531012E-09,-1.1847496628027E-07,5.51794726599656E-07,-2.70002789589428E-07,1.77783781200042E-09,1.49730550912168E-06,-1.80085361312904E-06,7.00341801392433E-06,-4.26254655572488E-08,-1.46069423222531E-07
-14.2366025660993,-6.83936072291284,0.109541119666303,-3.9051744196785E-06,0.006697907404494,0.958721711354569,9.85853125986689E-08,-6.57661711919394E-08,-2.44079280728537E-06,2.8170016531012E-09,-1.1847496628027E-07,5.51794726599656E-07,-2.70002789589428E-07,1.77783781200042E-09,0,-0.00167481880635,0.00167481880635,0.029999999999745,-14.236602559795,-6.83936072263343,0.109541077968828,-3.87955372096288E-06,0.006697928466267,0.958721711463262,3.05242557343586E-07,1.38437059008798E-08,-1.57908512781968E-06,1.86712691623686E-07,-2.4187401223232E-07,1.59215604586175E-06,1.12999122563513E-07,2.77239126832308E-09,8.54023290527907E-07,6.12985633240487E-06,-4.11330153176993E-06,3.31517818777033E-08,-1.20769320472092E-07
-14.236602559795,-6.83936072263343,0.109541077968828,-3.87955372096288E-06,0.006697928466267,0.958721711463262,3.05242557343586E-07,1.38437059008798E-08,-1.57908512781968E-06,1.86712691623686E-07,-2.4187401223232E-07,1.59215604586175E-06,1.12999122563513E-07,2.77239126832308E-09,0,0.096559636294842,0,0.034999999999855,-14.2365926724149,-6.83934661754316,0.10953858153895,-3.86725265692519E-06,0.006785454910293,0.95872171366004,0.000900163757585,0.001284380591123,-0.000211529222192,0.001568415383126,1.21626283604271E-06,0.004573614808186,0.006525464769815,-1.18787105120287E-07,3.51458972506718E-07,0.044806533441174,4.16610528080312E-05,-3.47312846826046E-06,-1.79328860152998E-06
-14.2365926724149,-6.83934661754316,0.10953858153895,-3.86725265692519E-06,0.006785454910293,0.95872171366004,0.000900163757585,0.001284380591123,-0.000211529222192,0.001568415383126,1.21626283604271E-06,0.004573614808186,0.006525464769815,-1.18787105120287E-07,0,0.557080864906311,0,0.020000000000437,-14.2364668095561,-6.83916636236106,0.109499319030068,-3.33743521618398E-06,0.002106299492081,0.958722431623856,0.018626960759553,0.026479245466553,-0.004527165800114,0.032374575320365,-3.1312009297492E-05,-0.185481621468566,-0.26464400543272,0.000259636993961,2.64908720364821E-05,1.54030799682829,-0.001626413606641,0.012987789053045,-0.001794909540364
-14.2364668095561,-6.83916636236106,0.109499319030068,-3.33743521618398E-06,0.002106299492081,0.958722431623856,0.018626960759553,0.026479245466553,-0.004527165800114,0.032374575320365,-3.1312009297492E-05,-0.185481621468566,-0.26464400543272,0.000259636993961,0,1,0,0.039999999999964,-14.2335148122329,-6.83491715324991,0.109209188680953,-2.7702778645167E-06,-0.015268734487834,0.958816022932448,0.137394545014738,0.200543896068379,-0.007057496717534,0.243079299197343,0.00275128185041,-0.136799290905443,-0.195092510396198,-0.01121106384071,1.4178933791695E-05,5.26761809692925,0.069564846492748,-0.28676752086705,-0.058494567869683
-14.2335148122329,-6.83491715324991,0.109209188680953,-2.7702778645167E-06,-0.015268734487834,0.958816022932448,0.137394545014738,0.200543896068379,-0.007057496717534,0.243079299197343,0.00275128185041,-0.136799290905443,-0.195092510396198,-0.01121106384071,0,1,0,0.015000000000328,-14.2310622929744,-6.83134770890327,0.10912538327113,-3.12922030073571E-06,-0.018143637100464,0.958989811116693,0.18646969050314,0.271706442145414,-0.003492762075348,0.329520446618748,0.00340755628522,-0.08516973958097,-0.121276512291227,-0.013667710199232,-2.39294957474117E-05,5.7627431613012,0.043751628986383,-0.163776423897905,-0.772391929947338
-14.2310622929744,-6.83134770890327,0.10912538327113,-3.12922030073571E-06,-0.018143637100464,0.958989811116693,0.18646969050314,0.271706442145414,-0.003492762075348,0.329520446618748,0.00340755628522,-0.08516973958097,-0.121276512291227,-0.013667710199232,0,1,0,0.045000000000073,-14.2194425514871,-6.81423073319285,0.109203010318308,4.44481648040801E-06,-0.02122524698509,0.960251914554581,0.32700269191777,0.484597914895921,0.006381269141455,0.584523618090368,0.009901491679927,-0.038537017159446,-0.040816031731546,-0.034629074841264,0.00016831192847,5.66673714380462,0.144309675437696,-0.465808103155497,-0.623260956979503
-14.2194425514871,-6.81423073319285,0.109203010318308,4.44481648040801E-06,-0.02122524698509,0.960251914554581,0.32700269191777,0.484597914895921,0.006381269141455,0.584523618090368,0.009901491679927,-0.038537017159446,-0.040816031731546,-0.034629074841264,-0.004233441315591,1,0,0.019999999999527,-14.2122447664033,-6.80358430675336,0.109340926662719,-3.14705616922172E-06,-0.021532766803147,0.961098257775603,0.390803552288112,0.576681451206981,0.007776822139554,0.696557446650522,0.009830369418369,-0.02824475763629,-0.039020484609384,-0.040317290189196,-0.00037959363249,5.60169142814017,-0.003556113077983,-0.284410767403325,-2.11585805265633
-14.2122447664033,-6.80358430675336,0.109340926662719,-3.14705616922172E-06,-0.021532766803147,0.961098257775603,0.390803552288112,0.576681451206981,0.007776822139554,0.696557446650522,0.009830369418369,-0.02824475763629,-0.039020484609384,-0.040317290189196,-0.012741631828249,1,0,0.020000000000437,-14.2038321446984,-6.79105117257455,0.109487805151057,-4.25626796626976E-06,-0.02164293112708,0.962292318528182,0.450507308106246,0.671750194442924,0.007358052366166,0.808702075010518,0.014356610495668,-0.017240833600709,-0.027122877027599,-0.061464138618743,-5.54605898511914E-05,5.60723141787739,0.226312053860029,-1.05734242145428,-2.98515188131523
-14.2038321446984,-6.79105117257455,0.109487805151057,-4.25626796626976E-06,-0.02164293112708,0.962292318528182,0.450507308106246,0.671750194442924,0.007358052366166,0.808702075010518,0.014356610495668,-0.017240833600709,-0.027122877027599,-0.061464138618743,-0.016749113798142,1,0,0.024999999999636,-14.191640004097,-6.77273552614491,0.109634466736727,8.7781758699204E-05,-0.021531596097433,0.964214066300552,0.525091034250763,0.788306835860885,0.004852573618642,0.947008646765599,0.017968991811583,0.060716499695563,0.089672541183462,-0.074819818622067,0.003681521066673,5.53226287028377,0.144495252638681,-0.534227200140741,-3.07479643588127
-14.191640004097,-6.77273552614491,0.109634466736727,8.7781758699204E-05,-0.021531596097433,0.964214066300552,0.525091034250763,0.788306835860885,0.004852573618642,0.947008646765599,0.017968991811583,0.060716499695563,0.089672541183462,-0.074819818622067,-0.038697779178619,1,0,0.024999999999636,-14.1776102326543,-6.75146946183668,0.109714486259336,7.50965235197757E-05,-0.021623440223132,0.966715004541655,0.596140716687554,0.907608704805524,0.001844262264854,1.08559561847904,0.024889119522686,-0.017364512421208,-0.083275164734215,-0.136118373029272,-0.000507409407185,5.54347886861844,0.276805108448144,-2.45194217632389,-4.00150118588229
-14.1776102326543,-6.75146946183668,0.109714486259336,7.50965235197757E-05,-0.021623440223132,0.966715004541655,0.596140716687554,0.907608704805524,0.001844262264854,1.08559561847904,0.024889119522686,-0.017364512421208,-0.083275164734215,-0.136118373029272,-0.205039069056511,1,0,0.020000000000437,-14.1650270592332,-6.73235232272642,0.109731092166873,3.16686513135721E-05,-0.021681402189382,0.9688109473069,0.657842536914235,1.00091722823926,-0.000176639738517,1.19749199888347,0.02459702766602,-0.021424459179933,-0.049645636624021,-0.114695507136411,-0.002171393610263,5.59481902009898,-0.014604592832946,1.07114329461969,-5.23985691288471
-14.1650270592332,-6.73235232272642,0.109731092166873,3.16686513135721E-05,-0.021681402189382,0.9688109473069,0.657842536914235,1.00091722823926,-0.000176639738517,1.19749199888347,0.02459702766602,-0.021424459179933,-0.049645636624021,-0.114695507136411,-0.466203510761261,1,0,0.029999999999745,-14.144094052489,-6.7000346888599,0.10970265717121,3.24581587512489E-05,-0.021748402760955,0.972977504860527,0.736106738918687,1.15058215991355,-0.001560164283742,1.36534221488065,0.039154489622808,0.003495117442384,-0.017309076881033,-0.179425765850145,2.63169145894494E-05,5.59500719995366,0.485248731897041,-2.15767529047612,-4.62950839299705
-14.144094052489,-6.7000346888599,0.10970265717121,3.24581587512489E-05,-0.021748402760955,0.972977504860527,0.736106738918687,1.15058215991355,-0.001560164283742,1.36534221488065,0.039154489622808,0.003495117442384,-0.017309076881033,-0.179425765850145,-0.51808500289917,1,0,0.050000000000182,-14.1048591233122,-6.63585675580351,0.109650732791543,0.00403632272036,-0.020088347785186,0.990600694556893,0.821761352235671,1.41111428716047,0.000894309234302,1.63067244119326,0.086270742371962,0.108549394443812,-0.259870671661502,-0.581037622095041,0.080077291231891,5.30660452623284,0.942325054979656,-8.0322371248687,-7.04927587849502
-14.1048591233122,-6.63585675580351,0.109650732791543,0.00403632272036,-0.020088347785186,0.990600694556893,0.821761352235671,1.41111428716047,0.000894309234302,1.63067244119326,0.086270742371962,0.108549394443812,-0.259870671661502,-0.581037622095041,-0.374093115329742,1,0,0.029999999999745,-14.0799602930121,-6.59079702153657,0.10975558932094,0.011282016931212,-0.019725507212728,1.01213077101925,0.828577638390224,1.5912487649406,0.006002391368289,1.78851219818774,0.14084619873815,0.071820026267979,-0.268322132544559,-0.792767647689518,0.241523140363775,5.26132523319394,1.81918187888836,-7.05766751987581,-23.9223071808024
-14.0799602930121,-6.59079702153657,0.10975558932094,0.011282016931212,-0.019725507212728,1.01213077101925,0.828577638390224,1.5912487649406,0.006002391368289,1.78851219818774,0.14084619873815,0.071820026267979,-0.268322132544559,-0.792767647689518,-0.020787421613932,1,0,0.030000000000655,-14.0549732446529,-6.5401367866336,0.109923085476531,0.008872558421885,-0.020996258773587,1.03352148830785,0.839032630563723,1.7795610774654,0.003643257930552,1.95824678758189,0.189955001265314,-0.307875154074644,-0.058310100846062,-0.630452918961703,-0.080315283642491,5.65781964634841,1.63696008420309,5.41049095747573,-23.767463652966
-14.0549732446529,-6.5401367866336,0.109923085476531,0.008872558421885,-0.020996258773587,1.03352148830785,0.839032630563723,1.7795610774654,0.003643257930552,1.95824678758189,0.189955001265314,-0.307875154074644,-0.058310100846062,-0.630452918961703,-0.016317538917065,1,0,0.059999999999491,-13.9990914726397,-6.42463684521238,0.109818383083593,-0.003016828067202,-0.022103904833376,1.06301723740965,1.06478426071505,2.04203060802752,-0.002040029030977,2.30211887671459,0.062475622942882,-0.011085367119266,-0.212666559821579,-0.351145921496665,-0.198156441486462,5.73120148559354,-2.12465630539191,4.65511662445682,-8.19326363952638
-13.9990914726397,-6.42463684521238,0.109818383083593,-0.003016828067202,-0.022103904833376,1.06301723740965,1.06478426071505,2.04203060802752,-0.002040029030977,2.30211887671459,0.062475622942882,-0.011085367119266,-0.212666559821579,-0.351145921496665,-0.126338303089142,1,0,0.029999999999745,-13.9653240136697,-6.36143655730166,0.109709084750063,0.001159679456451,-0.021629875697922,1.07056541087574,1.16181121701848,2.17686524521693,-0.0039609400725,2.46737532575198,0.024629285285683,0.009655765061011,-0.157829661810977,-0.174242690462906,0.139216917456292,5.50854830129309,-1.26154458858399,5.89677436784201,-8.38685940690984
-13.9653240136697,-6.36143655730166,0.109709084750063,0.001159679456451,-0.021629875697922,1.07056541087574,1.16181121701848,2.17686524521693,-0.0039609400725,2.46737532575198,0.024629285285683,0.009655765061011,-0.157829661810977,-0.174242690462906,-0.462627619504929,1,0,0.035000000000764,-13.9243160398224,-6.2816293682228,0.109618773550356,0.001259418747871,-0.021331755010413,1.07871380045836,1.18654476153822,2.37693753246182,-0.002228482367177,2.65551365073673,0.077251246658729,-0.062253233976284,0.015835786538298,-0.280074244160527,0.002849694040487,5.37538071373284,1.50348461062562,-3.02375867700886,-6.65174659776493
-13.9243160398224,-6.2816293682228,0.109618773550356,0.001259418747871,-0.021331755010413,1.07871380045836,1.18654476153822,2.37693753246182,-0.002228482367177,2.65551365073673,0.077251246658729,-0.062253233976284,0.015835786538298,-0.280074244160527,-0.546723067760468,1,0,0.034999999999855,-13.8813631990626,-6.19522029549596,0.109581357217609,0.001212284218485,-0.021227502378604,1.0889202004542,1.2529018682322,2.55921638619841,5.46857461185962E-05,2.84843869894868,0.075819398162678,0.122929618802503,0.135041473430377,-0.380542005424811,-0.001346700839603,5.51214423464993,-0.040909957030197,-2.87050746470576,-8.33175509871377
-13.8813631990626,-6.19522029549596,0.109581357217609,0.001212284218485,-0.021227502378604,1.0889202004542,1.2529018682322,2.55921638619841,5.46857461185962E-05,2.84843869894868,0.075819398162678,0.122929618802503,0.135041473430377,-0.380542005424811,-0.649561166763306,1,0,0.024999999999636,-13.8499716410365,-6.12938984718347,0.109622810081184,0.005063410348888,-0.020274942008026,1.10204651549791,1.25412087264661,2.69955902984621,0.004001528678071,2.9749436350302,0.100739700343865,0.199835230602555,-0.107054474050904,-0.754082473575514,0.154045045218374,5.06019744333469,0.996812087262022,-14.9416187262456,-21.0021040705596
-13.8499716410365,-6.12938984718347,0.109622810081184,0.005063410348888,-0.020274942008026,1.10204651549791,1.25412087264661,2.69955902984621,0.004001528678071,2.9749436350302,0.100739700343865,0.199835230602555,-0.107054474050904,-0.754082473575514,-0.703199803829193,1,0,0.050000000000182,-13.7884205490515,-5.98669418257572,0.110119242335493,0.022591180539334,-0.01905601316441,1.15050040938441,1.18004837917244,3.01106344582455,0.015798227433441,3.23050117382663,0.151259438955355,0.188447738811128,0.058201900119155,-1.20025740967158,0.350555403807647,5.11115077590989,1.01039477222612,-8.92349872188887,-19.3815575544593
-13.7884205490515,-5.98669418257572,0.110119242335493,0.022591180539334,-0.01905601316441,1.15050040938441,1.18004837917244,3.01106344582455,0.015798227433441,3.23050117382663,0.151259438955355,0.188447738811128,0.058201900119155,-1.20025740967158,-0.755081236362457,1,0,0.024999999999636,-13.7596669900668,-5.90915413493671,0.110529999959493,0.026688850326726,-0.019413787879578,1.1781804030153,1.11662616205627,3.17985870864775,0.016266555755404,3.3651361030298,0.184971351394899,0.077243329715237,0.021945155354887,-1.0663671245994,0.163906791498046,5.38539716820517,1.34847649760136,5.35561140296526,-44.2879898107059
-13.7596669900668,-5.90915413493671,0.110529999959493,0.026688850326726,-0.019413787879578,1.1781804030153,1.11662616205627,3.17985870864775,0.016266555755404,3.3651361030298,0.184971351394899,0.077243329715237,0.021945155354887,-1.0663671245994,-0.780143439769745,1,0,0.035000000000764,-13.7219850358327,-5.79384962746028,0.110930923849643,0.027892938133019,-0.018637957924435,1.21647708787586,1.03004120402527,3.40350277085048,0.006739885277255,3.5494618669256,0.21479396736822,0.046508124963601,-0.406750072980946,-1.08752770628948,0.034402508750498,5.26645039690793,0.852074742076284,-0.604588048274738,-31.2625998848093
-13.7219850358327,-5.79384962746028,0.110930923849643,0.027892938133019,-0.018637957924435,1.21647708787586,1.03004120402527,3.40350277085048,0.006739885277255,3.5494618669256,0.21479396736822,0.046508124963601,-0.406750072980946,-1.08752770628948,-0.921453356742859,1,0,0.074999999999818,-13.6520645057035,-5.52143073268679,0.110765691594958,0.029794226769078,-0.018278548747414,1.30563259746497,0.813667526292573,3.85529235776381,-0.002246914100612,3.93378400407283,0.225116450922327,-0.224004219498108,-0.256817101946095,-1.06900279372099,0.025350515147514,5.12429516197551,0.137633114055091,0.24699883424703,-15.8498683714733
-13.6520645057035,-5.52143073268679,0.110765691594958,0.029794226769078,-0.018278548747414,1.30563259746497,0.813667526292573,3.85529235776381,-0.002246914100612,3.93378400407283,0.225116450922327,-0.224004219498108,-0.256817101946095,-1.06900279372099,-0.984031736850738,1,0,0.034999999999855,-13.6257504181139,-5.38277681847,0.110657272172357,0.029923803200587,-0.01768899154604,1.34896142821153,0.684762239503224,4.06091003266297,-0.00040419687179,4.11206030354114,0.225498731866415,-0.093033014910589,-0.146082250047792,-1.23559552085341,0.003702183757404,5.09360855625856,0.010922312688293,-4.75979220380307,-35.3704740791201
-13.6257504181139,-5.38277681847,0.110657272172357,0.029923803200587,-0.01768899154604,1.34896142821153,0.684762239503224,4.06091003266297,-0.00040419687179,4.11206030354114,0.225498731866415,-0.093033014910589,-0.146082250047792,-1.23559552085341,-1,0.999506771564483,0,0.050000000000182,-13.5964423201329,-5.17278578019337,0.11073478381312,0.033081328652594,-0.016662188025989,1.41280775884464,0.473116007627061,4.33559454784966,0.005566592108467,4.35603429898552,0.214904690685059,-0.048356014563298,0.258794124684568,-1.30592672834811,0.063150509039913,4.87947990886985,-0.21188082362635,-1.40662414988899,-25.5385322530582
-13.5964423201329,-5.17278578019337,0.11073478381312,0.033081328652594,-0.016662188025989,1.41280775884464,0.473116007627061,4.33559454784966,0.005566592108467,4.35603429898552,0.214904690685059,-0.048356014563298,0.258794124684568,-1.30592672834811,-1,0.990012109279633,0,0.029999999999745,-13.5841221112338,-5.0403621148193,0.110863062047863,0.035329257838358,-0.015790798714627,1.45108044263246,0.341596175085147,4.48489983954134,0.005448234164095,4.49359652846677,0.196480932668006,-0.149304652719418,0.36575387253541,-1.29805281004788,0.074930972859426,4.58540764941401,-0.614125267240337,0.262463943343305,-42.5252042094096
-13.5841221112338,-5.0403621148193,0.110863062047863,0.035329257838358,-0.015790798714627,1.45108044263246,0.341596175085147,4.48489983954134,0.005448234164095,4.49359652846677,0.196480932668006,-0.149304652719418,0.36575387253541,-1.29805281004788,-1,0.987391829490662,0,0.069999999999709,-13.5724549991667,-4.7145012276294,0.111035363513892,0.042209060590287,-0.013614405161154,1.54450562324149,-0.04340564733373,4.80115223326974,0.007541629302266,4.7983520144571,0.169601776544339,0.360856759965092,-0.293508258557012,-1.30374022042547,0.09828289645654,4.35364979987992,-0.383987944625413,-0.081248719680219,-19.0663633897568
-13.5724549991667,-4.7145012276294,0.111035363513892,0.042209060590287,-0.013614405161154,1.54450562324149,-0.04340564733373,4.80115223326974,0.007541629302266,4.7983520144571,0.169601776544339,0.360856759965092,-0.293508258557012,-1.30374022042547,-1,0.983076095581055,0,0.034999999999855,-13.5776521269324,-4.54331888392768,0.111055291221105,0.038046587479077,-0.013771150473139,1.57911557629862,-0.254064954216853,4.98011515878819,-0.004917797997908,4.98205642847911,0.21262581969996,-0.488398864909791,-0.367635404051199,-0.608542877634613,-0.118927803177918,5.24869754350788,1.22925837588001,19.8627812226786,-28.2530229040185
-13.5776521269324,-4.54331888392768,0.111055291221105,0.038046587479077,-0.013771150473139,1.57911557629862,-0.254064954216853,4.98011515878819,-0.004917797997908,4.98205642847911,0.21262581969996,-0.488398864909791,-0.367635404051199,-0.608542877634613,-1,0.920867681503296,0,0.035000000000764,-13.5895591399628,-4.36687480035622,0.110982321806286,0.036437377459705,-0.010818822119169,1.61637242828694,-0.434701105305098,5.09259680408966,-0.006002437770335,5.10711372039569,0.202229342390628,-0.753405175644037,0.523405687667301,-1.3959829314503,-0.045977429123921,3.57306548325296,-0.297042208831564,-22.4982872513856,-30.4137567238241
-13.5895591399628,-4.36687480035622,0.110982321806286,0.036437377459705,-0.010818822119169,1.61637242828694,-0.434701105305098,5.09259680408966,-0.006002437770335,5.10711372039569,0.202229342390628,-0.753405175644037,0.523405687667301,-1.3959829314503,-0.848116457462311,0.764483392238617,0,0.049999999999272,-13.6187388210845,-4.10654270324707,0.111104202608964,0.040580481543014,-0.009201001903851,1.67581112290347,-0.73977178199955,5.29274972725727,0.003172881031643,5.34113630350387,0.180900393083224,-0.513308232816194,0.197473673404501,-1.06530465200699,0.082862081667385,4.68045166223173,-0.426578986154289,6.61356558896242,-23.7754778473065
-13.6187388210845,-4.10654270324707,0.111104202608964,0.040580481543014,-0.009201001903851,1.67581112290347,-0.73977178199955,5.29274972725727,0.003172881031643,5.34113630350387,0.180900393083224,-0.513308232816194,0.197473673404501,-1.06530465200699,-0.479644000530243,0.553628265857697,0,0.035000000000764,-13.6490139622974,-3.92046083230855,0.111399034066603,0.048900796467726,-0.006556235205204,1.71879554337054,-0.994536163081983,5.3386447963428,0.014378640588297,5.4269370456408,0.196429997320796,0.801414779571661,-0.109801784915169,-1.21285173664108,0.237723283558023,2.45144977528716,0.443702978206651,-4.21563098945352,-35.0893228287292
-13.6490139622974,-3.92046083230855,0.111399034066603,0.048900796467726,-0.006556235205204,1.71879554337054,-0.994536163081983,5.3386447963428,0.014378640588297,5.4269370456408,0.196429997320796,0.801414779571661,-0.109801784915169,-1.21285173664108,-0.438921838998795,0.347982823848724,0,0.049999999999272,-13.7078400516767,-3.65314379657588,0.112191468236028,0.052591577353011,0.001520860326338,1.78788198591133,-1.3491525633925,5.33046056468707,0.010543793460804,5.49593761043891,0.169387877829531,-0.441918231162795,0.250119895555972,-1.53866869951173,0.073815617706764,1.38001129598242,-0.540842389833173,-6.51633925750767,-27.6345770171198
-13.7078400516767,-3.65314379657588,0.112191468236028,0.052591577353011,0.001520860326338,1.78788198591133,-1.3491525633925,5.33046056468707,0.010543793460804,5.49593761043891,0.169387877829531,-0.441918231162795,0.250119895555972,-1.53866869951173,-0.320423692464828,0.326404094696045,0,0.015000000000328,-13.728881872061,-3.57317902131017,0.112381795083253,0.052621365669744,0.001231330149689,1.80489736913244,-1.44968442030564,5.335370805792,0.012784415687619,5.52612063342444,0.172503039437331,-0.141938405231011,-0.112833065552681,-0.979903404082923,0.001985887782169,2.01220153232439,0.207677440515467,37.2510196944404,-75.6239254238362
-13.728881872061,-3.57317902131017,0.112381795083253,0.052621365669744,0.001231330149689,1.80489736913244,-1.44968442030564,5.335370805792,0.012784415687619,5.52612063342444,0.172503039437331,-0.141938405231011,-0.112833065552681,-0.979903404082923,-0.099488183856011,0.074086919426918,0,0.039999999999964,-13.7919930035209,-3.36079961006481,0.112376603486085,0.050391380892826,0.00280744828683,1.84899905069259,-1.7097067172864,5.28349855229214,-0.005041841283104,5.54988426329296,0.192973250116425,0.555094042836513,0.053268429717119,-1.29642999233719,-0.055749619423004,0.594090746713668,0.511755266977819,-7.91316470636384,-27.5635509751431
-13.7919930035209,-3.36079961006481,0.112376603486085,0.050391380892826,0.00280744828683,1.84899905069259,-1.7097067172864,5.28349855229214,-0.005041841283104,5.54988426329296,0.192973250116425,0.555094042836513,0.053268429717119,-1.29642999233719,-0.044924788177013,0.009258206002414,0,0.045000000000073,-13.8735254504829,-3.12509358911523,0.111857601794211,0.033163944313625,0.011678343208265,1.89001504633089,-1.90611664589597,5.18004290504026,-0.021301100949313,5.51653852565514,0.184195170355381,0.106433545936841,0.659355374962746,-0.675995060457778,-0.382831923981629,-0.741016391950474,-0.19506843913399,13.7874429306313,-20.2548126608259
-13.8735254504829,-3.12509358911523,0.111857601794211,0.033163944313625,0.011678343208265,1.89001504633089,-1.90611664589597,5.18004290504026,-0.021301100949313,5.51653852565514,0.184195170355381,0.106433545936841,0.659355374962746,-0.675995060457778,-0.019030295312405,0,0,0.0600000000004,-13.9901678587447,-2.81868864856264,0.110247137412783,-0.005494541552897,0.015914422520044,1.90275745429236,-1.90462710947159,5.06598292222395,-0.029909810152053,5.41011938233046,0.149651806975742,-0.290572076699462,-0.214671762940361,0.003767572504818,-0.644308097771063,-1.77365238873282,-0.57572272299014,11.3293772159677,-3.5395577670271
