x_pos,y_pos,z_pos,roll,pitch,yaw,u_x,u_y,u_z,comp_u_x,comp_u_y,roll_mder,pitch_mder,yaw_mder,steer,throttle,brake,time_step,act_x_pos,act_y_pos,act_z_pos,act_roll,act_pitch,act_yaw,act_u_x,act_u_y,act_u_z,act_comp_u_x,act_comp_u_y,act_roll_mder,act_pitch_mder,act_yaw_mder,accel_roll,accel_x,accel_y,accel_yaw
-5.88382523219175,-9.954136366554184,0.10912530290606479,2.5866453904092297e-05,-0.019873538756122945,2.333853201718272,-0.31693292269210804,0.33132587475570546,0.0021225011323865875,0.4585011543088203,6.531672445564407e-05,0.06178803642281493,-0.01986246527629133,-0.02546213875959254,0.0,1.0,0.0,0.01999999999998181,-5.890964600859865,-9.946678982732449,0.10920801182421555,5.006122237962497e-06,-0.020499123818633218,2.333816741863907,-0.39357314261039394,0.4104961370138215,0.005560779450187045,0.5686882462492149,0.0007587262246666615,0.03354724787279459,-0.03713972394731029,-9.192799997898033e-05,-0.0010430165833074385,5.509354597024738,0.0346704750105824,-0.0018229927182494758
-5.890964600859865,-9.946678982732449,0.10920801182421555,5.006122237962497e-06,-0.020499123818633218,2.333816741863907,-0.39357314261039394,0.4104961370138215,0.005560779450187045,0.5686882462492149,0.0007587262246666615,0.03354724787279459,-0.03713972394731029,-9.192799997898033e-05,0.0,1.0,0.0,0.03499999999985448,-5.907120502576886,-9.929791177161286,0.10944511498794748,4.309027793323672e-06,-0.020835595023080765,2.3337660761114294,-0.5268836527013092,0.5492390139874823,0.006959274898405128,0.7610967656669227,0.0012614520066045465,0.03215471246352351,-0.03813031158170057,-0.00017751818313413285,-1.9916984132620686e-05,5.497386269100224,0.014363593769713575,-0.0014475929279338618
-5.907120502576886,-9.929791177161286,0.10944511498794748,4.309027793323672e-06,-0.020835595023080765,2.3337660761114294,-0.5268836527013092,0.5492390139874823,0.006959274898405128,0.7610967656669227,0.0012614520066045465,0.03215471246352351,-0.03813031158170057,-0.00017751818313413285,0.0,1.0,0.0,0.02500000000009095,-5.921516681870321,-9.914774382329442,0.10959521557909085,-1.2585032120823824e-05,-0.020846403098841983,2.3337998308250176,-0.6215292795055737,0.6478820916738804,0.00466909506143647,0.8978015860579073,0.0014703966628231702,0.03256059448294143,-0.027616973459577605,-0.00723060732906915,-0.0006757623965634414,5.468192815619488,0.008357786248714541,0.0013501885435247283
-5.921516681870321,-9.914774382329442,0.10959521557909085,-1.2585032120823824e-05,-0.020846403098841983,2.3337998308250176,-0.6215292795055737,0.6478820916738804,0.00466909506143647,0.8978015860579073,0.0014703966628231702,0.03256059448294143,-0.027616973459577605,-0.00723060732906915,0.0,1.0,0.0,0.03000000000020009,-5.941912081140344,-9.89351987908915,0.10969587263885519,-5.373512074318975e-05,-0.020796397594794503,2.3339678980209824,-0.7334879601450912,0.764535636773039,0.0015818803821504648,1.059488928255241,0.0015932602812022134,0.11534752280861633,-0.12508779896296113,-0.00052859358473851,-0.0013716696207363823,5.389578073208514,0.004095453945940793,0.005602239865453915
-5.941912081140344,-9.89351987908915,0.10969587263885519,-5.373512074318975e-05,-0.020796397594794503,2.3339678980209824,-0.7334879601450912,0.764535636773039,0.0015818803821504648,1.059488928255241,0.0015932602812022134,0.11534752280861633,-0.12508779896296113,-0.00052859358473851,0.0,1.0,0.0,0.02999999999974534,-5.965757604671763,-9.868782861648782,0.10970712694770893,-5.377687683520916e-06,-0.02094265511128148,2.334175028738038,-0.85096542531718,0.88254780031718,-0.0005240991047851182,1.2259735069024131,0.0046621136130928775,0.002370764183595407,-0.006001557479703652,-0.014113670049970368,0.0016119144353359777,5.549485954952842,0.10229511106389048,0.006904357235240954
-5.965757604671763,-9.868782861648782,0.10970712694770893,-5.377687683520916e-06,-0.02094265511128148,2.334175028738038,-0.85096542531718,0.88254780031718,-0.0005240991047851182,1.2259735069024131,0.0046621136130928775,0.002370764183595407,-0.006001557479703652,-0.014113670049970368,0.0,1.0,0.0,0.01999999999998181,-5.983528872667099,-9.85031647568834,0.10968136184157684,2.1615061794456212e-05,-0.02080646624346912,2.334484201297639,-0.9236510473121334,0.9617563366939604,-0.001642189139942029,1.3334550966646501,0.0020033848497615914,-0.08727195418486866,0.0791343833847258,-0.039099005415250285,0.001349637473900084,5.374079488116737,-0.1329364381666852,0.015458627980061328
-5.983528872667099,-9.85031647568834,0.10968136184157684,2.1615061794456212e-05,-0.02080646624346912,2.334484201297639,-0.9236510473121334,0.9617563366939604,-0.001642189139942029,1.3334550966646501,0.0020033848497615914,-0.08727195418486866,0.0791343833847258,-0.039099005415250285,0.0,1.0,0.0,0.01999999999998181,-6.002804339587074,-9.830279398925112,0.10964578792418916,-1.878105087698121e-05,-0.02089830276414762,2.334702317393726,-0.9986912182314724,1.040693028468269,-0.0019668069593241112,1.4423676523985538,0.001297763231304816,0.05168913480707123,-0.031935234040252516,-0.013908316160132998,-0.0020198056335737078,5.445627786700137,-0.035281080922870856,0.010905804804371904
-6.002804339587074,-9.830279398925112,0.10964578792418916,-1.878105087698121e-05,-0.02089830276414762,2.334702317393726,-0.9986912182314724,1.040693028468269,-0.0019668069593241112,1.4423676523985538,0.001297763231304816,0.05168913480707123,-0.031935234040252516,-0.013908316160132998,0.0,1.0,0.0,0.01999999999998181,-6.023562512660036,-9.80864999379067,0.1096110812178693,4.107422968940732e-05,-0.020803398442314224,2.3349434814034784,-1.0725466772008532,1.1193960788262836,-0.0017962857508218577,1.550291560293867,-0.0001847913889748698,-0.009762099580491046,0.045422235826736906,-0.014932803256550428,0.002992764028322148,5.396195394770565,-0.0741277310140517,0.012058200487630042
-6.023562512660036,-9.80864999379067,0.1096110812178693,4.107422968940732e-05,-0.020803398442314224,2.3349434814034784,-1.0725466772008532,1.1193960788262836,-0.0017962857508218577,1.550291560293867,-0.0001847913889748698,-0.009762099580491046,0.045422235826736906,-0.014932803256550428,0.0,1.0,0.0,0.03999999999996362,-6.069521994270641,-9.760658407975084,0.10956818164915103,-0.0002486407657673036,-0.020532713627391418,2.334845205256716,-1.2148352165503251,1.2802743162859673,-0.0004455803442740894,1.7648946151127811,-0.0085980147874688,-0.1794057132756493,0.08987148912399218,0.0017478906022945538,-0.007242874886424359,5.365076370477734,-0.21033058496253954,-0.002456903669059166
-6.069521994270641,-9.760658407975084,0.10956818164915103,-0.0002486407657673036,-0.020532713627391418,2.334845205256716,-1.2148352165503251,1.2802743162859673,-0.0004455803442740894,1.7648946151127811,-0.0085980147874688,-0.1794057132756493,0.08987148912399218,0.0017478906022945538,0.0,1.0,0.0,0.01999999999998181,-6.0946680335413195,-9.734256151816222,0.10956548238656336,0.00010961636029145368,-0.02059762797033166,2.3344541657651865,-1.2977135301146296,1.3526369723812681,-0.00019854844190977244,1.8744822026883483,0.0019123545631070105,-0.16807376813985178,0.1369203827038511,0.019071927497196002,0.017912856302954153,5.479379378783343,0.5255184675292685,-0.019551974576499393
-6.0946680335413195,-9.734256151816222,0.10956548238656336,0.00010961636029145368,-0.02059762797033166,2.3344541657651865,-1.2977135301146296,1.3526369723812681,-0.00019854844190977244,1.8744822026883483,0.0019123545631070105,-0.16807376813985178,0.1369203827038511,0.019071927497196002,0.0,1.0,0.0,0.020000000000436557,-6.121402688609996,-9.70635120144469,0.10957157025078926,-3.502976131279271e-05,-0.020663815835046034,2.3342577319939353,-1.3734050380524625,1.4322022597182258,-3.838236260736427e-05,1.9842985935172521,0.0019501423878569568,-0.20848743840869796,0.1512376950776696,0.014238743437455566,-0.007232306080054453,5.4908195413253384,0.0018893912374560763,-0.009821688562346885
-6.121402688609996,-9.70635120144469,0.10957157025078926,-3.502976131279271e-05,-0.020663815835046034,2.3342577319939353,-1.3734050380524625,1.4322022597182258,-3.838236260736427e-05,1.9842985935172521,0.0019501423878569568,-0.20848743840869796,0.1512376950776696,0.014238743437455566,0.0,1.0,0.0,0.024999999999636202,-6.15698631242887,-9.669294669353421,0.1095873030779905,-3.607799387307963e-06,-0.020921032387468258,2.3342758956631005,-1.467728935126135,1.5305125759782239,0.0011837862126212184,2.1205406481317794,0.002081310848853324,0.15974043995172413,-0.1688501447009206,-0.00041324140732847917,0.0012568784770376797,5.4496821846603964,0.005246738439931032,0.0007265467666179004
-6.15698631242887,-9.669294669353421,0.1095873030779905,-3.607799387307963e-06,-0.020921032387468258,2.3342758956631005,-1.467728935126135,1.5305125759782239,0.0011837862126212184,2.1205406481317794,0.002081310848853324,0.15974043995172413,-0.1688501447009206,-0.00041324140732847917,0.0,1.0,0.0,0.01999999999998181,-6.18715609504957,-9.637904949093159,0.10960253103455256,-0.0001179878381017039,-0.020900716496488198,2.33434254438406,-1.5384200736905962,1.6138838960167883,0.0011816489031853186,2.229649297123108,-0.004643791009132592,0.21455726696732874,-0.14304795834958392,-0.020001883152138984,-0.005719001935724999,5.455432449571394,-0.3362550928996016,0.0033324360479788707
-6.18715609504957,-9.637904949093159,0.10960253103455256,-0.0001179878381017039,-0.020900716496488198,2.33434254438406,-1.5384200736905962,1.6138838960167883,0.0011816489031853186,2.229649297123108,-0.004643791009132592,0.21455726696732874,-0.14304795834958392,-0.020001883152138984,0.0,1.0,0.0,0.01999999999998181,-6.218808440596211,-9.604905577463612,0.10961619618354598,6.342305865801422e-05,-0.02090444709263067,2.3347114290363282,-1.6292553896927977,1.6775823982671936,0.0012782058303383026,2.3384819297904405,0.016065237704952606,0.0978341142700673,-0.23452506375694948,0.016519060526858895,0.009070544837994155,5.441631633371566,1.0354514357052016,0.018444232613429434
-6.218808440596211,-9.604905577463612,0.10961619618354598,6.342305865801422e-05,-0.02090444709263067,2.3347114290363282,-1.6292553896927977,1.6775823982671936,0.0012782058303383026,2.3384819297904405,0.016065237704952606,0.0978341142700673,-0.23452506375694948,0.016519060526858895,0.0,1.0,0.0,0.04500000000007276,-6.2955150606450365,-9.525154186048752,0.10962626557409244,0.0006514442342006352,-0.020368640828216523,2.3351368865953797,-1.788335291476336,1.8545627161627838,-0.00036924128215986424,2.5763328470585938,0.007419170290023924,0.08874450301539559,0.34132617028783574,-0.020293067581990277,0.013067137234259339,5.28557593928375,-0.19213483144254895,0.009454612423349919
-6.2955150606450365,-9.525154186048752,0.10962626557409244,0.0006514442342006352,-0.020368640828216523,2.3351368865953797,-1.788335291476336,1.8545627161627838,-0.00036924128215986424,2.5763328470585938,0.007419170290023924,0.08874450301539559,0.34132617028783574,-0.020293067581990277,0.0,1.0,0.0,0.03000000000020009,-6.3510733337680225,-9.467988846074629,0.10962607319165416,-0.0008881347653000532,-0.02025850945119885,2.334993696864481,-1.896246844667854,1.9719375850021597,-0.00010418034107881335,2.7357393715053213,0.004475070123544533,0.03323824615566087,0.29161245346619785,0.011013001009009116,-0.051319299983013995,5.313550814855478,-0.09813667221532515,-0.004772991029919896
-6.3510733337680225,-9.467988846074629,0.10962607319165416,-0.0008881347653000532,-0.02025850945119885,2.334993696864481,-1.896246844667854,1.9719375850021597,-0.00010418034107881335,2.7357393715053213,0.004475070123544533,0.03323824615566087,0.29161245346619785,0.011013001009009116,-0.00469584297388792,1.0,0.0,0.02500000000009095,-6.399595551922344,-9.417349666534776,0.10962236208608425,4.281688305400766e-05,-0.02041098896711166,2.3351581646429937,-1.9927273560835594,2.065278035881694,-0.000455023655778701,2.8698873577214843,0.00906836090571006,-0.1846591855486363,0.1598689864796261,0.0036481210960515476,0.03723806593402696,5.365919448626998,0.18373163128595266,0.006578711140481855
-6.399595551922344,-9.417349666534776,0.10962236208608425,4.281688305400766e-05,-0.02041098896711166,2.3351581646429937,-1.9927273560835594,2.065278035881694,-0.000455023655778701,2.8698873577214843,0.00906836090571006,-0.1846591855486363,0.1598689864796261,0.0036481210960515476,-0.010984505526721478,1.0,0.0,0.02999999999974534,-6.460967450819781,-9.353505113594558,0.10961774176871883,0.0006096249008378283,-0.020370924552331384,2.335240566611586,-2.096319591566246,2.182833915696079,0.0008936803749591618,3.0264359782919596,0.0022366934389548287,0.2977407013883295,-0.20961173142281628,-0.0598843600522996,0.018893600592954404,5.2182873523934745,-0.2277222488937741,0.0027467322864268206
-6.460967450819781,-9.353505113594558,0.10961774176871883,0.0006096249008378283,-0.020370924552331384,2.335240566611586,-2.096319591566246,2.182833915696079,0.0008936803749591618,3.0264359782919596,0.0022366934389548287,0.2977407013883295,-0.20961173142281628,-0.0598843600522996,-0.0127416318282485,1.0,0.0,0.02500000000009095,-6.514738910758995,-9.297807001011797,0.10961635348741891,1.8280157912299234e-06,-0.02022011134932624,2.336069732420423,-2.1870309561977646,2.2815215242913833,0.00019721626159141525,3.1604484685906913,-0.0032166061217284714,-0.029468403172242058,0.17332598114303405,-0.0799975946806903,-0.024311875401775488,5.360499611929764,-0.21813198242653845,0.03316663235337116
-6.514738910758995,-9.297807001011797,0.10961635348741891,1.8280157912299234e-06,-0.02022011134932624,2.336069732420423,-2.1870309561977646,2.2815215242913833,0.00019721626159141525,3.1604484685906913,-0.0032166061217284714,-0.029468403172242058,0.17332598114303405,-0.0799975946806903,-0.011847655288875103,1.0,0.0,0.05999999999994543,-6.653328478391863,-9.154612269012471,0.10963682270845743,-0.00011301077092509244,-0.020085410674822998,2.3372232801418082,-2.4167571540378296,2.5036763653567022,-0.0028016369705559097,3.4798117425985176,0.004551935000059348,-0.5187226733819287,0.4303771123666825,-0.050740070112185745,-0.0019139797786071136,5.322721233468612,0.12947568536324808,0.019225795356435742
-6.653328478391863,-9.154612269012471,0.10963682270845743,-0.00011301077092509244,-0.020085410674822998,2.3372232801418082,-2.4167571540378296,2.5036763653567022,-0.0028016369705559097,3.4798117425985176,0.004551935000059348,-0.5187226733819287,0.4303771123666825,-0.050740070112185745,-0.025257304310798645,1.0,0.0,0.03000000000020009,-6.727469956581878,-9.07771370881123,0.10964794291289362,0.0001714784701857805,-0.02014016652447172,2.338128966219627,-2.5203658326111467,2.6203674596573165,-0.000535964964754651,3.635731591350777,-0.005034826567053008,-0.22776644494066078,0.24605721339274003,-0.07460934389581231,0.009482974703632517,5.197328291707319,-0.31955871890161386,0.03018953592709647
-6.727469956581878,-9.07771370881123,0.10964794291289362,0.0001714784701857805,-0.02014016652447172,2.338128966219627,-2.5203658326111467,2.6203674596573165,-0.000535964964754651,3.635731591350777,-0.005034826567053008,-0.22776644494066078,0.24605721339274003,-0.07460934389581231,-0.014560411684215069,1.0,0.0,0.03499999999985448,-6.818342325836115,-8.984048175006057,0.10966677310303477,-0.00031988004344317146,-0.019984223032660692,2.338656230562267,-2.656886465169863,2.740142546280765,0.0008740526702255558,3.816721343003895,0.008065519164418777,0.22457526626550894,-0.1857459561284753,-0.050816754824110265,-0.014038814675171284,5.171135761539152,0.3742955923293215,0.015064695504054681
-6.818342325836115,-8.984048175006057,0.10966677310303477,-0.00031988004344317146,-0.019984223032660692,2.338656230562267,-2.656886465169863,2.740142546280765,0.0008740526702255558,3.816721343003895,0.008065519164418777,0.22457526626550894,-0.1857459561284753,-0.050816754824110265,0.0,1.0,0.0,0.03499999999985448,-6.913445190950499,-8.885554974144728,0.10967840268590817,-0.00019304770519723016,-0.020228681772851264,2.3394244512366544,-2.7701340283871727,2.888406249814799,-0.0008680657151811655,4.002032010358953,-0.016522326107782037,0.23552799216268047,-0.07667875177201537,-0.013365070417238244,0.0036237810927562467,5.294590495880806,-0.7025098649229441,0.021949162125449312
-6.913445190950499,-8.885554974144728,0.10967840268590817,-0.00019304770519723016,-0.020228681772851264,2.3394244512366544,-2.7701340283871727,2.888406249814799,-0.0008680657151811655,4.002032010358953,-0.016522326107782037,0.23552799216268047,-0.07667875177201537,-0.013365070417238244,0.0,1.0,0.0,0.03500000000030923,-7.012936578400475,-8.782368311997523,0.10968925973517338,0.0007453367542293809,-0.019680557786460127,2.337676989358267,-2.9099398510627386,3.0019164768131166,-0.0003374680512148731,4.18080126841139,0.012378393063212645,-0.09562132284640398,0.4254767004415965,-0.021157277024645958,0.026810984554809153,5.107693087167363,0.8257348334496954,-0.04992748223920116
-7.012936578400475,-8.782368311997523,0.10968925973517338,0.0007453367542293809,-0.019680557786460127,2.337676989358267,-2.9099398510627386,3.0019164768131166,-0.0003374680512148731,4.18080126841139,0.012378393063212645,-0.09562132284640398,0.4254767004415965,-0.021157277024645958,0.0,1.0,0.0,0.04999999999972715,-7.162997182168285,-8.627241621678461,0.10972114126102142,0.0017171081690668358,-0.019981518221334326,2.3387835823047176,-3.0781807845122953,3.201675524649768,0.0024713366537816306,4.4413762604989735,-0.010000997863020888,0.45571040095356474,0.03979809207939629,-0.24731214779979924,0.019435428296855156,5.211499841780113,-0.44758781852711316,0.02213185892913392
-7.162997182168285,-8.627241621678461,0.10972114126102142,0.0017171081690668358,-0.019981518221334326,2.3387835823047176,-3.0781807845122953,3.201675524649768,0.0024713366537816306,4.4413762604989735,-0.010000997863020888,0.45571040095356474,0.03979809207939629,-0.24731214779979924,0.0,1.0,0.0,0.03999999999996362,-7.290421353718913,-8.497339195258991,0.10978815165324404,-0.00031295750988133777,-0.0202115717252549,2.3405204485810054,-3.2738681982690463,3.3018727549089566,0.0016868205930841845,4.649490233856046,0.053077627346376666,-0.20830220085706727,-0.12676285721850153,0.14081744008437647,-0.0507516419737505,5.202849333931539,1.576965630236373,0.04342165690723384
-7.290421353718913,-8.497339195258991,0.10978815165324404,-0.00031295750988133777,-0.0202115717252549,2.3405204485810054,-3.2738681982690463,3.3018727549089566,0.0016868205930841845,4.649490233856046,0.053077627346376666,-0.20830220085706727,-0.12676285721850153,0.14081744008437647,0.0,1.0,0.0,0.02500000000009095,-7.3729396661958875,-8.413137095686794,0.10980435192187873,-0.002123986897049801,-0.01900162989009114,2.3386146740247384,-3.319778701917992,3.422663502289409,0.0004427795531831008,4.76816878122175,0.011070383670222395,-0.15755424639079849,0.16452419126419557,0.06944303134098928,-0.072441175486475,4.747141894610888,-1.680289747040058,-0.0762309822504006
-7.3729396661958875,-8.413137095686794,0.10980435192187873,-0.002123986897049801,-0.01900162989009114,2.3386146740247384,-3.319778701917992,3.422663502289409,0.0004427795531831008,4.76816878122175,0.011070383670222395,-0.15755424639079849,0.16452419126419557,0.06944303134098928,0.0,1.0,0.0,0.03000000000020009,-7.474070878948482,-8.308191276672105,0.1097902551080964,0.0011377198273198259,-0.0207550857609737,2.3386657358673997,-3.4387586146262414,3.5439452696682596,0.0001712322987561521,4.9380624334693595,0.012177324373192189,0.08470821239171658,-0.1572631303033765,-0.006584224274487029,0.10872355747826243,5.663121741549221,0.036898023432080373,0.001702061422029897
-7.474070878948482,-8.308191276672105,0.1097902551080964,0.0011377198273198259,-0.0207550857609737,2.3386657358673997,-3.4387586146262414,3.5439452696682596,0.0001712322987561521,4.9380624334693595,0.012177324373192189,0.08470821239171658,-0.1572631303033765,-0.006584224274487029,-0.002476315014064312,1.0,0.0,0.03499999999985448,-7.5969913782009,-8.182096060775349,0.10975485014911987,7.955560172793617e-05,-0.02085824577882841,2.3409920077965647,-3.5703285923693953,3.67551127090991,-0.0004752821352405623,5.12412109146015,0.003521381752571884,0.05930680818408399,0.05109646175981557,-0.023686584233657507,-0.030233263588465405,5.315961656901839,-0.24731264630446553,0.06646491226213387
-7.5969913782009,-8.182096060775349,0.10975485014911987,7.955560172793617e-05,-0.02085824577882841,2.3409920077965647,-3.5703285923693953,3.67551127090991,-0.0004752821352405623,5.12412109146015,0.003521381752571884,0.05930680818408399,0.05109646175981557,-0.023686584233657507,-0.00469584297388792,1.0,0.0,0.03499999999985448,-7.724647829639115,-8.051714093631043,0.10978632178297784,6.861634129271689e-05,-0.020415637422366312,2.343205061257172,-3.7219741447855688,3.784585098231054,-0.0016449201092555987,5.30806621871824,0.0246762620155625,0.35068359485051326,0.40232649647305924,-0.04454466135103895,-0.000312550298150422,5.2555750645387045,0.6044251503736735,0.06323009887475703
-7.724647829639115,-8.051714093631043,0.10978632178297784,6.861634129271689e-05,-0.020415637422366312,2.343205061257172,-3.7219741447855688,3.784585098231054,-0.0016449201092555987,5.30806621871824,0.0246762620155625,0.35068359485051326,0.40232649647305924,-0.04454466135103895,-0.005589819513261318,1.0,0.0,0.03000000000020009,-7.837640967120868,-7.93632356673387,0.10978518016418506,0.0005137168053458524,-0.019620486417816687,2.344530362440201,-3.8180101690728203,3.8978714347606274,0.0022869461231344868,5.456239726364215,0.007170879394192475,0.08314416966457241,-0.011562987212135598,-0.14823673655566133,0.014836682135005563,4.939116921499555,-0.5835127540417757,0.04417670610067882
-7.837640967120868,-7.93632356673387,0.10978518016418506,0.0005137168053458524,-0.019620486417816687,2.344530362440201,-3.8180101690728203,3.8978714347606274,0.0022869461231344868,5.456239726364215,0.007170879394192475,0.08314416966457241,-0.011562987212135598,-0.14823673655566133,-0.00469584297388792,1.0,0.0,0.02999999999974534,-7.9540803286793516,-7.8176001596356235,0.10978714607197468,-5.6632954986244254e-05,-0.020647565487735935,2.346804539998509,-3.928506101683253,4.0220037219416485,-0.00011006224449672253,5.622232355839444,-0.013321682592178252,0.2296374074545323,-0.06742355771853953,-0.022536387739435122,-0.01901165867789794,5.533087649221253,-0.6830853995514894,0.07580591861090828
-7.9540803286793516,-7.8176001596356235,0.10978714607197468,-5.6632954986244254e-05,-0.020647565487735935,2.346804539998509,-3.928506101683253,4.0220037219416485,-0.00011006224449672253,5.622232355839444,-0.013321682592178252,0.2296374074545323,-0.06742355771853953,-0.022536387739435122,-0.006514622829854488,1.0,0.0,0.06000000000040018,-8.196933004566812,-7.570550398078535,0.10982829728856056,0.0001787297704546859,-0.01936884447012028,2.346609953262565,-4.163631054461874,4.221060575223646,-0.0016784381052565162,5.928989199181245,0.016217687221493637,-1.3059679436319116,-0.5060762627763786,-0.11696365035155892,0.003922712090656006,5.112614055662597,0.49232283022458123,-0.003243112265716738
-8.196933004566812,-7.570550398078535,0.10982829728856056,0.0001787297704546859,-0.01936884447012028,2.346609953262565,-4.163631054461874,4.221060575223646,-0.0016784381052565162,5.928989199181245,0.016217687221493637,-1.3059679436319116,-0.5060762627763786,-0.11696365035155892,-0.005127417854964733,1.0,0.0,0.03499999999985448,-8.344070379047325,-7.420158284065262,0.1099495740400071,0.0009016876540719533,-0.019022648583323334,2.3480757078670056,-4.2691476652226195,4.3443234410700615,0.008423545922064832,6.09087466647387,-0.0037074807325172543,-0.16374555027553614,0.14728776124477402,-0.05336115114425888,0.020655939532007804,4.625299065522799,-0.5692905129741067,0.04187870298419586
-8.344070379047325,-7.420158284065262,0.1099495740400071,0.0009016876540719533,-0.019022648583323334,2.3480757078670056,-4.2691476652226195,4.3443234410700615,0.008423545922064832,6.09087466647387,-0.0037074807325172543,-0.16374555027553614,0.14728776124477402,-0.05336115114425888,-0.00469584297388792,1.0,0.0,0.02999999999974534,-8.474287651294734,-7.2885461316172595,0.11004794022409112,-0.00021595644358809175,-0.019024526156427735,2.346519460380632,-4.387985088127673,4.434623408162769,0.0032888881092539707,6.238553376173261,0.027380257361682148,0.17841950240607143,-0.3888500319447315,-0.04758342130109752,-0.03725480325565108,4.922623656688145,1.0362579364821098,-0.0518749162128906
-8.474287651294734,-7.2885461316172595,0.11004794022409112,-0.00021595644358809175,-0.019024526156427735,2.346519460380632,-4.387985088127673,4.434623408162769,0.0032888881092539707,6.238553376173261,0.027380257361682148,0.17841950240607143,-0.3888500319447315,-0.04758342130109752,-0.005589819513261318,1.0,0.0,0.03000000000020009,-8.606943369429668,-7.152992332514098,0.11008360650260529,-0.001900677773213179,-0.017762866303984458,2.3473771494786915,-4.457342388327562,4.56833111185963,-0.002480648709334135,6.382558831699267,-0.02220527558883223,-0.9123659442905622,-0.5202836451273334,-0.16352799722493308,-0.05615737765379502,4.800181850834858,-1.6528510983394553,0.028589636601788943
-8.606943369429668,-7.152992332514098,0.11008360650260529,-0.001900677773213179,-0.017762866303984458,2.3473771494786915,-4.457342388327562,4.56833111185963,-0.002480648709334135,6.382558831699267,-0.02220527558883223,-0.9123659442905622,-0.5202836451273334,-0.16352799722493308,-0.0038018664345145226,1.0,0.0,0.03499999999985448,-8.76524484034886,-6.9901395613063,0.11008023391116792,0.0015058592617731364,-0.021090693187466234,2.344854951390004,-4.614370221965113,4.708326079425007,-0.0022623109627805116,6.592471299257784,0.008317692853375469,-0.011422445255239277,-0.25520383899379423,0.15202685285037137,0.09732962957144224,5.997499073125406,0.8720848126381315,-0.07206280253423071
-8.76524484034886,-6.9901395613063,0.11008023391116792,0.0015058592617731364,-0.021090693187466234,2.344854951390004,-4.614370221965113,4.708326079425007,-0.0022623109627805116,6.592471299257784,0.008317692853375469,-0.011422445255239277,-0.25520383899379423,0.15202685285037137,-0.00469584297388792,1.0,0.0,0.03500000000030923,-8.928915971297567,-6.823947423619887,0.110035797080894,-0.002386132098602813,-0.017822637029982307,2.3455998131488633,-4.720379527905412,4.806435849116164,0.0040664646984254205,6.736742369251539,0.010521856713864075,-0.2209155604673287,0.2721059090225418,0.024644038362475997,-0.1111997531526161,4.122030571213738,0.06297611029911805,0.02128176453865371
-8.928915971297567,-6.823947423619887,0.110035797080894,-0.002386132098602813,-0.017822637029982307,2.3455998131488633,-4.720379527905412,4.806435849116164,0.0040664646984254205,6.736742369251539,0.010521856713864075,-0.2209155604673287,0.2721059090225418,0.024644038362475997,-0.0038018664345145226,1.0,0.0,0.05999999999994543,-9.218791671524484,-6.52853236449442,0.11000351979228526,-0.002800657674274045,-0.020908579552339643,2.342769597702865,-4.925483625075985,5.050600235227333,0.004344877370374395,7.054708554862102,0.006235617493443257,0.8148200355742504,-0.9081428948887657,0.036803443426549697,-0.006908759594526814,5.299436426847531,-0.07143732034041193,-0.04717025743334729
-9.218791671524484,-6.52853236449442,0.11000351979228526,-0.002800657674274045,-0.020908579552339643,2.342769597702865,-4.925483625075985,5.050600235227333,0.004344877370374395,7.054708554862102,0.006235617493443257,0.8148200355742504,-0.9081428948887657,0.036803443426549697,-0.008271749131381512,1.0,0.0,0.02999999999974534,-9.36812039588977,-6.375402031630737,0.11003811657892215,-2.8243494146542668e-05,-0.019110196086191755,2.3439839849939084,-5.031287084757229,5.144497245462215,-0.002070206687012771,7.195807155801136,0.007811167287612886,-0.5855438821539041,-0.18669636442219492,0.016280904298061796,0.09241380600503454,4.703286698007726,0.05251832647276675,0.040479576368453084
-9.36812039588977,-6.375402031630737,0.11003811657892215,-2.8243494146542668e-05,-0.019110196086191755,2.3439839849939084,-5.031287084757229,5.144497245462215,-0.002070206687012771,7.195807155801136,0.007811167287612886,-0.5855438821539041,-0.18669636442219492,0.016280904298061796,-0.0020447401329874992,1.0,0.0,0.03500000000030923,-9.546735999454137,-6.192607681259813,0.10999318826854476,0.0025774042955061345,-0.021494960335872143,2.344832642189497,-5.189580246934201,5.266418296459264,0.0035092456710809072,7.393647566090003,0.029672901811731656,0.4994238665346066,-0.6594554324764688,-0.01126850821324817,0.07444707970370446,5.652583151060548,0.6246209863978749,0.024247348445173653
-9.546735999454137,-6.192607681259813,0.10999318826854476,0.0025774042955061345,-0.021494960335872143,2.344832642189497,-5.189580246934201,5.266418296459264,0.0035092456710809072,7.393647566090003,0.029672901811731656,0.4994238665346066,-0.6594554324764688,-0.01126850821324817,-0.006514622829854488,1.0,0.0,0.03499999999985448,-9.729724525547809,-6.005550610653148,0.11011954437762883,-0.0020493359408283135,-0.01963858087619856,2.3416458555142894,-5.26637747679215,5.424261498168515,0.00018729487003815715,7.5602474691015065,-0.0016536387917764905,0.14020803514457217,0.03506667386825812,-0.29894269620079017,-0.13219257818153382,4.759997228919891,-0.8950440172468112,-0.09105104786345151
-9.729724525547809,-6.005550610653148,0.11011954437762883,-0.0020493359408283135,-0.01963858087619856,2.3416458555142894,-5.26637747679215,5.424261498168515,0.00018729487003815715,7.5602474691015065,-0.0016536387917764905,0.14020803514457217,0.03506667386825812,-0.29894269620079017,-0.006514622829854488,1.0,0.0,0.03999999999996362,-9.943870336961771,-5.785443621887444,0.11009626531355574,-0.0004197332132928041,-0.01880387313714028,2.343842706050559,-5.438050812525296,5.544784646089557,-0.002755593587037697,7.766377210957419,0.0204555185410622,-0.41166352248352067,0.1068701067005108,0.1446230652841836,0.04074006818842479,5.153243546402499,0.55272893332147,0.054921263406787484
-9.943870336961771,-5.785443621887444,0.11009626531355574,-0.0004197332132928041,-0.01880387313714028,2.343842706050559,-5.438050812525296,5.544784646089557,-0.002755593587037697,7.766377210957419,0.0204555185410622,-0.41166352248352067,0.1068701067005108,0.1446230652841836,-0.006514622829854488,1.0,0.0,0.06500000000005457,-10.304550213773995,-5.4160811045131805,0.11026452229773787,0.003629346371609274,-0.01983415255328607,2.3483209584292437,-5.714418360736861,5.771719182392185,-0.004358762682952461,8.121993013323415,0.02343103595857432,-0.916120298770799,0.33228448505545477,0.3146999156418392,0.06229353207536428,5.471012344087654,0.045777191038609555,0.0688961904412471
-10.304550213773995,-5.4160811045131805,0.11026452229773787,0.003629346371609274,-0.01983415255328607,2.3483209584292437,-5.714418360736861,5.771719182392185,-0.004358762682952461,8.121993013323415,0.02343103595857432,-0.916120298770799,0.33228448505545477,0.3146999156418392,-0.001119936816394329,1.0,0.0,0.03999999999996362,-10.535381895862333,-5.183064628427591,0.11044959352827588,-0.008063396298666732,-0.021478914920647425,2.3384270215455127,-5.810183806910725,5.92285117320126,0.007732191351501078,8.296614521372277,0.06774491666404803,-0.3076599148475657,-0.06028343189291851,0.07933668308690511,-0.29231856675716605,4.365537701225515,1.1078470176378503,-0.2473484220934992
-10.535381895862333,-5.183064628427591,0.11044959352827588,-0.008063396298666732,-0.021478914920647425,2.3384270215455127,-5.810183806910725,5.92285117320126,0.007732191351501078,8.296614521372277,0.06774491666404803,-0.3076599148475657,-0.06028343189291851,0.07933668308690511,-0.005589819513261318,1.0,0.0,0.03000000000020009,-10.710330492675125,-5.00226411105332,0.11075408463381506,-0.006744149625646881,-0.022626521482322137,2.3363723150943914,-5.8732193478774,6.116806078138148,0.008109746596697581,8.479976697078484,-0.004162071011916346,-0.13897405115337602,0.26622335198482494,0.030968622192242244,0.04397488910036841,6.112072523499489,-2.396899589182826,-0.06849021503692251
-10.710330492675125,-5.00226411105332,0.11075408463381506,-0.006744149625646881,-0.022626521482322137,2.3363723150943914,-5.8732193478774,6.116806078138148,0.008109746596697581,8.479976697078484,-0.004162071011916346,-0.13897405115337602,0.26622335198482494,0.030968622192242244,-0.005589819513261318,1.0,0.0,0.06999999999970896,-11.13103760065487,-4.568277274293731,0.11084101376821234,0.0015584874016913392,-0.016854076354286665,2.3442054096305722,-6.145195377258254,6.265316025132658,-0.01785299751263139,8.775944393081389,0.020276316322932253,0.17515747651964983,0.329434811557406,0.3690829526622266,0.11860910039103914,4.228109942916212,0.3491198190707172,0.11190135051733471
-11.13103760065487,-4.568277274293731,0.11084101376821234,0.0015584874016913392,-0.016854076354286665,2.3442054096305722,-6.145195377258254,6.265316025132658,-0.01785299751263139,8.775944393081389,0.020276316322932253,0.17515747651964983,0.329434811557406,0.3690829526622266,-0.006514622829854488,0.7817463874816895,0.0,0.03499999999985448,-11.348787746038889,-4.346264705270887,0.11051392777398,-0.000428610627488117,-0.017411892985376588,2.340650314239279,-6.243648828581217,6.422122917533752,-0.007454972721945452,8.956932725071638,0.01302386642261677,0.24541988155086278,-0.11305221814108796,-0.11368551216328293,-0.05677422940536337,5.171095199742918,-0.2072128542955896,-0.10157415403736693
-11.348787746038889,-4.346264705270887,0.11051392777398,-0.000428610627488117,-0.017411892985376588,2.340650314239279,-6.243648828581217,6.422122917533752,-0.007454972721945452,8.956932725071638,0.01302386642261677,0.24541988155086278,-0.11305221814108796,-0.11368551216328293,-0.005589819513261318,0.1406419277191162,0.0,0.04000000000041837,-11.598858113834577,-4.088395838927646,0.11058538853448521,0.0030832897038034573,7.389177142846717e-05,2.3420107238549446,-6.2647664672989585,6.433497311435208,0.0017680050932821166,8.979817464069718,0.00805344808108277,-0.37699435689710425,0.42761065003068033,-0.22522336852690952,0.08779750828137106,0.5721184749460153,-0.12426045853705033,0.03401024039127964
-11.598858113834577,-4.088395838927646,0.11058538853448521,0.0030832897038034573,7.389177142846717e-05,2.3420107238549446,-6.2647664672989585,6.433497311435208,0.0017680050932821166,8.979817464069718,0.00805344808108277,-0.37699435689710425,0.42761065003068033,-0.22522336852690952,-0.005589819513261318,0.006699583493173122,0.0,0.03499999999985448,-11.817308198579177,-3.863665891493744,0.11060503202693164,-0.00022668996671914137,0.012711411322859125,2.3424754070664164,-6.220491729897865,6.37967068726977,0.0041984689276939186,8.910365968176741,0.00968260784381858,0.3271629329014898,-0.011819327841617745,-0.1460573706665627,-0.0945708477296103,-1.9843284540933153,0.04654742179264525,0.013276663184965523
-11.817308198579177,-3.863665891493744,0.11060503202693164,-0.00022668996671914137,0.012711411322859125,2.3424754070664164,-6.220491729897865,6.37967068726977,0.0041984689276939186,8.910365968176741,0.00968260784381858,0.3271629329014898,-0.011819327841617745,-0.1460573706665627,-0.005589819513261318,-0.0,0.0,0.02500000000009095,-11.972572177150226,-3.704507730507825,0.11083744197169429,0.00041136075351759846,0.014360443559375342,2.34604914989649,-6.202691445661342,6.3368264936773935,-0.000668798477519772,8.867284098791604,-0.004887982169972993,0.04715586712808106,-0.1108133198962539,-0.2090195808663458,0.025522028809376745,-1.7232747753992164,-0.5828236005495426,0.14294971320242886
-11.972572177150226,-3.704507730507825,0.11083744197169429,0.00041136075351759846,0.014360443559375342,2.34604914989649,-6.202691445661342,6.3368264936773935,-0.000668798477519772,8.867284098791604,-0.004887982169972993,0.04715586712808106,-0.1108133198962539,-0.2090195808663458,-0.005589819513261318,-0.0,0.0,0.03999999999996362,-12.220027095780203,-3.4520837908613573,0.11070793931878983,0.0003253771883537099,0.01414074075258575,2.3449627627092235,-6.151724767925534,6.281353664696089,0.0027049814862430827,8.79198903935566,0.007086123721654403,0.2705988929682015,-0.552167414681267,0.1687244323472233,-0.0021495891290991688,-1.88237648590033,0.2993526472909572,-0.02715967968169003
-12.220027095780203,-3.4520837908613573,0.11070793931878983,0.0003253771883537099,0.01414074075258575,2.3449627627092235,-6.151724767925534,6.281353664696089,0.0027049814862430827,8.79198903935566,0.007086123721654403,0.2705988929682015,-0.552167414681267,0.1687244323472233,-0.005589819513261318,-0.0,0.0,0.03499999999985448,-12.434659429301789,-3.233306265017981,0.11104382520614836,0.004345694290111098,0.016881061346003024,2.3415464634233727,-6.107574021140999,6.198040912991185,0.028551882098347692,8.701387275580494,0.06349065438993229,1.1834223744134558,-0.5592066738248089,-0.07973810749036994,0.11486620290783152,-2.5886218221583417,1.6115580191003542,-0.09760855102471595
-12.434659429301789,-3.233306265017981,0.11104382520614836,0.004345694290111098,0.016881061346003024,2.3415464634233727,-6.107574021140999,6.198040912991185,0.028551882098347692,8.701387275580494,0.06349065438993229,1.1834223744134558,-0.5592066738248089,-0.07973810749036994,-0.005589819513261318,-0.0,0.0,0.03499999999985448,-12.648720321456048,-3.0174916686815583,0.1113399392237491,9.225479840309787e-05,0.01976295386661997,2.3413354967591395,-6.103746613179513,6.13810918215952,-0.006214352526852096,8.655704684597838,0.10432383736435824,-0.5094890435295661,-0.24695930300316343,-0.019888823154486555,-0.12152684262073385,-1.3052168852241675,1.166662370702735,-0.006027618978114992
-12.648720321456048,-3.0174916686815583,0.1113399392237491,9.225479840309787e-05,0.01976295386661997,2.3413354967591395,-6.103746613179513,6.13810918215952,-0.006214352526852096,8.655704684597838,0.10432383736435824,-0.5094890435295661,-0.24695930300316343,-0.019888823154486555,-0.005589819513261318,-0.0,0.0,0.03500000000030923,-12.860694676583968,-2.8025427904159685,0.11088247035538581,0.00026614159938022174,0.018012097576843186,2.348929644106171,-6.020509535200151,6.132636299032608,-0.01972594974555092,8.593921049992385,-0.01685307527169133,0.22453854071464968,0.32686078034318605,-0.2768671241485833,0.004968194313588216,-1.7652467029973402,-3.462197503856542,0.21697563848469917
-12.860694676583968,-2.8025427904159685,0.11088247035538581,0.00026614159938022174,0.018012097576843186,2.348929644106171,-6.020509535200151,6.132636299032608,-0.01972594974555092,8.593921049992385,-0.01685307527169133,0.22453854071464968,0.32686078034318605,-0.2768671241485833,-0.010984505526721478,-0.3397212624549866,0.3397212624549866,0.02999999999974534,-13.041112517124343,-2.620084275005921,0.11044920526638885,0.0029924186061114967,0.02163265334952428,2.350391991874815,-6.011560507164174,6.029359425717355,-0.004126919090058273,8.514145832454126,0.03681792344449164,-0.32873469234209424,-0.2670379573137825,-0.09464939235138317,0.09087590022514724,-2.659173917964543,1.789033290554619,0.048744925621871604
-13.041112517124343,-2.620084275005921,0.11044920526638885,0.0029924186061114967,0.02163265334952428,2.350391991874815,-6.011560507164174,6.029359425717355,-0.004126919090058273,8.514145832454126,0.03681792344449164,-0.32873469234209424,-0.2670379573137825,-0.09464939235138317,-0.0127416318282485,-1.0,1.0,0.03000000000020009,-13.219252346495448,-2.440748507572803,0.11054905511290172,-0.004136144799566915,0.03380977791231222,2.3427450514358688,-5.857897674167334,5.936557074639392,0.018833164311533923,8.339932692942476,0.056548551310750206,0.0860561159582408,-0.526911659627974,0.40469399305742726,-0.23761878018769558,-5.807104650349609,0.6576875955375656,-0.25489801462983636
-13.219252346495448,-2.440748507572803,0.11054905511290172,-0.004136144799566915,0.03380977791231222,2.3427450514358688,-5.857897674167334,5.936557074639392,0.018833164311533923,8.339932692942476,0.056548551310750206,0.0860561159582408,-0.526911659627974,0.40469399305742726,-0.0127416318282485,-1.0,1.0,0.06999999999970896,-13.617106880187837,-2.037618803304746,0.11089413430441139,-0.0014621281972323234,0.04410265033285352,2.322615344217471,-5.497569170950278,5.585852981387315,0.013095626266534377,7.834840766410702,0.20072489642653446,0.9101455717075853,-0.35999974902311577,0.08482376818700277,0.03820023717636727,-7.215598950483916,2.0596620730911956,-0.28756724597830857
-13.617106880187837,-2.037618803304746,0.11089413430441139,-0.0014621281972323234,0.04410265033285352,2.322615344217471,-5.497569170950278,5.585852981387315,0.013095626266534377,7.834840766410702,0.20072489642653446,0.9101455717075853,-0.35999974902311577,0.08482376818700277,-0.018136318773031235,-1.0,1.0,0.03000000000020009,-13.78023594259148,-1.8723271071191145,0.110957915718642,0.0005023011478060523,0.04859387036905033,2.327388367783526,-5.355495693594284,5.415673960352331,0.011053392630139824,7.614432921126342,0.1768328550145255,-0.7210129652056636,-0.27921593378472864,-0.12331582961925375,0.06548097816750913,-7.34692817609632,-0.7964013803949869,0.1591007855341063
-13.78023594259148,-1.8723271071191145,0.110957915718642,0.0005023011478060523,0.04859387036905033,2.327388367783526,-5.355495693594284,5.415673960352331,0.011053392630139824,7.614432921126342,0.1768328550145255,-0.7210129652056636,-0.27921593378472864,-0.12331582961925375,-0.016317538917064667,-1.0,1.0,0.03999999999996362,-13.9908358493993,-1.6579519582647817,0.11095651680807964,-0.0005000505736175206,0.04516408358915332,2.3322497576354775,-5.159270717355716,5.261314520358569,-0.0005648837909644766,7.36808181831016,0.10428391912151547,0.5328628438451187,-0.19286230157057943,-0.13338133047819092,-0.025058793035612113,-6.158777570410152,-1.8137233973269005,0.12153474629890089
-13.9908358493993,-1.6579519582647817,0.11095651680807964,-0.0005000505736175206,0.04516408358915332,2.3322497576354775,-5.159270717355716,5.261314520358569,-0.0005648837909644766,7.36808181831016,0.10428391912151547,0.5328628438451187,-0.19286230157057943,-0.13338133047819092,-0.019461870193481445,-1.0,1.0,0.03000000000020009,-14.143469789449906,-1.5024110199964829,0.11079404479171182,-0.000344363820086441,0.04382226740152797,2.334157561898544,-5.02801081895097,5.114804120441297,-0.022443937100675937,7.171664169742293,0.09668000003036159,-1.0378017470103507,0.08470914071565075,-0.32479646106528115,0.005189558451001374,-6.547254952218574,-0.2534639697034387,0.06359347543512486
-14.143469789449906,-1.5024110199964829,0.11079404479171182,-0.000344363820086441,0.04382226740152797,2.334157561898544,-5.02801081895097,5.114804120441297,-0.022443937100675937,7.171664169742293,0.09668000003036159,-1.0378017470103507,0.08470914071565075,-0.32479646106528115,-0.019030295312404633,-1.0,1.0,0.03499999999985448,-14.315339755870873,-1.3259526946590003,0.1105031727030382,0.0009444877579710916,0.04460931647143071,2.3268016336110615,-4.843356729146668,4.948699962461084,-0.020979480653637084,6.923228057301465,0.12903096847825335,-1.3410023834373335,0.7257914019831586,-0.144941929073119,0.03682433080179689,-7.098174641196029,0.9243133842293219,-0.2101693796432292
-14.315339755870873,-1.3259526946590003,0.1105031727030382,0.0009444877579710916,0.04460931647143071,2.3268016336110615,-4.843356729146668,4.948699962461084,-0.020979480653637084,6.923228057301465,0.12903096847825335,-1.3410023834373335,0.7257914019831586,-0.144941929073119,-0.015423561446368694,-1.0,1.0,0.03000000000020009,-14.45826686324575,-1.1798049092700882,0.11045020073774964,-0.0027196102682086457,0.04426026503712486,2.327918598562068,-4.675941181649356,4.822422877696386,-0.009347871043422606,6.716601239710672,0.08634889860875417,-0.3275369102971351,0.6154094567285807,0.008367918545731634,-0.1221366008718433,-6.887560586313838,-1.4227356623071503,0.03723216503329592
-14.45826686324575,-1.1798049092700882,0.11045020073774964,-0.0027196102682086457,0.04426026503712486,2.327918598562068,-4.675941181649356,4.822422877696386,-0.009347871043422606,6.716601239710672,0.08634889860875417,-0.3275369102971351,0.6154094567285807,0.008367918545731634,-0.017211515456438065,-1.0,1.0,0.02999999999974534,-14.596310226533303,-1.0372597813898927,0.11051597949418779,0.0010658277480359404,0.04267203132569866,2.327793864545368,-4.546258502712805,4.683063380040293,-0.0032659354161125864,6.526231281745216,0.08862421865994019,0.39935377776177483,-0.11214044115780819,-0.0091974858131795,0.12618126720922396,-6.345665265569061,0.07584400170684465,-0.004157800556697925
-14.596310226533303,-1.0372597813898927,0.11051597949418779,0.0010658277480359404,0.04267203132569866,2.327793864545368,-4.546258502712805,4.683063380040293,-0.0032659354161125864,6.526231281745216,0.08862421865994019,0.39935377776177483,-0.11214044115780819,-0.0091974858131795,-0.019030295312404633,-1.0,1.0,0.03499999999985448,-14.752015218753336,-0.8764212407320026,0.11038252134159682,0.00010352095519451098,0.04565790374170931,2.3339149058901785,-4.362382126397777,4.512111155730738,0.006479938680405806,6.27601564148571,0.0339494655522552,0.3854417177067575,-0.17536410349450837,-0.2749649767515103,-0.027494479795583723,-7.149018293158458,-1.5621358030832089,0.1748868955667416
-14.752015218753336,-0.8764212407320026,0.11038252134159682,0.00010352095519451098,0.04565790374170931,2.3339149058901785,-4.362382126397777,4.512111155730738,0.006479938680405806,6.27601564148571,0.0339494655522552,0.3854417177067575,-0.17536410349450837,-0.2749649767515103,-0.018136318773031235,-1.0,1.0,0.04000000000041837,-14.922607387881747,-0.6996899729085128,0.11028706414989084,-0.0006819531191741136,0.043711018501822164,2.3327644180607723,-4.183481415953249,4.320834849302985,-0.00571245855371888,6.01408458015649,0.043786017189029636,-0.48187297617982805,-0.1918941291924014,0.2701790832453957,-0.01963685185901023,-6.548276533162,0.2459137909167889,-0.028762195734853876
-14.922607387881747,-0.6996899729085128,0.11028706414989084,-0.0006819531191741136,0.043711018501822164,2.3327644180607723,-4.183481415953249,4.320834849302985,-0.00571245855371888,6.01408458015649,0.043786017189029636,-0.48187297617982805,-0.1918941291924014,0.2701790832453957,-0.019893445074558258,-1.0,1.0,0.05999999999994543,-15.164034343035992,-0.4488549910489376,0.11022678767089769,0.0006014218374456196,0.044662124996457934,2.32781745701734,-3.8740251895063604,4.040106676106836,-0.0071752539154840145,5.597215375578962,0.04139036887106906,-0.46275637006922077,0.3652932949891573,0.11955141945771075,0.02138958261034834,-6.947820076298459,-0.039927471966045895,-0.08244935072394641
-15.164034343035992,-0.4488549910489376,0.11022678767089769,0.0006014218374456196,0.044662124996457934,2.32781745701734,-3.8740251895063604,4.040106676106836,-0.0071752539154840145,5.597215375578962,0.04139036887106906,-0.46275637006922077,0.3652932949891573,0.11955141945771075,-0.019030295312404633,-1.0,1.0,0.02999999999974534,-15.27830386533355,-0.32982137483852697,0.11019225462045643,-0.001821511769096545,0.04382797601669917,2.32583104415164,-3.7267168776711097,3.912530591273709,-0.0023639868880300507,5.40326267619208,0.03266138455279366,-0.2685646236872475,-0.12077371887271647,0.24635743306363234,-0.08076445355209107,-6.465089979617616,-0.29096614394498327,-0.06621376219055852
-15.27830386533355,-0.32982137483852697,0.11019225462045643,-0.001821511769096545,0.04382797601669917,2.32583104415164,-3.7267168776711097,3.912530591273709,-0.0023639868880300507,5.40326267619208,0.03266138455279366,-0.2685646236872475,-0.12077371887271647,0.24635743306363234,-0.019030295312404633,-1.0,1.0,0.06500000000005457,-15.510951502583387,-0.08560659427635167,0.11016806507715413,0.00014343379359048276,0.04255561447996985,2.3228781041440554,-3.4306963714237226,3.6084430743466176,0.0009013427383772199,4.978847692598118,0.04018292685158409,0.2468361659788843,-0.43732798413348395,0.07605342624813141,0.0302299317336212,-6.529461286055464,0.11571603536590945,-0.0454298462704961
-15.510951502583387,-0.08560659427635167,0.11016806507715413,0.00014343379359048276,0.04255561447996985,2.3228781041440554,-3.4306963714237226,3.6084430743466176,0.0009013427383772199,4.978847692598118,0.04018292685158409,0.2468361659788843,-0.43732798413348395,0.07605342624813141,-0.019030295312404633,-1.0,1.0,0.03999999999996362,-15.644174850466644,0.05517261501479739,0.11008271399263966,-0.000480786726599494,0.042725196761501986,2.3264079488807825,-3.2398729086858706,3.4313543257706596,0.00016782902713646797,4.71920993639722,0.005152633443743504,0.14135775038638215,-0.29580521804775717,-0.030197637284117226,-0.015605513004763613,-6.490943905028354,-0.8757573351968111,0.08824611841825845
-15.644174850466644,0.05517261501479739,0.11008271399263966,-0.000480786726599494,0.042725196761501986,2.3264079488807825,-3.2398729086858706,3.4313543257706596,0.00016782902713646797,4.71920993639722,0.005152633443743504,0.14135775038638215,-0.29580521804775717,-0.030197637284117226,-0.018814507871866226,-0.08533868938684464,0.08533868938684464,0.03999999999996362,-15.770732281324936,0.18941126932078975,0.10991868064440405,0.00020458573190076362,0.03094483708432749,2.32784672390749,-3.1283362874497236,3.303243236809111,-0.012142337457052704,4.549491838046617,0.005274888346606055,0.060455931707977584,-0.10124556581304457,0.014545236503315375,0.017134311462522023,-4.2429524587689516,0.00305637257156655,0.035969375667720925
-15.770732281324936,0.18941126932078975,0.10991868064440405,0.00020458573190076362,0.03094483708432749,2.32784672390749,-3.1283362874497236,3.303243236809111,-0.012142337457052704,4.549491838046617,0.005274888346606055,0.060455931707977584,-0.10124556581304457,0.014545236503315375,-0.018814507871866226,-0.03163844719529152,0.03163844719529152,0.03000000000020009,-15.864120677313695,0.28784454769824147,0.10959367235159154,-0.00016808083277322416,0.021152487839750576,2.327423665289485,-3.0928477123405838,3.266227180506075,-0.009787260346257404,4.4982108294894685,0.006804400834617752,0.22161681019301102,-0.30672716442448006,0.02852164812682091,-0.012422218822383408,-1.7093669518935404,0.050983749600049866,-0.014101953933411904
-15.864120677313695,0.28784454769824147,0.10959367235159154,-0.00016808083277322416,0.021152487839750576,2.327423665289485,-3.0928477123405838,3.266227180506075,-0.009787260346257404,4.4982108294894685,0.006804400834617752,0.22161681019301102,-0.30672716442448006,0.02852164812682091,-0.018814507871866226,-0.021958839148283005,0.021958839148283005,0.02500000000009095,-15.941043078446457,0.3693249420550411,0.10937199898584918,1.8476411840731247e-05,0.01779643547036139,2.3271802004539293,-3.0651296534456325,3.2487311606051406,-0.005796370967352929,4.466461001993325,-0.0002529651063167826,0.05373611813318516,-0.10765792182754419,0.013717924794287727,0.007462289784531068,-1.2699930998411073,-0.28229463763635443,-0.0097385934221884
-15.941043078446457,0.3693249420550411,0.10937199898584918,1.8476411840731247e-05,0.01779643547036139,2.3271802004539293,-3.0651296534456325,3.2487311606051406,-0.005796370967352929,4.466461001993325,-0.0002529651063167826,0.05373611813318516,-0.10765792182754419,0.013717924794287727,-0.018814507871866226,-0.02017088606953621,0.02017088606953621,0.03499999999985448,-16.047824520185898,0.48225013909041553,0.1092764053114868,-5.009559124909683e-05,0.01540717927654626,2.3272770119221704,-3.033440689040566,3.2108218506102078,0.0021591421666272564,4.417140945670415,0.0022883104548356847,0.03264134217976331,-0.14802326755041853,0.01657751805381607,-0.0019592000882889477,-1.4091444663747328,0.07260787317608666,0.002766041949758429
-16.047824520185898,0.48225013909041553,0.1092764053114868,-5.009559124909683e-05,0.01540717927654626,2.3272770119221704,-3.033440689040566,3.2108218506102078,0.0021591421666272564,4.417140945670415,0.0022883104548356847,0.03264134217976331,-0.14802326755041853,0.01657751805381607,0.22353513538837433,-0.004325921647250652,0.004325921647250652,0.03499999999985448,-16.153482300914472,0.5938286012248678,0.10944308137535969,-0.00021075999107747677,0.014850691853360411,2.327946195087529,-3.001833347067118,3.168179532700614,0.007838218086502036,4.364439606658697,0.005649319971451128,0.012185293515359234,-0.20292651534370057,-0.0022166736491445703,-0.004590411423687084,-1.5057525431982073,0.09602884333226906,0.019119519010327744
-16.153482300914472,0.5938286012248678,0.10944308137535969,-0.00021075999107747677,0.014850691853360411,2.327946195087529,-3.001833347067118,3.168179532700614,0.007838218086502036,4.364439606658697,0.005649319971451128,0.012185293515359234,-0.20292651534370057,-0.0022166736491445703,0.45818856358528137,-0.0,0.0,0.03999999999996362,-16.272507420851227,0.7200163732728958,0.10964515974759279,-0.00018758592827765915,0.014681374251775941,2.327081014172907,-2.946081592056007,3.1443761768447036,0.006231309252234057,4.308860573300787,-0.014793526076628538,0.09323128125049651,-0.12627143504677277,0.09998110001277896,0.0005793515699959672,-1.3894758339489923,-0.5110711512024565,-0.021629522865571314
-16.272507420851227,0.7200163732728958,0.10964515974759279,-0.00018758592827765915,0.014681374251775941,2.327081014172907,-2.946081592056007,3.1443761768447036,0.006231309252234057,4.308860573300787,-0.014793526076628538,0.09323128125049651,-0.12627143504677277,0.09998110001277896,0.4856860339641571,-0.0,0.0,0.02500000000009095,-16.345748797689314,0.7984680631030215,0.10971708083021667,-0.00012249516000862302,0.014072840980236659,2.324766474617895,-2.9176184049490694,3.1297597599687332,-0.0006439316246781984,4.278744100161501,-0.01556397604225035,0.014918668462760368,0.023770727845527164,0.06057942816559593,0.0026036307307519733,-1.2046589255670754,-0.03081799862476033,-0.09258158220014037
-16.345748797689314,0.7984680631030215,0.10971708083021667,-0.00012249516000862302,0.014072840980236659,2.324766474617895,-2.9176184049490694,3.1297597599687332,-0.0006439316246781984,4.278744100161501,-0.01556397604225035,0.014918668462760368,0.023770727845527164,0.06057942816559593,0.48374396562576294,-0.0,0.0,0.02500000000009095,-16.417700450631337,0.8768246530665497,0.10978563044220313,-0.003855085490279028,0.014929381983052074,2.3164109009954053,-2.8354805707644304,3.1416634791847198,0.004280457582445052,4.2317458696689325,-0.048232542598832584,-0.046416734393005414,-0.25827974132577775,0.406753279486362,-0.14930361321027305,-1.8799292196958992,-1.3067426622585354,-0.3342229448983778
-16.417700450631337,0.8768246530665497,0.10978563044220313,-0.003855085490279028,0.014929381983052074,2.3164109009954053,-2.8354805707644304,3.1416634791847198,0.004280457582445052,4.2317458696689325,-0.048232542598832584,-0.046416734393005414,-0.25827974132577775,0.406753279486362,0.4856860339641571,-0.016656633466482162,0.016656633466482162,0.03999999999996362,-16.528308483946162,1.0035516472611328,0.1101002695366804,-0.01707337418772717,0.014641351760926164,2.288550477368663,-2.68668923310362,3.201805325232215,0.012236124303508768,4.178891912329326,-0.0819680488290051,0.2014694974515305,0.015229021581307303,0.7969905071552877,-0.3304572174365041,-1.3213489334913646,-0.84338765575508,-0.6965105906691866
-16.528308483946162,1.0035516472611328,0.1101002695366804,-0.01707337418772717,0.014641351760926164,2.288550477368663,-2.68668923310362,3.201805325232215,0.012236124303508768,4.178891912329326,-0.0819680488290051,0.2014694974515305,0.015229021581307303,0.7969905071552877,0.48765894770622253,-0.0280933678150177,0.0280933678150177,0.03000000000020009,-16.606504077839265,1.1004374843250073,0.11056778667986114,-0.028478148855327273,0.01590995874551754,2.260486188361123,-2.52737715559271,3.260271211609081,0.01946208935821124,4.123279608777399,-0.12477550921288794,0.03783057890254549,-0.16778640231225703,0.9589424344521865,-0.3801591555841346,-1.8537434517185263,-1.4269153461199109,-0.9354763002451011
-16.606504077839265,1.1004374843250073,0.11056778667986114,-0.028478148855327273,0.01590995874551754,2.260486188361123,-2.52737715559271,3.260271211609081,0.01946208935821124,4.123279608777399,-0.12477550921288794,0.03783057890254549,-0.16778640231225703,0.9589424344521865,0.4856860339641571,-0.019307736307382584,0.019307736307382584,0.04499999999961801,-16.714843723108583,1.2490978079635016,0.11128133271400154,-0.03784888013717072,0.015712851733627343,2.2097371092199967,-2.2829937461943413,3.3531255642878106,0.01498122274918584,4.053100410231415,-0.16699868150634556,-0.04189962920962906,-0.19352163572464656,1.051504486090063,-0.20823847293162207,-1.5595377454795614,-0.9382927176403564,-1.1277573142568231
-16.714843723108583,1.2490978079635016,0.11128133271400154,-0.03784888013717072,0.015712851733627343,2.2097371092199967,-2.2829937461943413,3.3531255642878106,0.01498122274918584,4.053100410231415,-0.16699868150634556,-0.04189962920962906,-0.19352163572464656,1.051504486090063,0.4896010458469391,0.15528464317321777,0.0,0.03999999999996362,-16.801930056810775,1.3850195712081528,0.11158714068668055,-0.03658168253731317,0.013246299617566003,2.166181000087335,-2.0798889136985568,3.4383571825622288,0.00043284305446637805,4.013187216318377,-0.2063162014534703,0.007466600398956183,-0.3054016678983927,1.0468360917105128,0.031679939996467565,-0.9978298478268559,-0.9829379986790123,-1.0889027283175334
-16.801930056810775,1.3850195712081528,0.11158714068668055,-0.03658168253731317,0.013246299617566003,2.166181000087335,-2.0798889136985568,3.4383571825622288,0.00043284305446637805,4.013187216318377,-0.2063162014534703,0.007466600398956183,-0.3054016678983927,1.0468360917105128,0.4945025146007538,0.2132081687450409,0.0,0.03000000000020009,-16.862153175853575,1.4892107280380602,0.1114592236784184,-0.03571382332230304,0.011532885041596948,2.1301253385625687,-1.9397449602346781,3.5024516174091045,-0.006922945009412873,3.9979804854925165,-0.21431257701895756,0.29771932423379277,0.013456719907082762,1.2892529766422678,0.028928640500144834,-0.5068910275252968,-0.2665458521811312,-1.201855384150859
-16.862153175853575,1.4892107280380602,0.1114592236784184,-0.03571382332230304,0.011532885041596948,2.1301253385625687,-1.9397449602346781,3.5024516174091045,-0.006922945009412873,3.9979804854925165,-0.21431257701895756,0.29771932423379277,0.013456719907082762,1.2892529766422678,0.49256041646003723,0.2170923352241516,0.0,0.0749999999998181,-16.99461440498117,1.758704923458578,0.1108958074196168,-0.03511871932457458,0.008034206189732595,2.039216059253345,-1.591541336089958,3.675964207668741,-0.0021584128775238576,3.998543838306699,-0.23950752323092828,0.11702946631608212,0.042740902900934574,1.3374571067216043,0.007934719969731979,0.007511370855783619,-0.33593261616042425,-1.212123724125922
-16.99461440498117,1.758704923458578,0.1108958074196168,-0.03511871932457458,0.008034206189732595,2.039216059253345,-1.591541336089958,3.675964207668741,-0.0021584128775238576,3.998543838306699,-0.23950752323092828,0.11702946631608212,0.042740902900934574,1.3374571067216043,0.4945025146007538,0.21752391755580902,0.0,0.03500000000030923,-17.04751156543398,1.8886099295287722,0.11084113183004307,-0.032461642203262545,0.007998253671185734,1.9970848702756,-1.424524490089451,3.7471417494824086,-0.0016216885869384454,4.000830438165527,-0.25238288101005546,0.3563066943192845,0.34402612494025264,1.2948464940357391,0.0759164891796732,0.06533142453735798,-0.3678673651146694,-1.2037482564963626
-17.04751156543398,1.8886099295287722,0.11084113183004307,-0.032461642203262545,0.007998253671185734,1.9970848702756,-1.424524490089451,3.7471417494824086,-0.0016216885869384454,4.000830438165527,-0.25238288101005546,0.3563066943192845,0.34402612494025264,1.2948464940357391,0.44151127338409424,0.2166607677936554,0.0,0.03499999999985448,-17.095051381044218,2.02054952068788,0.11082117206609984,-0.03112473235284574,0.007490352719182428,1.9540462655713287,-1.2780179919063643,3.7980015573183263,-0.00014969813538950882,4.000370454590335,-0.23490858449517016,-0.13282629594684903,-0.19176800868045063,1.2191546941459488,0.03819742429778177,-0.01314238786266266,0.4992656147130844,-1.229674420127154
